{"id":"0x31746739e7ba22cb:0x8a347ce7d67a0b6c","tel":"+84 968 659 609","spa":"Lan Spa Tân Phú - Vua Điều Trị Nám, Mụn, Sẹo","name":"Lan Spa Tân Phú - Vua Điều Trị Nám, Mụn, Sẹo, 836 QL20, TT. Tân Phú, Tân Phú, Đồng Nai, Vietnam","name2":"Lan Spa Tân Phú - Vua Điều Trị Nám, Mụn, Sẹo, 836 QL20, TT. Tân Phú, Tân Phú, Đồng Nai, Vietnam","lat":11.269875899999999,"lon":107.4366153,"add":"836 QL20","ward":"TT. Tân Phú","dist":"Tân Phú","province":"Đồng Nai, Vietnam","ward2":"Xã Phú Lập","dist2":"Huyện Tân Phú","province2":"Tỉnh Đồng Nai"}
{"id":"0x31746f5ea0e3a03b:0xd7feb664dd2d089","tel":"+84 962 279 382","spa":"HaLa Beauty Spa 1","name":"HaLa Beauty Spa 1, 2131/9/7 tổ 2 ấp phương lâm 1, Phú Lâm, Tân Phú, Đồng Nai, Vietnam","name2":"HaLa Beauty Spa 1, 2131/9/7 tổ 2 ấp phương lâm 1, Phú Lâm, Tân Phú, Đồng Nai, Vietnam","lat":11.284541899999999,"lon":107.48522299999999,"add":"2131/9/7 tổ 2 ấp phương lâm 1","ward":"Phú Lâm","dist":"Tân Phú","province":"Đồng Nai, Vietnam","ward2":"Xã Phú Lập","dist2":"Huyện Tân Phú","province2":"Tỉnh Đồng Nai"}
{"id":"0x31746f7804c07b5b:0x3b7a16fb24f38fb8","tel":"+84 368 306 248","spa":"Kim Huyền Beauty","name":"Kim Huyền Beauty, 67 Phú Lâm, Tân Phú, Đồng Nai, Vietnam","name2":"Kim Huyền Beauty, 67 Phú Lâm, Tân Phú, Đồng Nai, Vietnam","lat":11.2881247,"lon":107.4882974,"add":"67 Phú Lâm","ward":"Tân Phú","dist":"Đồng Nai","province":"Vietnam","ward2":"Xã Phú Lập","dist2":"Huyện Tân Phú","province2":"Tỉnh Đồng Nai"}
{"id":"0x31747be2cc45a621:0x99b37a572ccf3918","tel":"+84 393 752 145","spa":"Spa ngọc Lý","name":"Spa ngọc Lý, 254 Tổ 4 ÂP 2, Phú An, Tân Phú, Đồng Nai, Vietnam","name2":"Spa ngọc Lý, 254 Tổ 4 ÂP 2, Phú An, Tân Phú, Đồng Nai, Vietnam","lat":11.369982,"lon":107.49050369999999,"add":"254 Tổ 4 ÂP 2","ward":"Phú An","dist":"Tân Phú","province":"Đồng Nai, Vietnam","ward2":"Xã Phú Lập","dist2":"Huyện Tân Phú","province2":"Tỉnh Đồng Nai"}
{"id":"0x3174611cb8a41b3b:0x677dc724c24d053a","tel":"+84 356 655 294","spa":"Spa Hồng Linh","name":"Spa Hồng Linh, 68 Phố 6, ấp 4, Định Quán, Đồng Nai, Vietnam","name2":"Spa Hồng Linh, 68 Phố 6, ấp 4, Định Quán, Đồng Nai, Vietnam","lat":11.2045148,"lon":107.3651336,"add":"68 Phố 6","ward":"ấp 4","dist":"Định Quán","province":"Đồng Nai, Vietnam","ward2":"Xã Phú Lập","dist2":"Huyện Tân Phú","province2":"Tỉnh Đồng Nai"}
{"id":"0x317465e59015eeed:0x3ff544685e1d6c5d","tel":"+84 917 661 279","spa":"Spa Thẩm Mỹ Minh Thư","name":"Spa Thẩm Mỹ Minh Thư, 1548 QL20, Phú Xuân, Tân Phú, Đồng Nai, Vietnam","name2":"Spa Thẩm Mỹ Minh Thư, 1548 QL20, Phú Xuân, Tân Phú, Đồng Nai, Vietnam","lat":11.2783724,"lon":107.46357169999999,"add":"1548 QL20","ward":"Phú Xuân","dist":"Tân Phú","province":"Đồng Nai, Vietnam","ward2":"Xã Phú Lập","dist2":"Huyện Tân Phú","province2":"Tỉnh Đồng Nai"}
{"id":"0x3174672eb179779b:0xdfbd13e8e4ee35d2","tel":"+84 888 093 096","spa":"Spa Ngọc Tú","name":"Spa Ngọc Tú, 63 Trà Cổ, TT. Tân Phú, Tân Phú, Đồng Nai, Vietnam","name2":"Spa Ngọc Tú, 63 Trà Cổ, TT. Tân Phú, Tân Phú, Đồng Nai, Vietnam","lat":11.2637577,"lon":107.4286367,"add":"63 Trà Cổ","ward":"TT. Tân Phú","dist":"Tân Phú","province":"Đồng Nai, Vietnam","ward2":"Xã Phú Lập","dist2":"Huyện Tân Phú","province2":"Tỉnh Đồng Nai"}
{"id":"0x31746193c1a6fe13:0xd7bb189a863c03aa","tel":"+84 986 077 832","spa":"Nhi spa","name":"Nhi spa, Khu 5 ấp 2, Đồng Nai 76710, Vietnam","name2":"Nhi spa, Khu 5 ấp 2, Đồng Nai 76710, Vietnam","lat":11.2462968,"lon":107.38331529999999,"add":"Khu 5 ấp 2","ward":"Đồng Nai 76710","dist":"Vietnam","ward2":"Xã Phú Lập","dist2":"Huyện Tân Phú","province2":"Tỉnh Đồng Nai"}
{"id":"0x317461a1a70a7359:0xd0b2c9db92277836","tel":"+84 888 512 429","spa":"ZenSpa Định Quán","name":"ZenSpa Định Quán, XÃ, 3 P. 2, ẤP 4, Định Quán, Đồng Nai, Vietnam","name2":"ZenSpa Định Quán, XÃ, 3 P. 2, ẤP 4, Định Quán, Đồng Nai, Vietnam","lat":11.209634999999999,"lon":107.3586687,"add":"XÃ, 3 P. 2","ward":"ẤP 4","dist":"Định Quán","province":"Đồng Nai, Vietnam","ward2":"Xã Phú Lập","dist2":"Huyện Tân Phú","province2":"Tỉnh Đồng Nai"}
{"id":"0x31747d2f87afdbed:0x37cc57094382f5c6","tel":"+84 973 055 189","spa":"Spa Đồng Nai - RUY's SPA","name":"Spa Đồng Nai - RUY's SPA, 1652, Tà Lài, Đồng Nai 76000, Vietnam","name2":"Spa Đồng Nai - RUY's SPA, 1652, Tà Lài, Đồng Nai 76000, Vietnam","lat":11.3747934,"lon":107.3639017,"add":"1652","ward":"Tà Lài","dist":"Đồng Nai 76000","province":"Vietnam","ward2":"Xã Phú Lập","dist2":"Huyện Tân Phú","province2":"Tỉnh Đồng Nai"}
{"id":"0x3174713cde03662b:0x4be99a0d40b3ff3e","tel":"+84 345 071 668","spa":"Duyên Spa Beauty","name":"Duyên Spa Beauty, 4023 ấp Phú lâm 1, Phú Sơn, Tân Phú, Đồng Nai, Vietnam","name2":"Duyên Spa Beauty, 4023 ấp Phú lâm 1, Phú Sơn, Tân Phú, Đồng Nai, Vietnam","lat":11.357066699999999,"lon":107.52315779999999,"add":"4023 ấp Phú lâm 1","ward":"Phú Sơn","dist":"Tân Phú","province":"Đồng Nai, Vietnam","ward2":"Xã Phú Lập","dist2":"Huyện Tân Phú","province2":"Tỉnh Đồng Nai"}
{"id":"0x31747b218bbe06d3:0xe3e4e254cf44890b","tel":"+84 906 356 893","spa":"TRANG_Spa&Healthy","name":"997V+379 TRANG_Spa&Healthy, Phú Lập, Tân Phú, Đồng Nai, Vietnam","name2":"997V+379 TRANG_Spa&Healthy, Phú Lập, Tân Phú, Đồng Nai, Vietnam","lat":11.362656,"lon":107.3932269,"add":"997V+379","ward":"Phú Lập","dist":"Tân Phú","province":"Đồng Nai, Vietnam","ward2":"Xã Phú Lập","dist2":"Huyện Tân Phú","province2":"Tỉnh Đồng Nai"}
{"id":"0x31746465538208e7:0x44fdee8dd02e7b5","tel":null,"spa":"Mỹ Duyên Home Spa","name":"Mỹ Duyên Home Spa, 565 Tà Lài, Phú Lộc, Tân Phú, Đồng Nai, Vietnam","name2":"Mỹ Duyên Home Spa, 565 Tà Lài, Phú Lộc, Tân Phú, Đồng Nai, Vietnam","lat":11.3054445,"lon":107.3968718,"add":"565 Tà Lài","ward":"Phú Lộc","dist":"Tân Phú","province":"Đồng Nai, Vietnam","ward2":"Xã Phú Lập","dist2":"Huyện Tân Phú","province2":"Tỉnh Đồng Nai"}
{"id":"0x31746f83e4763017:0xaab039b74cf33f29","tel":"+84 362 112 367","spa":"Khuyên Spa Academy & Beauty","name":"Khuyên Spa Academy & Beauty, 2752 ấp Phú Yên, Phú Lâm, Tân Phú, Đồng Nai 814930, Vietnam","name2":"Khuyên Spa Academy & Beauty, 2752 ấp Phú Yên, Phú Lâm, Tân Phú, Đồng Nai 814930, Vietnam","lat":11.2963053,"lon":107.5020306,"add":"2752 ấp Phú Yên","ward":"Phú Lâm","dist":"Tân Phú","province":"Đồng Nai 814930, Vietnam","ward2":"Xã Phú Lập","dist2":"Huyện Tân Phú","province2":"Tỉnh Đồng Nai"}
{"id":"0x317464bb85ab27b1:0xbdcc19e5e187aeac","tel":null,"spa":"Spa Ngọc Phụng","name":"8CV2+F3F Spa Ngọc Phụng, Tà Lài, Phú Thịnh, Tân Phú, Đồng Nai, Vietnam","name2":"8CV2+F3F Spa Ngọc Phụng, Tà Lài, Phú Thịnh, Tân Phú, Đồng Nai, Vietnam","lat":11.3436813,"lon":107.40018549999999,"add":"8CV2+F3F, Tà Lài","ward":"Phú Thịnh","dist":"Tân Phú","province":"Đồng Nai, Vietnam","ward2":"Xã Phú Lập","dist2":"Huyện Tân Phú","province2":"Tỉnh Đồng Nai"}
{"id":"0x31746680e07c0547:0x121403a6445aad73","tel":null,"spa":"Spa Lysa","name":"Spa Lysa, 557 QL20, TT. Tân Phú, Tân Phú, Đồng Nai, Vietnam","name2":"Spa Lysa, 557 QL20, TT. Tân Phú, Tân Phú, Đồng Nai, Vietnam","lat":11.2664441,"lon":107.42937889999999,"add":"557 QL20","ward":"TT. Tân Phú","dist":"Tân Phú","province":"Đồng Nai, Vietnam","ward2":"Xã Phú Lập","dist2":"Huyện Tân Phú","province2":"Tỉnh Đồng Nai"}
{"id":"0x31746f4ce26b25ff:0x6019deb61beef538","tel":null,"spa":"Thanh Beauty Spa","name":"7FMR+8RF Thanh Beauty Spa, Phú Lâm, Tân Phú, Đồng Nai, Vietnam","name2":"7FMR+8RF Thanh Beauty Spa, Phú Lâm, Tân Phú, Đồng Nai, Vietnam","lat":11.283324499999999,"lon":107.4920592,"add":"7FMR+8RF","ward":"Phú Lâm","dist":"Tân Phú","province":"Đồng Nai, Vietnam","ward2":"Xã Phú Lập","dist2":"Huyện Tân Phú","province2":"Tỉnh Đồng Nai"}
{"id":"0x31746ff362609ca9:0x6199fea5b7c95793","tel":"+84 978 707 545","spa":"Thanh Spa","name":"Thanh Spa, 121 ấp phương lâm, Đồng nai, Tân Phú, Đồng Nai, Vietnam","name2":"Thanh Spa, 121 ấp phương lâm, Đồng nai, Tân Phú, Đồng Nai, Vietnam","lat":11.2857621,"lon":107.48783089999999,"add":"121 ấp phương lâm","ward":"Đồng nai","dist":"Tân Phú","province":"Đồng Nai, Vietnam","ward2":"Xã Phú Lập","dist2":"Huyện Tân Phú","province2":"Tỉnh Đồng Nai"}
{"id":"0x31746f5c58bbd0c7:0x2d3ff073c0ddc98e","tel":"+84 366 614 555","spa":"SPA BÍCH & HUYỀN","name":"7FPQ+286 SPA BÍCH & HUYỀN, Phú Lâm, Tân Phú, Đồng Nai, Vietnam","name2":"7FPQ+286 SPA BÍCH & HUYỀN, Phú Lâm, Tân Phú, Đồng Nai, Vietnam","lat":11.2850447,"lon":107.48827329999999,"add":"7FPQ+286","ward":"Phú Lâm","dist":"Tân Phú","province":"Đồng Nai, Vietnam","ward2":"Xã Phú Lập","dist2":"Huyện Tân Phú","province2":"Tỉnh Đồng Nai"}
{"id":"0x31748fea2aa616c9:0x8290674154310b68","tel":null,"spa":"Spa Thoa Nguyễn","name":"74WV+M4F Spa Thoa Nguyễn, Ấp 4 - Cây Cầy, Phú Lý, Vĩnh Cửu, Đồng Nai, Vietnam","name2":"74WV+M4F Spa Thoa Nguyễn, Ấp 4 - Cây Cầy, Phú Lý, Vĩnh Cửu, Đồng Nai, Vietnam","lat":11.2966766,"lon":107.14280269999999,"add":"74WV+M4F, Ấp 4 - Cây Cầy","ward":"Phú Lý","dist":"Vĩnh Cửu","province":"Đồng Nai, Vietnam","ward2":"Xã Phú Lập","dist2":"Huyện Tân Phú","province2":"Tỉnh Đồng Nai"}
{"id":"0x31746f4ce26b25ff:0x6019deb61beef538","tel":null,"spa":"Thanh Beauty Spa","name":"7FMR+8RF Thanh Beauty Spa, Phú Lâm, Tân Phú, Đồng Nai, Vietnam","name2":"7FMR+8RF Thanh Beauty Spa, Phú Lâm, Tân Phú, Đồng Nai, Vietnam","lat":11.283324499999999,"lon":107.4920592,"add":"7FMR+8RF","ward":"Phú Lâm","dist":"Tân Phú","province":"Đồng Nai, Vietnam","ward2":"Xã Phú Lập","dist2":"Huyện Tân Phú","province2":"Tỉnh Đồng Nai"}
{"id":"0x31746f5c58bbd0c7:0x2d3ff073c0ddc98e","tel":"+84 366 614 555","spa":"SPA BÍCH & HUYỀN","name":"7FPQ+286 SPA BÍCH & HUYỀN, Phú Lâm, Tân Phú, Đồng Nai, Vietnam","name2":"7FPQ+286 SPA BÍCH & HUYỀN, Phú Lâm, Tân Phú, Đồng Nai, Vietnam","lat":11.2850447,"lon":107.48827329999999,"add":"7FPQ+286","ward":"Phú Lâm","dist":"Tân Phú","province":"Đồng Nai, Vietnam","ward2":"Xã Phú Lập","dist2":"Huyện Tân Phú","province2":"Tỉnh Đồng Nai"}
{"id":"0x31746f83e4763017:0xaab039b74cf33f29","tel":"+84 362 112 367","spa":"Khuyên Spa Academy & Beauty","name":"Khuyên Spa Academy & Beauty, 2752 ấp Phú Yên, Phú Lâm, Tân Phú, Đồng Nai 814930, Vietnam","name2":"Khuyên Spa Academy & Beauty, 2752 ấp Phú Yên, Phú Lâm, Tân Phú, Đồng Nai 814930, Vietnam","lat":11.2963053,"lon":107.5020306,"add":"2752 ấp Phú Yên","ward":"Phú Lâm","dist":"Tân Phú","province":"Đồng Nai 814930, Vietnam","ward2":"Xã Phú Lập","dist2":"Huyện Tân Phú","province2":"Tỉnh Đồng Nai"}
{"id":"0x31747b0df28f2e69:0x4f71ea51510edde5","tel":null,"spa":"Spa Mến Nguyễn","name":"9CR7+V7J Spa Mến Nguyễn, Phú Lập - Nam Cát Tiên, Núi Tượng, Tân Phú, Đồng Nai, Vietnam","name2":"9CR7+V7J Spa Mến Nguyễn, Phú Lập - Nam Cát Tiên, Núi Tượng, Tân Phú, Đồng Nai, Vietnam","lat":11.3922147,"lon":107.413134,"add":"9CR7+V7J, Phú Lập - Nam Cát Tiên","ward":"Núi Tượng","dist":"Tân Phú","province":"Đồng Nai, Vietnam","ward2":"Xã Phú Lập","dist2":"Huyện Tân Phú","province2":"Tỉnh Đồng Nai"}
{"id":"0x31746523d3733545:0x6c8ff70573b277c3","tel":"+84 347 847 328","spa":"Iris Spa","name":"Iris Spa, 6 Be 129, Phú Thanh, Tân Phú, Đồng Nai, Vietnam","name2":"Iris Spa, 6 Be 129, Phú Thanh, Tân Phú, Đồng Nai, Vietnam","lat":11.2744801,"lon":107.45856959999999,"add":"6 Be 129","ward":"Phú Thanh","dist":"Tân Phú","province":"Đồng Nai, Vietnam","ward2":"Xã Phú Lập","dist2":"Huyện Tân Phú","province2":"Tỉnh Đồng Nai"}
{"id":"0x317461a1a70a7359:0xd0b2c9db92277836","tel":"+84 888 512 429","spa":"ZenSpa Định Quán","name":"ZenSpa Định Quán, XÃ, 3 P. 2, ẤP 4, Định Quán, Đồng Nai, Vietnam","name2":"ZenSpa Định Quán, XÃ, 3 P. 2, ẤP 4, Định Quán, Đồng Nai, Vietnam","lat":11.209634999999999,"lon":107.3586687,"add":"XÃ, 3 P. 2","ward":"ẤP 4","dist":"Định Quán","province":"Đồng Nai, Vietnam","ward2":"Xã Phú Lập","dist2":"Huyện Tân Phú","province2":"Tỉnh Đồng Nai"}
{"id":"0x317465f78bbcfe07:0xf36aa6c91a77baa4","tel":null,"spa":"Spa Hano'S","name":"Spa Hano'S, 1823 QL20, Phú Thanh, Tân Phú, Đồng Nai, Vietnam","name2":"Spa Hano'S, 1823 QL20, Phú Thanh, Tân Phú, Đồng Nai, Vietnam","lat":11.278731599999999,"lon":107.4777938,"add":"1823 QL20","ward":"Phú Thanh","dist":"Tân Phú","province":"Đồng Nai, Vietnam","ward2":"Xã Phú Lập","dist2":"Huyện Tân Phú","province2":"Tỉnh Đồng Nai"}
{"id":"0x317465756f73c141:0x615140a6753bf744","tel":"+84 979 018 573","spa":"Trung tâm phân phối tinh dầu thông đỏ Edally- chăn Mỹ phẩm thế naturebook - spa Minh Anh","name":"Trung tâm phân phối tinh dầu thông đỏ Edally- chăn Mỹ phẩm thế naturebook - spa Minh Anh, Phú Thịnh, Tân Phú, Đồng Nai, Vietnam","name2":"Trung tâm phân phối tinh dầu thông đỏ Edally- chăn Mỹ phẩm thế naturebook - spa Minh Anh, Phú Thịnh, Tân Phú, Đồng Nai, Vietnam","lat":11.328748599999999,"lon":107.40500159999999,"add":"Phú Thịnh","ward":"Tân Phú","dist":"Đồng Nai","province":"Vietnam","ward2":"Xã Phú Lập","dist2":"Huyện Tân Phú","province2":"Tỉnh Đồng Nai"}
{"id":"0x3174642a77d2af55:0x7e9c3f67fc211a1e","tel":null,"spa":"Spa Thanh's","name":"7CCH+68Q Spa Thanh's, Nguyễn Hữu Cảnh, TT. Tân Phú, Tân Phú, Đồng Nai, Vietnam","name2":"7CCH+68Q Spa Thanh's, Nguyễn Hữu Cảnh, TT. Tân Phú, Tân Phú, Đồng Nai, Vietnam","lat":11.2705934,"lon":107.4283495,"add":"7CCH+68Q, Nguyễn Hữu Cảnh","ward":"TT. Tân Phú","dist":"Tân Phú","province":"Đồng Nai, Vietnam","ward2":"Xã Phú Lập","dist2":"Huyện Tân Phú","province2":"Tỉnh Đồng Nai"}
{"id":"0x31746ffe8994e08d:0x30edebd3a5b022ea","tel":"+84 988 507 101","spa":"Helen Thanh Tâm beauty & clinic","name":"Helen Thanh Tâm beauty & clinic, 120 Đường năm tấn, tổ 8 ấp thanh thọ 1, Phú Lâm, Tân Phú, Đồng Nai, Vietnam","name2":"Helen Thanh Tâm beauty & clinic, 120 Đường năm tấn, tổ 8 ấp thanh thọ 1, Phú Lâm, Tân Phú, Đồng Nai, Vietnam","lat":11.278537199999999,"lon":107.4904595,"add":"120 Đường năm tấn, tổ 8 ấp thanh thọ 1","ward":"Phú Lâm","dist":"Tân Phú","province":"Đồng Nai, Vietnam","ward2":"Xã Phú Lập","dist2":"Huyện Tân Phú","province2":"Tỉnh Đồng Nai"}
{"id":"0x31746595c29026bd:0xba02d5314201e09","tel":null,"spa":"Việt búp bê","name":"Việt búp bê, 3 Ấp 3, Ap2, Tân Phú, Đồng Nai, Vietnam","name2":"Việt búp bê, 3 Ấp 3, Ap2, Tân Phú, Đồng Nai, Vietnam","lat":11.302395899999999,"lon":107.3974289,"add":"3 Ấp 3","ward":"Ap2","dist":"Tân Phú","province":"Đồng Nai, Vietnam","ward2":"Xã Phú Lập","dist2":"Huyện Tân Phú","province2":"Tỉnh Đồng Nai"}
{"id":"0x317467cbc6e88e5d:0xb69f419b727e535c","tel":"+84 974 167 630","spa":"Mộc Spa","name":"Mộc Spa, 89 Nguyễn Tất Thành, TT. Tân Phú, Tân Phú, Đồng Nai, Vietnam","name2":"Mộc Spa, 89 Nguyễn Tất Thành, TT. Tân Phú, Tân Phú, Đồng Nai, Vietnam","lat":11.268263899999999,"lon":107.43013739999999,"add":"89 Nguyễn Tất Thành","ward":"TT. Tân Phú","dist":"Tân Phú","province":"Đồng Nai, Vietnam","ward2":"Xã Phú Lập","dist2":"Huyện Tân Phú","province2":"Tỉnh Đồng Nai"}
{"id":"0x317465e6f476a62d:0xf3e96c0de220f422","tel":null,"spa":"Spa Ngọc Ánh","name":"Spa Ngọc Ánh, 1363 QL20, Phú Thanh, Tân Phú, Đồng Nai, Vietnam","name2":"Spa Ngọc Ánh, 1363 QL20, Phú Thanh, Tân Phú, Đồng Nai, Vietnam","lat":11.2765013,"lon":107.460027,"add":"1363 QL20","ward":"Phú Thanh","dist":"Tân Phú","province":"Đồng Nai, Vietnam","ward2":"Xã Phú Lập","dist2":"Huyện Tân Phú","province2":"Tỉnh Đồng Nai"}
{"id":"0x317465e689ddb25f:0x420825dcd512d41c","tel":null,"spa":"Spa Tuyết Ngân","name":"Spa Tuyết Ngân, 1468 QL20, Phú Thanh, Tân Phú, Đồng Nai, Vietnam","name2":"Spa Tuyết Ngân, 1468 QL20, Phú Thanh, Tân Phú, Đồng Nai, Vietnam","lat":11.2767622,"lon":107.46082539999999,"add":"1468 QL20","ward":"Phú Thanh","dist":"Tân Phú","province":"Đồng Nai, Vietnam","ward2":"Xã Phú Lập","dist2":"Huyện Tân Phú","province2":"Tỉnh Đồng Nai"}
{"id":"0x317465c6bb57279b:0x6bd9a2ae5f6a7977","tel":null,"spa":"SPA MINH ANH","name":"SPA MINH ANH, Tổ 13 Ấp 6, Tân Phú, Đồng Nai, Vietnam","name2":"SPA MINH ANH, Tổ 13 Ấp 6, Tân Phú, Đồng Nai, Vietnam","lat":11.3288987,"lon":107.4050781,"add":"Tổ 13 Ấp 6","ward":"Tân Phú","dist":"Đồng Nai","province":"Vietnam","ward2":"Xã Phú Lập","dist2":"Huyện Tân Phú","province2":"Tỉnh Đồng Nai"}
{"id":"0x317465dd919fe275:0xc75dab865a97bbf1","tel":"+84 989 904 242","spa":"Happy Mom Spa Mẹ và Bé","name":"7FF9+HV4 Happy Mom Spa Mẹ và Bé, Đ. 130, Phú Thanh, Tân Phú, Đồng Nai, Vietnam","name2":"7FF9+HV4 Happy Mom Spa Mẹ và Bé, Đ. 130, Phú Thanh, Tân Phú, Đồng Nai, Vietnam","lat":11.2738961,"lon":107.46970569999999,"add":"7FF9+HV4, Đ. 130","ward":"Phú Thanh","dist":"Tân Phú","province":"Đồng Nai, Vietnam","ward2":"Xã Phú Lập","dist2":"Huyện Tân Phú","province2":"Tỉnh Đồng Nai"}
{"id":"0x317467957a3312d3:0xa95698ebb9cf9b34","tel":null,"spa":"LamThy Nail & Spa","name":"LamThy Nail & Spa, 690 QL20, TT. Tân Phú, Tân Phú, Đồng Nai, Vietnam","name2":"LamThy Nail & Spa, 690 QL20, TT. Tân Phú, Tân Phú, Đồng Nai, Vietnam","lat":11.2675486,"lon":107.4322308,"add":"690 QL20","ward":"TT. Tân Phú","dist":"Tân Phú","province":"Đồng Nai, Vietnam","ward2":"Xã Phú Lập","dist2":"Huyện Tân Phú","province2":"Tỉnh Đồng Nai"}
{"id":"0x31747faecb13cac5:0x5c6c9ae357ba7c5d","tel":"+84 973 478 439","spa":"Salon Kim Thoa","name":"Salon Kim Thoa, Dong Nai, Tân Phú, Đồng Nai, Vietnam","name2":"Salon Kim Thoa, Dong Nai, Tân Phú, Đồng Nai, Vietnam","lat":11.474160699999999,"lon":107.31393039999999,"add":"Dong Nai","ward":"Tân Phú","dist":"Đồng Nai","province":"Vietnam","ward2":"Xã Phú Lập","dist2":"Huyện Tân Phú","province2":"Tỉnh Đồng Nai"}
{"id":"0x31746f44a534025f:0xdbbdf9fe0fe59aa0","tel":null,"spa":"Spa Bích Phượng","name":"Spa Bích Phượng, xã Phú Lâm, Tân Phú, Đồng Nai, Vietnam","name2":"Spa Bích Phượng, xã Phú Lâm, Tân Phú, Đồng Nai, Vietnam","lat":11.282383999999999,"lon":107.4922019,"add":"xã Phú Lâm","ward":"Tân Phú","dist":"Đồng Nai","province":"Vietnam","ward2":"Xã Phú Lập","dist2":"Huyện Tân Phú","province2":"Tỉnh Đồng Nai"}
{"id":"0x3174650b81b786c5:0xb165e843b37899ef","tel":"+84 989 904 242","spa":"Happy Mom spa Mẹ và Bé","name":"Happy Mom spa Mẹ và Bé, 1714 Ấp Thọ Lâm, 2, Tân Phú, Đồng Nai 76000, Vietnam","name2":"Happy Mom spa Mẹ và Bé, 1714 Ấp Thọ Lâm, 2, Tân Phú, Đồng Nai 76000, Vietnam","lat":11.279834,"lon":107.47391359999999,"add":"1714 Ấp Thọ Lâm","ward":"2","dist":"Tân Phú","province":"Đồng Nai 76000, Vietnam","ward2":"Xã Phú Lập","dist2":"Huyện Tân Phú","province2":"Tỉnh Đồng Nai"}
{"id":"0x317465e5e893945b:0x80e70decb7850558","tel":"+84 902 393 682","spa":"Spa Ny's","name":"Spa Ny's, 1435 QL20, Phú Xuân, Tân Phú, Đồng Nai, Vietnam","name2":"Spa Ny's, 1435 QL20, Phú Xuân, Tân Phú, Đồng Nai, Vietnam","lat":11.2782433,"lon":107.4625861,"add":"1435 QL20","ward":"Phú Xuân","dist":"Tân Phú","province":"Đồng Nai, Vietnam","ward2":"Xã Phú Lập","dist2":"Huyện Tân Phú","province2":"Tỉnh Đồng Nai"}
{"id":"0x31746f233d645045:0xfc0786cb06713966","tel":"+84 334 004 328","spa":"BÔNG SPA CLINIC","name":"BÔNG SPA CLINIC, 2115 QL20, Phú Lâm, Tân Phú, Đồng Nai, Vietnam","name2":"BÔNG SPA CLINIC, 2115 QL20, Phú Lâm, Tân Phú, Đồng Nai, Vietnam","lat":11.2836302,"lon":107.4859207,"add":"2115 QL20","ward":"Phú Lâm","dist":"Tân Phú","province":"Đồng Nai, Vietnam","ward2":"Xã Phú Lập","dist2":"Huyện Tân Phú","province2":"Tỉnh Đồng Nai"}
{"id":"0x31746f42645f0667:0x15268d3d1ea8df75","tel":null,"spa":"Spa Phương Trinh","name":"Spa Phương Trinh, xã Phú Lâm, Tân Phú, Đồng Nai, Vietnam","name2":"Spa Phương Trinh, xã Phú Lâm, Tân Phú, Đồng Nai, Vietnam","lat":11.2874842,"lon":107.4947818,"add":"xã Phú Lâm","ward":"Tân Phú","dist":"Đồng Nai","province":"Vietnam","ward2":"Xã Phú Lập","dist2":"Huyện Tân Phú","province2":"Tỉnh Đồng Nai"}
{"id":"0x31746f3d50cb0859:0xba6c3b85a8b31b4d","tel":null,"spa":"Thuý's Beauty","name":"7FQQ+8GV Thuý's Beauty, Phú Lâm, Tân Phú, Đồng Nai, Vietnam","name2":"7FQQ+8GV Thuý's Beauty, Phú Lâm, Tân Phú, Đồng Nai, Vietnam","lat":11.2883923,"lon":107.488762,"add":"7FQQ+8GV","ward":"Phú Lâm","dist":"Tân Phú","province":"Đồng Nai, Vietnam","ward2":"Xã Phú Lập","dist2":"Huyện Tân Phú","province2":"Tỉnh Đồng Nai"}
{"id":"0x31746f1abb3f5533:0x55975584ad0a67a6","tel":"+84 945 030 422","spa":"Tiên Thư Spa","name":"7FMP+8MC Tiên Thư Spa, Phú Lâm, Tân Phú, Đồng Nai, Vietnam","name2":"7FMP+8MC Tiên Thư Spa, Phú Lâm, Tân Phú, Đồng Nai, Vietnam","lat":11.2833121,"lon":107.48662589999999,"add":"7FMP+8MC","ward":"Phú Lâm","dist":"Tân Phú","province":"Đồng Nai, Vietnam","ward2":"Xã Phú Lập","dist2":"Huyện Tân Phú","province2":"Tỉnh Đồng Nai"}
{"id":"0x31746f759ca9244b:0xb7c9cde14f546868","tel":"+84 974 249 437","spa":"Thủy Ngô BEAUTY","name":"Thủy Ngô BEAUTY, 2315 , ấp, Phú Lâm, Tân Phú, Đồng Nai, Vietnam","name2":"Thủy Ngô BEAUTY, 2315 , ấp, Phú Lâm, Tân Phú, Đồng Nai, Vietnam","lat":11.2864164,"lon":107.4895689,"add":"2315 , ấp","ward":"Phú Lâm","dist":"Tân Phú","province":"Đồng Nai, Vietnam","ward2":"Xã Phú Lập","dist2":"Huyện Tân Phú","province2":"Tỉnh Đồng Nai"}
{"id":"0x317465d8a6fbfb39:0x89830155f1280144","tel":null,"spa":"Spa Diệu Tuấn","name":"Spa Diệu Tuấn, 589 Tà Lài, Phú Lộc, Tân Phú, Đồng Nai, Vietnam","name2":"Spa Diệu Tuấn, 589 Tà Lài, Phú Lộc, Tân Phú, Đồng Nai, Vietnam","lat":11.306011699999999,"lon":107.3967019,"add":"589 Tà Lài","ward":"Phú Lộc","dist":"Tân Phú","province":"Đồng Nai, Vietnam","ward2":"Xã Phú Lập","dist2":"Huyện Tân Phú","province2":"Tỉnh Đồng Nai"}
{"id":"0x317467c165b0fbcd:0x2552f052c88f6424","tel":"+84 962 363 340","spa":"Thẩm mỹ Yang","name":"7C9G+PP4 Thẩm mỹ Yang, Nguyễn Hữu Cảnh, Khu 6, Tân Phú, Đồng Nai, Vietnam","name2":"7C9G+PP4 Thẩm mỹ Yang, Nguyễn Hữu Cảnh, Khu 6, Tân Phú, Đồng Nai, Vietnam","lat":11.2692543,"lon":107.42682649999999,"add":"7C9G+PP4, Nguyễn Hữu Cảnh","ward":"Khu 6","dist":"Tân Phú","province":"Đồng Nai, Vietnam","ward2":"Xã Phú Lập","dist2":"Huyện Tân Phú","province2":"Tỉnh Đồng Nai"}
{"id":"0x31746fd255c35cad:0x2cc46a3ae6979520","tel":"+84 397 385 794","spa":"ngọc anh spa","name":"ngọc anh spa, 56 tổ 7, ấp, Tân Phú, Đồng Nai 76821, Vietnam","name2":"ngọc anh spa, 56 tổ 7, ấp, Tân Phú, Đồng Nai 76821, Vietnam","lat":11.285418499999999,"lon":107.497208,"add":"56 tổ 7","ward":"ấp","dist":"Tân Phú","province":"Đồng Nai 76821, Vietnam","ward2":"Xã Phú Lập","dist2":"Huyện Tân Phú","province2":"Tỉnh Đồng Nai"}
{"id":"0x3174675a50c1ad75:0xc8f21a93c9690c41","tel":"+84 972 422 539","spa":"Lê Vy Spa","name":"7C8G+8CM Lê Vy Spa, Nguyễn Tất Thành, TT. Tân Phú, Tân Phú, Đồng Nai, Vietnam","name2":"7C8G+8CM Lê Vy Spa, Nguyễn Tất Thành, TT. Tân Phú, Tân Phú, Đồng Nai, Vietnam","lat":11.2658293,"lon":107.4260367,"add":"7C8G+8CM, Nguyễn Tất Thành","ward":"TT. Tân Phú","dist":"Tân Phú","province":"Đồng Nai, Vietnam","ward2":"Xã Phú Lập","dist2":"Huyện Tân Phú","province2":"Tỉnh Đồng Nai"}
{"id":"0x31746587567a75a9:0x5f68a71143b33816","tel":"+84 856 666 212","spa":"Spa Nhung","name":"7FJ6+2XC Spa Nhung, Chợ Ngọc Lâm, Phú Xuân, Tân Phú, Đồng Nai, Vietnam","name2":"7FJ6+2XC Spa Nhung, Chợ Ngọc Lâm, Phú Xuân, Tân Phú, Đồng Nai, Vietnam","lat":11.280075,"lon":107.4623754,"add":"7FJ6+2XC, Chợ Ngọc Lâm","ward":"Phú Xuân","dist":"Tân Phú","province":"Đồng Nai, Vietnam","ward2":"Xã Phú Lập","dist2":"Huyện Tân Phú","province2":"Tỉnh Đồng Nai"}
{"id":"0x3174672eaaaaaaab:0x7dc6371663ac58da","tel":"+84 251 3616 979","spa":"Công Ty TNHH Phương Thảo Phát","name":"Công Ty TNHH Phương Thảo Phát, 37A, Xã Phú Lợi, Huyện Định Quán, Tỉnh Đồng Nai, Đồng Nai, Vietnam","name2":"Công Ty TNHH Phương Thảo Phát, 37A, Xã Phú Lợi, Huyện Định Quán, Tỉnh Đồng Nai, Đồng Nai, Vietnam","lat":11.212376299999999,"lon":107.373446,"add":"37A, Xã Phú Lợi, Huyện Định Quán, Tỉnh Đồng Nai","ward":"Đồng Nai","dist":"Vietnam","ward2":"Xã Phú Lập","dist2":"Huyện Tân Phú","province2":"Tỉnh Đồng Nai"}
{"id":"0x31746681f4b32b47:0x84fbfbb4702b4ee7","tel":null,"spa":"Spa Thùy Duyên","name":"7C9G+PJ8 Spa Thùy Duyên, Nguyễn Hữu Cảnh, TT. Tân Phú, Tân Phú, Đồng Nai, Vietnam","name2":"7C9G+PJ8 Spa Thùy Duyên, Nguyễn Hữu Cảnh, TT. Tân Phú, Tân Phú, Đồng Nai, Vietnam","lat":11.2692876,"lon":107.42657829999999,"add":"7C9G+PJ8, Nguyễn Hữu Cảnh","ward":"TT. Tân Phú","dist":"Tân Phú","province":"Đồng Nai, Vietnam","ward2":"Xã Phú Lập","dist2":"Huyện Tân Phú","province2":"Tỉnh Đồng Nai"}
{"id":"0x31746fd39d8ccbeb:0xcb9405353cc6cb8d","tel":"+84 985 161 327","spa":"Spa Ánh Nhật","name":"Spa Ánh Nhật, 1935 QL20, Phú Thanh, Tân Phú, Đồng Nai, Vietnam","name2":"Spa Ánh Nhật, 1935 QL20, Phú Thanh, Tân Phú, Đồng Nai, Vietnam","lat":11.2808577,"lon":107.48058859999999,"add":"1935 QL20","ward":"Phú Thanh","dist":"Tân Phú","province":"Đồng Nai, Vietnam","ward2":"Xã Phú Lập","dist2":"Huyện Tân Phú","province2":"Tỉnh Đồng Nai"}
{"id":"0x31746135c5e970cf:0xba8918d07d0d9264","tel":"+84 913 668 578","spa":"Bamboo Spa","name":"Bamboo Spa, km116 chợ cũ phú vinh, phố 6, ấp 3, Phú Vinh, Định Quán, Đồng Nai, Vietnam","name2":"Bamboo Spa, km116 chợ cũ phú vinh, phố 6, ấp 3, Phú Vinh, Định Quán, Đồng Nai, Vietnam","lat":11.2099721,"lon":107.3644947,"add":"km116 chợ cũ phú vinh, phố 6, ấp 3","ward":"Phú Vinh","dist":"Định Quán","province":"Đồng Nai, Vietnam","ward2":"Xã Phú Lập","dist2":"Huyện Tân Phú","province2":"Tỉnh Đồng Nai"}
{"id":"0x31746f5c58bbd0c7:0x2d3ff073c0ddc98e","tel":"+84 366 614 555","spa":"SPA BÍCH & HUYỀN","name":"7FPQ+286 SPA BÍCH & HUYỀN, Phú Lâm, Tân Phú, Đồng Nai, Vietnam","name2":"7FPQ+286 SPA BÍCH & HUYỀN, Phú Lâm, Tân Phú, Đồng Nai, Vietnam","lat":11.2850447,"lon":107.48827329999999,"add":"7FPQ+286","ward":"Phú Lâm","dist":"Tân Phú","province":"Đồng Nai, Vietnam","ward2":"Xã Phú Sơn","dist2":"Huyện Tân Phú","province2":"Tỉnh Đồng Nai"}
{"id":"0x317467cbc6e88e5d:0xb69f419b727e535c","tel":"+84 974 167 630","spa":"Mộc Spa","name":"Mộc Spa, 89 Nguyễn Tất Thành, TT. Tân Phú, Tân Phú, Đồng Nai, Vietnam","name2":"Mộc Spa, 89 Nguyễn Tất Thành, TT. Tân Phú, Tân Phú, Đồng Nai, Vietnam","lat":11.268263899999999,"lon":107.43013739999999,"add":"89 Nguyễn Tất Thành","ward":"TT. Tân Phú","dist":"Tân Phú","province":"Đồng Nai, Vietnam","ward2":"Xã Phú Sơn","dist2":"Huyện Tân Phú","province2":"Tỉnh Đồng Nai"}
{"id":"0x31746f44ea08f0b5:0x303a2b8268eb13db","tel":"+84 366 614 555","spa":"JANG SKINCARE & SPA","name":"7FMQ+HM5 JANG SKINCARE & SPA, Đường Năm Tấn, Phú Lâm, Tân Phú, Đồng Nai, Vietnam","name2":"7FMQ+HM5 JANG SKINCARE & SPA, Đường Năm Tấn, Phú Lâm, Tân Phú, Đồng Nai, Vietnam","lat":11.2838772,"lon":107.4892378,"add":"7FMQ+HM5, Đường Năm Tấn","ward":"Phú Lâm","dist":"Tân Phú","province":"Đồng Nai, Vietnam","ward2":"Xã Phú Sơn","dist2":"Huyện Tân Phú","province2":"Tỉnh Đồng Nai"}
{"id":"0x31747b51157451d7:0xd63435285a798c59","tel":"+84 911 122 283","spa":"Công Ty TNHH Xông Hơi - Massage An Phát","name":"Công Ty TNHH Xông Hơi - Massage An Phát, Tổ 1, Ấp 2, Xã, Phú Lộc, Tân Phú, Đồng Nai, Vietnam","name2":"Công Ty TNHH Xông Hơi - Massage An Phát, Tổ 1, Ấp 2, Xã, Phú Lộc, Tân Phú, Đồng Nai, Vietnam","lat":11.3670022,"lon":107.3924308,"add":"Tổ 1, Ấp 2, Xã","ward":"Phú Lộc","dist":"Tân Phú","province":"Đồng Nai, Vietnam","ward2":"Xã Phú Sơn","dist2":"Huyện Tân Phú","province2":"Tỉnh Đồng Nai"}
{"id":"0x31746f233d645045:0xfc0786cb06713966","tel":"+84 334 004 328","spa":"BÔNG SPA CLINIC","name":"BÔNG SPA CLINIC, 2115 QL20, Phú Lâm, Tân Phú, Đồng Nai, Vietnam","name2":"BÔNG SPA CLINIC, 2115 QL20, Phú Lâm, Tân Phú, Đồng Nai, Vietnam","lat":11.2836302,"lon":107.4859207,"add":"2115 QL20","ward":"Phú Lâm","dist":"Tân Phú","province":"Đồng Nai, Vietnam","ward2":"Xã Phú Sơn","dist2":"Huyện Tân Phú","province2":"Tỉnh Đồng Nai"}
{"id":"0x3174675a50c1ad75:0xc8f21a93c9690c41","tel":"+84 972 422 539","spa":"Lê Vy Spa","name":"7C8G+8CM Lê Vy Spa, Nguyễn Tất Thành, TT. Tân Phú, Tân Phú, Đồng Nai, Vietnam","name2":"7C8G+8CM Lê Vy Spa, Nguyễn Tất Thành, TT. Tân Phú, Tân Phú, Đồng Nai, Vietnam","lat":11.2658293,"lon":107.4260367,"add":"7C8G+8CM, Nguyễn Tất Thành","ward":"TT. Tân Phú","dist":"Tân Phú","province":"Đồng Nai, Vietnam","ward2":"Xã Phú Sơn","dist2":"Huyện Tân Phú","province2":"Tỉnh Đồng Nai"}
{"id":"0x31746f7804c07b5b:0x3b7a16fb24f38fb8","tel":"+84 368 306 248","spa":"Kim Huyền Beauty","name":"Kim Huyền Beauty, 67 Phú Lâm, Tân Phú, Đồng Nai, Vietnam","name2":"Kim Huyền Beauty, 67 Phú Lâm, Tân Phú, Đồng Nai, Vietnam","lat":11.2881247,"lon":107.4882974,"add":"67 Phú Lâm","ward":"Tân Phú","dist":"Đồng Nai","province":"Vietnam","ward2":"Xã Phú Thịnh","dist2":"Huyện Tân Phú","province2":"Tỉnh Đồng Nai"}
{"id":"0x3174611cb8a41b3b:0x677dc724c24d053a","tel":"+84 356 655 294","spa":"Spa Hồng Linh","name":"Spa Hồng Linh, 68 Phố 6, ấp 4, Định Quán, Đồng Nai, Vietnam","name2":"Spa Hồng Linh, 68 Phố 6, ấp 4, Định Quán, Đồng Nai, Vietnam","lat":11.2045148,"lon":107.3651336,"add":"68 Phố 6","ward":"ấp 4","dist":"Định Quán","province":"Đồng Nai, Vietnam","ward2":"Xã Phú Thịnh","dist2":"Huyện Tân Phú","province2":"Tỉnh Đồng Nai"}
{"id":"0x31746739e7ba22cb:0x8a347ce7d67a0b6c","tel":"+84 968 659 609","spa":"Lan Spa Tân Phú - Vua Điều Trị Nám, Mụn, Sẹo","name":"Lan Spa Tân Phú - Vua Điều Trị Nám, Mụn, Sẹo, 836 QL20, TT. Tân Phú, Tân Phú, Đồng Nai, Vietnam","name2":"Lan Spa Tân Phú - Vua Điều Trị Nám, Mụn, Sẹo, 836 QL20, TT. Tân Phú, Tân Phú, Đồng Nai, Vietnam","lat":11.269875899999999,"lon":107.4366153,"add":"836 QL20","ward":"TT. Tân Phú","dist":"Tân Phú","province":"Đồng Nai, Vietnam","ward2":"Xã Phú Thịnh","dist2":"Huyện Tân Phú","province2":"Tỉnh Đồng Nai"}
{"id":"0x31746f5ea0e3a03b:0xd7feb664dd2d089","tel":"+84 962 279 382","spa":"HaLa Beauty Spa 1","name":"HaLa Beauty Spa 1, 2131/9/7 tổ 2 ấp phương lâm 1, Phú Lâm, Tân Phú, Đồng Nai, Vietnam","name2":"HaLa Beauty Spa 1, 2131/9/7 tổ 2 ấp phương lâm 1, Phú Lâm, Tân Phú, Đồng Nai, Vietnam","lat":11.284541899999999,"lon":107.48522299999999,"add":"2131/9/7 tổ 2 ấp phương lâm 1","ward":"Phú Lâm","dist":"Tân Phú","province":"Đồng Nai, Vietnam","ward2":"Xã Phú Thịnh","dist2":"Huyện Tân Phú","province2":"Tỉnh Đồng Nai"}
{"id":"0x31747be2cc45a621:0x99b37a572ccf3918","tel":"+84 393 752 145","spa":"Spa ngọc Lý","name":"Spa ngọc Lý, 254 Tổ 4 ÂP 2, Phú An, Tân Phú, Đồng Nai, Vietnam","name2":"Spa ngọc Lý, 254 Tổ 4 ÂP 2, Phú An, Tân Phú, Đồng Nai, Vietnam","lat":11.369982,"lon":107.49050369999999,"add":"254 Tổ 4 ÂP 2","ward":"Phú An","dist":"Tân Phú","province":"Đồng Nai, Vietnam","ward2":"Xã Phú Thịnh","dist2":"Huyện Tân Phú","province2":"Tỉnh Đồng Nai"}
{"id":"0x317461a1a70a7359:0xd0b2c9db92277836","tel":"+84 888 512 429","spa":"ZenSpa Định Quán","name":"ZenSpa Định Quán, XÃ, 3 P. 2, ẤP 4, Định Quán, Đồng Nai, Vietnam","name2":"ZenSpa Định Quán, XÃ, 3 P. 2, ẤP 4, Định Quán, Đồng Nai, Vietnam","lat":11.209634999999999,"lon":107.3586687,"add":"XÃ, 3 P. 2","ward":"ẤP 4","dist":"Định Quán","province":"Đồng Nai, Vietnam","ward2":"Xã Phú Thịnh","dist2":"Huyện Tân Phú","province2":"Tỉnh Đồng Nai"}
{"id":"0x317465e59015eeed:0x3ff544685e1d6c5d","tel":"+84 917 661 279","spa":"Spa Thẩm Mỹ Minh Thư","name":"Spa Thẩm Mỹ Minh Thư, 1548 QL20, Phú Xuân, Tân Phú, Đồng Nai, Vietnam","name2":"Spa Thẩm Mỹ Minh Thư, 1548 QL20, Phú Xuân, Tân Phú, Đồng Nai, Vietnam","lat":11.2783724,"lon":107.46357169999999,"add":"1548 QL20","ward":"Phú Xuân","dist":"Tân Phú","province":"Đồng Nai, Vietnam","ward2":"Xã Phú Thịnh","dist2":"Huyện Tân Phú","province2":"Tỉnh Đồng Nai"}
{"id":"0x31746193c1a6fe13:0xd7bb189a863c03aa","tel":"+84 986 077 832","spa":"Nhi spa","name":"Nhi spa, Khu 5 ấp 2, Đồng Nai 76710, Vietnam","name2":"Nhi spa, Khu 5 ấp 2, Đồng Nai 76710, Vietnam","lat":11.2462968,"lon":107.38331529999999,"add":"Khu 5 ấp 2","ward":"Đồng Nai 76710","dist":"Vietnam","ward2":"Xã Phú Thịnh","dist2":"Huyện Tân Phú","province2":"Tỉnh Đồng Nai"}
{"id":"0x317464bb85ab27b1:0xbdcc19e5e187aeac","tel":null,"spa":"Spa Ngọc Phụng","name":"8CV2+F3F Spa Ngọc Phụng, Tà Lài, Phú Thịnh, Tân Phú, Đồng Nai, Vietnam","name2":"8CV2+F3F Spa Ngọc Phụng, Tà Lài, Phú Thịnh, Tân Phú, Đồng Nai, Vietnam","lat":11.3436813,"lon":107.40018549999999,"add":"8CV2+F3F, Tà Lài","ward":"Phú Thịnh","dist":"Tân Phú","province":"Đồng Nai, Vietnam","ward2":"Xã Phú Thịnh","dist2":"Huyện Tân Phú","province2":"Tỉnh Đồng Nai"}
{"id":"0x3174672eb179779b:0xdfbd13e8e4ee35d2","tel":"+84 888 093 096","spa":"Spa Ngọc Tú","name":"Spa Ngọc Tú, 63 Trà Cổ, TT. Tân Phú, Tân Phú, Đồng Nai, Vietnam","name2":"Spa Ngọc Tú, 63 Trà Cổ, TT. Tân Phú, Tân Phú, Đồng Nai, Vietnam","lat":11.2637577,"lon":107.4286367,"add":"63 Trà Cổ","ward":"TT. Tân Phú","dist":"Tân Phú","province":"Đồng Nai, Vietnam","ward2":"Xã Phú Thịnh","dist2":"Huyện Tân Phú","province2":"Tỉnh Đồng Nai"}
{"id":"0x31746172c8fc1ffd:0x8f536004a049114f","tel":null,"spa":"Spa Thảo Linh","name":"Spa Thảo Linh, Phố 2, Ấp 1, Phú Lợi, Định Quán, Đồng Nai, Vietnam","name2":"Spa Thảo Linh, Phố 2, Ấp 1, Phú Lợi, Định Quán, Đồng Nai, Vietnam","lat":11.206204099999999,"lon":107.3628147,"add":"Phố 2, Ấp 1","ward":"Phú Lợi","dist":"Định Quán","province":"Đồng Nai, Vietnam","ward2":"Xã Phú Thịnh","dist2":"Huyện Tân Phú","province2":"Tỉnh Đồng Nai"}
{"id":"0x31747d2f87afdbed:0x37cc57094382f5c6","tel":"+84 973 055 189","spa":"Spa Đồng Nai - RUY's SPA","name":"Spa Đồng Nai - RUY's SPA, 1652, Tà Lài, Đồng Nai 76000, Vietnam","name2":"Spa Đồng Nai - RUY's SPA, 1652, Tà Lài, Đồng Nai 76000, Vietnam","lat":11.3747934,"lon":107.3639017,"add":"1652","ward":"Tà Lài","dist":"Đồng Nai 76000","province":"Vietnam","ward2":"Xã Phú Thịnh","dist2":"Huyện Tân Phú","province2":"Tỉnh Đồng Nai"}
{"id":"0x317461fe216febeb:0xb4fcb375ee077547","tel":"+84 972 969 716","spa":"Lyn House Beauty Spa","name":"Lyn House Beauty Spa, 04 P. 2, Phú Vinh, Định Quán, Đồng Nai, Vietnam","name2":"Lyn House Beauty Spa, 04 P. 2, Phú Vinh, Định Quán, Đồng Nai, Vietnam","lat":11.2070748,"lon":107.361593,"add":"04 P. 2","ward":"Phú Vinh","dist":"Định Quán","province":"Đồng Nai, Vietnam","ward2":"Xã Phú Thịnh","dist2":"Huyện Tân Phú","province2":"Tỉnh Đồng Nai"}
{"id":"0x31746465538208e7:0x44fdee8dd02e7b5","tel":null,"spa":"Mỹ Duyên Home Spa","name":"Mỹ Duyên Home Spa, 565 Tà Lài, Phú Lộc, Tân Phú, Đồng Nai, Vietnam","name2":"Mỹ Duyên Home Spa, 565 Tà Lài, Phú Lộc, Tân Phú, Đồng Nai, Vietnam","lat":11.3054445,"lon":107.3968718,"add":"565 Tà Lài","ward":"Phú Lộc","dist":"Tân Phú","province":"Đồng Nai, Vietnam","ward2":"Xã Phú Thịnh","dist2":"Huyện Tân Phú","province2":"Tỉnh Đồng Nai"}
{"id":"0x3174713cde03662b:0x4be99a0d40b3ff3e","tel":"+84 345 071 668","spa":"Duyên Spa Beauty","name":"Duyên Spa Beauty, 4023 ấp Phú lâm 1, Phú Sơn, Tân Phú, Đồng Nai, Vietnam","name2":"Duyên Spa Beauty, 4023 ấp Phú lâm 1, Phú Sơn, Tân Phú, Đồng Nai, Vietnam","lat":11.357066699999999,"lon":107.52315779999999,"add":"4023 ấp Phú lâm 1","ward":"Phú Sơn","dist":"Tân Phú","province":"Đồng Nai, Vietnam","ward2":"Xã Phú Thịnh","dist2":"Huyện Tân Phú","province2":"Tỉnh Đồng Nai"}
{"id":"0x3174ddd7d2089da5:0xb94807b263a7e912","tel":"+84 251 3993 839","spa":"Ha Trinh Massage","name":"Ha Trinh Massage, Lê Nguyên Đạt, Long Bình, Thành phố Biên Hòa, Đồng Nai, Vietnam","name2":"Ha Trinh Massage, Lê Nguyên Đạt, Long Bình, Thành phố Biên Hòa, Đồng Nai, Vietnam","lat":10.9446849,"lon":106.8692779,"add":"Lê Nguyên Đạt","ward":"Long Bình","dist":"Thành phố Biên Hòa","province":"Đồng Nai, Vietnam","ward2":"Xã Phú Thịnh","dist2":"Huyện Tân Phú","province2":"Tỉnh Đồng Nai"}
{"id":"0x317465984d930a03:0x8320add388bbd103","tel":"+84 943 086 779","spa":"hoàng anh spa","name":"hoàng anh spa, Phú Lộc, Tân Phú, Đồng Nai, Vietnam","name2":"hoàng anh spa, Phú Lộc, Tân Phú, Đồng Nai, Vietnam","lat":11.2986537,"lon":107.41445259999999,"add":"Phú Lộc","ward":"Tân Phú","dist":"Đồng Nai","province":"Vietnam","ward2":"Xã Phú Thịnh","dist2":"Huyện Tân Phú","province2":"Tỉnh Đồng Nai"}
{"id":"0x317465e689ddb25f:0x420825dcd512d41c","tel":null,"spa":"Spa Tuyết Ngân","name":"Spa Tuyết Ngân, 1468 QL20, Phú Thanh, Tân Phú, Đồng Nai, Vietnam","name2":"Spa Tuyết Ngân, 1468 QL20, Phú Thanh, Tân Phú, Đồng Nai, Vietnam","lat":11.2767622,"lon":107.46082539999999,"add":"1468 QL20","ward":"Phú Thanh","dist":"Tân Phú","province":"Đồng Nai, Vietnam","ward2":"Xã Phú Thịnh","dist2":"Huyện Tân Phú","province2":"Tỉnh Đồng Nai"}
{"id":"0x31746f42645f0667:0x15268d3d1ea8df75","tel":null,"spa":"Spa Phương Trinh","name":"Spa Phương Trinh, xã Phú Lâm, Tân Phú, Đồng Nai, Vietnam","name2":"Spa Phương Trinh, xã Phú Lâm, Tân Phú, Đồng Nai, Vietnam","lat":11.2874842,"lon":107.4947818,"add":"xã Phú Lâm","ward":"Tân Phú","dist":"Đồng Nai","province":"Vietnam","ward2":"Xã Phú Thịnh","dist2":"Huyện Tân Phú","province2":"Tỉnh Đồng Nai"}
{"id":"0x31746f83e4763017:0xaab039b74cf33f29","tel":"+84 362 112 367","spa":"Khuyên Spa Academy & Beauty","name":"Khuyên Spa Academy & Beauty, 2752 ấp Phú Yên, Phú Lâm, Tân Phú, Đồng Nai 814930, Vietnam","name2":"Khuyên Spa Academy & Beauty, 2752 ấp Phú Yên, Phú Lâm, Tân Phú, Đồng Nai 814930, Vietnam","lat":11.2963053,"lon":107.5020306,"add":"2752 ấp Phú Yên","ward":"Phú Lâm","dist":"Tân Phú","province":"Đồng Nai 814930, Vietnam","ward2":"Xã Phú Thịnh","dist2":"Huyện Tân Phú","province2":"Tỉnh Đồng Nai"}
{"id":"0x31746680e07c0547:0x121403a6445aad73","tel":null,"spa":"Spa Lysa","name":"Spa Lysa, 557 QL20, TT. Tân Phú, Tân Phú, Đồng Nai, Vietnam","name2":"Spa Lysa, 557 QL20, TT. Tân Phú, Tân Phú, Đồng Nai, Vietnam","lat":11.2664441,"lon":107.42937889999999,"add":"557 QL20","ward":"TT. Tân Phú","dist":"Tân Phú","province":"Đồng Nai, Vietnam","ward2":"Xã Phú Thịnh","dist2":"Huyện Tân Phú","province2":"Tỉnh Đồng Nai"}
{"id":"0x31747b8679021375:0x4851ee77ff823d14","tel":"+84 943 086 779","spa":"Hoàng Anh Spa","name":"Hoàng Anh Spa, Ấp 3, Tân Phú, Đồng Nai, Vietnam","name2":"Hoàng Anh Spa, Ấp 3, Tân Phú, Đồng Nai, Vietnam","lat":11.3065039,"lon":107.3961819,"add":"Ấp 3","ward":"Tân Phú","dist":"Đồng Nai","province":"Vietnam","ward2":"Xã Phú Thịnh","dist2":"Huyện Tân Phú","province2":"Tỉnh Đồng Nai"}
{"id":"0x31746523d3733545:0x6c8ff70573b277c3","tel":"+84 347 847 328","spa":"Iris Spa","name":"Iris Spa, 6 Be 129, Phú Thanh, Tân Phú, Đồng Nai, Vietnam","name2":"Iris Spa, 6 Be 129, Phú Thanh, Tân Phú, Đồng Nai, Vietnam","lat":11.2744801,"lon":107.45856959999999,"add":"6 Be 129","ward":"Phú Thanh","dist":"Tân Phú","province":"Đồng Nai, Vietnam","ward2":"Xã Phú Thịnh","dist2":"Huyện Tân Phú","province2":"Tỉnh Đồng Nai"}
{"id":"0x317465f78bbcfe07:0xf36aa6c91a77baa4","tel":null,"spa":"Spa Hano'S","name":"Spa Hano'S, 1823 QL20, Phú Thanh, Tân Phú, Đồng Nai, Vietnam","name2":"Spa Hano'S, 1823 QL20, Phú Thanh, Tân Phú, Đồng Nai, Vietnam","lat":11.278731599999999,"lon":107.4777938,"add":"1823 QL20","ward":"Phú Thanh","dist":"Tân Phú","province":"Đồng Nai, Vietnam","ward2":"Xã Phú Thịnh","dist2":"Huyện Tân Phú","province2":"Tỉnh Đồng Nai"}
{"id":"0x317465e5e893945b:0x80e70decb7850558","tel":"+84 902 393 682","spa":"Spa Ny's","name":"Spa Ny's, 1435 QL20, Phú Xuân, Tân Phú, Đồng Nai, Vietnam","name2":"Spa Ny's, 1435 QL20, Phú Xuân, Tân Phú, Đồng Nai, Vietnam","lat":11.2782433,"lon":107.4625861,"add":"1435 QL20","ward":"Phú Xuân","dist":"Tân Phú","province":"Đồng Nai, Vietnam","ward2":"Xã Phú Thịnh","dist2":"Huyện Tân Phú","province2":"Tỉnh Đồng Nai"}
{"id":"0x31746172c8fc1ffd:0x8f536004a049114f","tel":null,"spa":"Spa Thảo Linh","name":"Spa Thảo Linh, Phố 2, Ấp 1, Phú Lợi, Định Quán, Đồng Nai, Vietnam","name2":"Spa Thảo Linh, Phố 2, Ấp 1, Phú Lợi, Định Quán, Đồng Nai, Vietnam","lat":11.206204099999999,"lon":107.3628147,"add":"Phố 2, Ấp 1","ward":"Phú Lợi","dist":"Định Quán","province":"Đồng Nai, Vietnam","ward2":"Xã Phú Thịnh","dist2":"Huyện Tân Phú","province2":"Tỉnh Đồng Nai"}
{"id":"0x31746f5c58bbd0c7:0x2d3ff073c0ddc98e","tel":"+84 366 614 555","spa":"SPA BÍCH & HUYỀN","name":"7FPQ+286 SPA BÍCH & HUYỀN, Phú Lâm, Tân Phú, Đồng Nai, Vietnam","name2":"7FPQ+286 SPA BÍCH & HUYỀN, Phú Lâm, Tân Phú, Đồng Nai, Vietnam","lat":11.2850447,"lon":107.48827329999999,"add":"7FPQ+286","ward":"Phú Lâm","dist":"Tân Phú","province":"Đồng Nai, Vietnam","ward2":"Xã Phú Thịnh","dist2":"Huyện Tân Phú","province2":"Tỉnh Đồng Nai"}
{"id":"0x317465e6f476a62d:0xf3e96c0de220f422","tel":null,"spa":"Spa Ngọc Ánh","name":"Spa Ngọc Ánh, 1363 QL20, Phú Thanh, Tân Phú, Đồng Nai, Vietnam","name2":"Spa Ngọc Ánh, 1363 QL20, Phú Thanh, Tân Phú, Đồng Nai, Vietnam","lat":11.2765013,"lon":107.460027,"add":"1363 QL20","ward":"Phú Thanh","dist":"Tân Phú","province":"Đồng Nai, Vietnam","ward2":"Xã Phú Thịnh","dist2":"Huyện Tân Phú","province2":"Tỉnh Đồng Nai"}
{"id":"0x31746f42645f0667:0x15268d3d1ea8df75","tel":null,"spa":"Spa Phương Trinh","name":"Spa Phương Trinh, xã Phú Lâm, Tân Phú, Đồng Nai, Vietnam","name2":"Spa Phương Trinh, xã Phú Lâm, Tân Phú, Đồng Nai, Vietnam","lat":11.2874842,"lon":107.4947818,"add":"xã Phú Lâm","ward":"Tân Phú","dist":"Đồng Nai","province":"Vietnam","ward2":"Xã Phú Thịnh","dist2":"Huyện Tân Phú","province2":"Tỉnh Đồng Nai"}
{"id":"0x31746ff362609ca9:0x6199fea5b7c95793","tel":"+84 978 707 545","spa":"Thanh Spa","name":"Thanh Spa, 121 ấp phương lâm, Đồng nai, Tân Phú, Đồng Nai, Vietnam","name2":"Thanh Spa, 121 ấp phương lâm, Đồng nai, Tân Phú, Đồng Nai, Vietnam","lat":11.2857621,"lon":107.48783089999999,"add":"121 ấp phương lâm","ward":"Đồng nai","dist":"Tân Phú","province":"Đồng Nai, Vietnam","ward2":"Xã Phú Thịnh","dist2":"Huyện Tân Phú","province2":"Tỉnh Đồng Nai"}
{"id":"0x317461fe216febeb:0xb4fcb375ee077547","tel":"+84 972 969 716","spa":"Lyn House Beauty Spa","name":"Lyn House Beauty Spa, 04 P. 2, Phú Vinh, Định Quán, Đồng Nai, Vietnam","name2":"Lyn House Beauty Spa, 04 P. 2, Phú Vinh, Định Quán, Đồng Nai, Vietnam","lat":11.2070748,"lon":107.361593,"add":"04 P. 2","ward":"Phú Vinh","dist":"Định Quán","province":"Đồng Nai, Vietnam","ward2":"Xã Phú Thịnh","dist2":"Huyện Tân Phú","province2":"Tỉnh Đồng Nai"}
{"id":"0x31746f4ce26b25ff:0x6019deb61beef538","tel":null,"spa":"Thanh Beauty Spa","name":"7FMR+8RF Thanh Beauty Spa, Phú Lâm, Tân Phú, Đồng Nai, Vietnam","name2":"7FMR+8RF Thanh Beauty Spa, Phú Lâm, Tân Phú, Đồng Nai, Vietnam","lat":11.283324499999999,"lon":107.4920592,"add":"7FMR+8RF","ward":"Phú Lâm","dist":"Tân Phú","province":"Đồng Nai, Vietnam","ward2":"Xã Phú Thịnh","dist2":"Huyện Tân Phú","province2":"Tỉnh Đồng Nai"}
{"id":"0x3174642a77d2af55:0x7e9c3f67fc211a1e","tel":null,"spa":"Spa Thanh's","name":"7CCH+68Q Spa Thanh's, Nguyễn Hữu Cảnh, TT. Tân Phú, Tân Phú, Đồng Nai, Vietnam","name2":"7CCH+68Q Spa Thanh's, Nguyễn Hữu Cảnh, TT. Tân Phú, Tân Phú, Đồng Nai, Vietnam","lat":11.2705934,"lon":107.4283495,"add":"7CCH+68Q, Nguyễn Hữu Cảnh","ward":"TT. Tân Phú","dist":"Tân Phú","province":"Đồng Nai, Vietnam","ward2":"Xã Phú Thịnh","dist2":"Huyện Tân Phú","province2":"Tỉnh Đồng Nai"}
{"id":"0x317465dd919fe275:0xc75dab865a97bbf1","tel":"+84 989 904 242","spa":"Happy Mom Spa Mẹ và Bé","name":"7FF9+HV4 Happy Mom Spa Mẹ và Bé, Đ. 130, Phú Thanh, Tân Phú, Đồng Nai, Vietnam","name2":"7FF9+HV4 Happy Mom Spa Mẹ và Bé, Đ. 130, Phú Thanh, Tân Phú, Đồng Nai, Vietnam","lat":11.2738961,"lon":107.46970569999999,"add":"7FF9+HV4, Đ. 130","ward":"Phú Thanh","dist":"Tân Phú","province":"Đồng Nai, Vietnam","ward2":"Xã Phú Thịnh","dist2":"Huyện Tân Phú","province2":"Tỉnh Đồng Nai"}
{"id":"0x31746f83e4763017:0xaab039b74cf33f29","tel":"+84 362 112 367","spa":"Khuyên Spa Academy & Beauty","name":"Khuyên Spa Academy & Beauty, 2752 ấp Phú Yên, Phú Lâm, Tân Phú, Đồng Nai 814930, Vietnam","name2":"Khuyên Spa Academy & Beauty, 2752 ấp Phú Yên, Phú Lâm, Tân Phú, Đồng Nai 814930, Vietnam","lat":11.2963053,"lon":107.5020306,"add":"2752 ấp Phú Yên","ward":"Phú Lâm","dist":"Tân Phú","province":"Đồng Nai 814930, Vietnam","ward2":"Xã Phú Thịnh","dist2":"Huyện Tân Phú","province2":"Tỉnh Đồng Nai"}
{"id":"0x3174650b81b786c5:0xb165e843b37899ef","tel":"+84 989 904 242","spa":"Happy Mom spa Mẹ và Bé","name":"Happy Mom spa Mẹ và Bé, 1714 Ấp Thọ Lâm, 2, Tân Phú, Đồng Nai 76000, Vietnam","name2":"Happy Mom spa Mẹ và Bé, 1714 Ấp Thọ Lâm, 2, Tân Phú, Đồng Nai 76000, Vietnam","lat":11.279834,"lon":107.47391359999999,"add":"1714 Ấp Thọ Lâm","ward":"2","dist":"Tân Phú","province":"Đồng Nai 76000, Vietnam","ward2":"Xã Phú Thịnh","dist2":"Huyện Tân Phú","province2":"Tỉnh Đồng Nai"}
{"id":"0x317467cbc6e88e5d:0xb69f419b727e535c","tel":"+84 974 167 630","spa":"Mộc Spa","name":"Mộc Spa, 89 Nguyễn Tất Thành, TT. Tân Phú, Tân Phú, Đồng Nai, Vietnam","name2":"Mộc Spa, 89 Nguyễn Tất Thành, TT. Tân Phú, Tân Phú, Đồng Nai, Vietnam","lat":11.268263899999999,"lon":107.43013739999999,"add":"89 Nguyễn Tất Thành","ward":"TT. Tân Phú","dist":"Tân Phú","province":"Đồng Nai, Vietnam","ward2":"Xã Phú Thịnh","dist2":"Huyện Tân Phú","province2":"Tỉnh Đồng Nai"}
{"id":"0x3174713cde03662b:0x4be99a0d40b3ff3e","tel":"+84 345 071 668","spa":"Duyên Spa Beauty","name":"Duyên Spa Beauty, 4023 ấp Phú lâm 1, Phú Sơn, Tân Phú, Đồng Nai, Vietnam","name2":"Duyên Spa Beauty, 4023 ấp Phú lâm 1, Phú Sơn, Tân Phú, Đồng Nai, Vietnam","lat":11.357066699999999,"lon":107.52315779999999,"add":"4023 ấp Phú lâm 1","ward":"Phú Sơn","dist":"Tân Phú","province":"Đồng Nai, Vietnam","ward2":"Xã Phú Thịnh","dist2":"Huyện Tân Phú","province2":"Tỉnh Đồng Nai"}
{"id":"0x31746f44a534025f:0xdbbdf9fe0fe59aa0","tel":null,"spa":"Spa Bích Phượng","name":"Spa Bích Phượng, xã Phú Lâm, Tân Phú, Đồng Nai, Vietnam","name2":"Spa Bích Phượng, xã Phú Lâm, Tân Phú, Đồng Nai, Vietnam","lat":11.282383999999999,"lon":107.4922019,"add":"xã Phú Lâm","ward":"Tân Phú","dist":"Đồng Nai","province":"Vietnam","ward2":"Xã Phú Thịnh","dist2":"Huyện Tân Phú","province2":"Tỉnh Đồng Nai"}
{"id":"0x31746f759ca9244b:0xb7c9cde14f546868","tel":"+84 974 249 437","spa":"Thủy Ngô BEAUTY","name":"Thủy Ngô BEAUTY, 2315 , ấp, Phú Lâm, Tân Phú, Đồng Nai, Vietnam","name2":"Thủy Ngô BEAUTY, 2315 , ấp, Phú Lâm, Tân Phú, Đồng Nai, Vietnam","lat":11.2864164,"lon":107.4895689,"add":"2315 , ấp","ward":"Phú Lâm","dist":"Tân Phú","province":"Đồng Nai, Vietnam","ward2":"Xã Phú Thịnh","dist2":"Huyện Tân Phú","province2":"Tỉnh Đồng Nai"}
{"id":"0x31746ffe8994e08d:0x30edebd3a5b022ea","tel":"+84 988 507 101","spa":"Helen Thanh Tâm beauty & clinic","name":"Helen Thanh Tâm beauty & clinic, 120 Đường năm tấn, tổ 8 ấp thanh thọ 1, Phú Lâm, Tân Phú, Đồng Nai, Vietnam","name2":"Helen Thanh Tâm beauty & clinic, 120 Đường năm tấn, tổ 8 ấp thanh thọ 1, Phú Lâm, Tân Phú, Đồng Nai, Vietnam","lat":11.278537199999999,"lon":107.4904595,"add":"120 Đường năm tấn, tổ 8 ấp thanh thọ 1","ward":"Phú Lâm","dist":"Tân Phú","province":"Đồng Nai, Vietnam","ward2":"Xã Phú Thịnh","dist2":"Huyện Tân Phú","province2":"Tỉnh Đồng Nai"}
{"id":"0x31746f3d50cb0859:0xba6c3b85a8b31b4d","tel":null,"spa":"Thuý's Beauty","name":"7FQQ+8GV Thuý's Beauty, Phú Lâm, Tân Phú, Đồng Nai, Vietnam","name2":"7FQQ+8GV Thuý's Beauty, Phú Lâm, Tân Phú, Đồng Nai, Vietnam","lat":11.2883923,"lon":107.488762,"add":"7FQQ+8GV","ward":"Phú Lâm","dist":"Tân Phú","province":"Đồng Nai, Vietnam","ward2":"Xã Phú Thịnh","dist2":"Huyện Tân Phú","province2":"Tỉnh Đồng Nai"}
{"id":"0x317467c165b0fbcd:0x2552f052c88f6424","tel":"+84 962 363 340","spa":"Thẩm mỹ Yang","name":"7C9G+PP4 Thẩm mỹ Yang, Nguyễn Hữu Cảnh, Khu 6, Tân Phú, Đồng Nai, Vietnam","name2":"7C9G+PP4 Thẩm mỹ Yang, Nguyễn Hữu Cảnh, Khu 6, Tân Phú, Đồng Nai, Vietnam","lat":11.2692543,"lon":107.42682649999999,"add":"7C9G+PP4, Nguyễn Hữu Cảnh","ward":"Khu 6","dist":"Tân Phú","province":"Đồng Nai, Vietnam","ward2":"Xã Phú Thịnh","dist2":"Huyện Tân Phú","province2":"Tỉnh Đồng Nai"}
{"id":"0x31746f233d645045:0xfc0786cb06713966","tel":"+84 334 004 328","spa":"BÔNG SPA CLINIC","name":"BÔNG SPA CLINIC, 2115 QL20, Phú Lâm, Tân Phú, Đồng Nai, Vietnam","name2":"BÔNG SPA CLINIC, 2115 QL20, Phú Lâm, Tân Phú, Đồng Nai, Vietnam","lat":11.2836302,"lon":107.4859207,"add":"2115 QL20","ward":"Phú Lâm","dist":"Tân Phú","province":"Đồng Nai, Vietnam","ward2":"Xã Phú Thịnh","dist2":"Huyện Tân Phú","province2":"Tỉnh Đồng Nai"}
{"id":"0x317467957a3312d3:0xa95698ebb9cf9b34","tel":null,"spa":"LamThy Nail & Spa","name":"LamThy Nail & Spa, 690 QL20, TT. Tân Phú, Tân Phú, Đồng Nai, Vietnam","name2":"LamThy Nail & Spa, 690 QL20, TT. Tân Phú, Tân Phú, Đồng Nai, Vietnam","lat":11.2675486,"lon":107.4322308,"add":"690 QL20","ward":"TT. Tân Phú","dist":"Tân Phú","province":"Đồng Nai, Vietnam","ward2":"Xã Phú Thịnh","dist2":"Huyện Tân Phú","province2":"Tỉnh Đồng Nai"}
{"id":"0x31746f1abb3f5533:0x55975584ad0a67a6","tel":"+84 945 030 422","spa":"Tiên Thư Spa","name":"7FMP+8MC Tiên Thư Spa, Phú Lâm, Tân Phú, Đồng Nai, Vietnam","name2":"7FMP+8MC Tiên Thư Spa, Phú Lâm, Tân Phú, Đồng Nai, Vietnam","lat":11.2833121,"lon":107.48662589999999,"add":"7FMP+8MC","ward":"Phú Lâm","dist":"Tân Phú","province":"Đồng Nai, Vietnam","ward2":"Xã Phú Thịnh","dist2":"Huyện Tân Phú","province2":"Tỉnh Đồng Nai"}
{"id":"0x317461ac45be988b:0x6970567f7a2519ee","tel":"+84 794 580 767","spa":"PHOENIX BEAUTY","name":"PHOENIX BEAUTY, 3 phố 4, ấp 1, Định Quán, Đồng Nai, Vietnam","name2":"PHOENIX BEAUTY, 3 phố 4, ấp 1, Định Quán, Đồng Nai, Vietnam","lat":11.2080424,"lon":107.3608151,"add":"3 phố 4","ward":"ấp 1","dist":"Định Quán","province":"Đồng Nai, Vietnam","ward2":"Xã Phú Thịnh","dist2":"Huyện Tân Phú","province2":"Tỉnh Đồng Nai"}
{"id":"0x31747b5307468f09:0xedea42617686ee3","tel":null,"spa":"Spa & Thẩm Mỹ Kim Phượng","name":"Spa & Thẩm Mỹ Kim Phượng, 1204 Tà Lài, Phú Lập, Tân Phú, Đồng Nai, Vietnam","name2":"Spa & Thẩm Mỹ Kim Phượng, 1204 Tà Lài, Phú Lập, Tân Phú, Đồng Nai, Vietnam","lat":11.3626655,"lon":107.3933242,"add":"1204 Tà Lài","ward":"Phú Lập","dist":"Tân Phú","province":"Đồng Nai, Vietnam","ward2":"Xã Phú Thịnh","dist2":"Huyện Tân Phú","province2":"Tỉnh Đồng Nai"}
{"id":"0x317461e0dd8317d3:0xbcff094f673fae8d","tel":"+84 336 366 579","spa":"SpaO&T","name":"SpaO&T, 109 P. 2, Phú Vinh, Định Quán, Đồng Nai, Vietnam","name2":"SpaO&T, 109 P. 2, Phú Vinh, Định Quán, Đồng Nai, Vietnam","lat":11.205397399999999,"lon":107.3598591,"add":"109 P. 2","ward":"Phú Vinh","dist":"Định Quán","province":"Đồng Nai, Vietnam","ward2":"Xã Phú Thịnh","dist2":"Huyện Tân Phú","province2":"Tỉnh Đồng Nai"}
{"id":"0x3174675a50c1ad75:0xc8f21a93c9690c41","tel":"+84 972 422 539","spa":"Lê Vy Spa","name":"7C8G+8CM Lê Vy Spa, Nguyễn Tất Thành, TT. Tân Phú, Tân Phú, Đồng Nai, Vietnam","name2":"7C8G+8CM Lê Vy Spa, Nguyễn Tất Thành, TT. Tân Phú, Tân Phú, Đồng Nai, Vietnam","lat":11.2658293,"lon":107.4260367,"add":"7C8G+8CM, Nguyễn Tất Thành","ward":"TT. Tân Phú","dist":"Tân Phú","province":"Đồng Nai, Vietnam","ward2":"Xã Phú Thịnh","dist2":"Huyện Tân Phú","province2":"Tỉnh Đồng Nai"}
{"id":"0x31746135c5e970cf:0xba8918d07d0d9264","tel":"+84 913 668 578","spa":"Bamboo Spa","name":"Bamboo Spa, km116 chợ cũ phú vinh, phố 6, ấp 3, Phú Vinh, Định Quán, Đồng Nai, Vietnam","name2":"Bamboo Spa, km116 chợ cũ phú vinh, phố 6, ấp 3, Phú Vinh, Định Quán, Đồng Nai, Vietnam","lat":11.2099721,"lon":107.3644947,"add":"km116 chợ cũ phú vinh, phố 6, ấp 3","ward":"Phú Vinh","dist":"Định Quán","province":"Đồng Nai, Vietnam","ward2":"Xã Phú Thịnh","dist2":"Huyện Tân Phú","province2":"Tỉnh Đồng Nai"}
{"id":"0x31746587567a75a9:0x5f68a71143b33816","tel":"+84 856 666 212","spa":"Spa Nhung","name":"7FJ6+2XC Spa Nhung, Chợ Ngọc Lâm, Phú Xuân, Tân Phú, Đồng Nai, Vietnam","name2":"7FJ6+2XC Spa Nhung, Chợ Ngọc Lâm, Phú Xuân, Tân Phú, Đồng Nai, Vietnam","lat":11.280075,"lon":107.4623754,"add":"7FJ6+2XC, Chợ Ngọc Lâm","ward":"Phú Xuân","dist":"Tân Phú","province":"Đồng Nai, Vietnam","ward2":"Xã Phú Thịnh","dist2":"Huyện Tân Phú","province2":"Tỉnh Đồng Nai"}
{"id":"0x3174672eaaaaaaab:0x7dc6371663ac58da","tel":"+84 251 3616 979","spa":"Công Ty TNHH Phương Thảo Phát","name":"Công Ty TNHH Phương Thảo Phát, 37A, Xã Phú Lợi, Huyện Định Quán, Tỉnh Đồng Nai, Đồng Nai, Vietnam","name2":"Công Ty TNHH Phương Thảo Phát, 37A, Xã Phú Lợi, Huyện Định Quán, Tỉnh Đồng Nai, Đồng Nai, Vietnam","lat":11.212376299999999,"lon":107.373446,"add":"37A, Xã Phú Lợi, Huyện Định Quán, Tỉnh Đồng Nai","ward":"Đồng Nai","dist":"Vietnam","ward2":"Xã Phú Thịnh","dist2":"Huyện Tân Phú","province2":"Tỉnh Đồng Nai"}
{"id":"0x31746fd39d8ccbeb:0xcb9405353cc6cb8d","tel":"+84 985 161 327","spa":"Spa Ánh Nhật","name":"Spa Ánh Nhật, 1935 QL20, Phú Thanh, Tân Phú, Đồng Nai, Vietnam","name2":"Spa Ánh Nhật, 1935 QL20, Phú Thanh, Tân Phú, Đồng Nai, Vietnam","lat":11.2808577,"lon":107.48058859999999,"add":"1935 QL20","ward":"Phú Thanh","dist":"Tân Phú","province":"Đồng Nai, Vietnam","ward2":"Xã Phú Thịnh","dist2":"Huyện Tân Phú","province2":"Tỉnh Đồng Nai"}
{"id":"0x31746681f4b32b47:0x84fbfbb4702b4ee7","tel":null,"spa":"Spa Thùy Duyên","name":"7C9G+PJ8 Spa Thùy Duyên, Nguyễn Hữu Cảnh, TT. Tân Phú, Tân Phú, Đồng Nai, Vietnam","name2":"7C9G+PJ8 Spa Thùy Duyên, Nguyễn Hữu Cảnh, TT. Tân Phú, Tân Phú, Đồng Nai, Vietnam","lat":11.2692876,"lon":107.42657829999999,"add":"7C9G+PJ8, Nguyễn Hữu Cảnh","ward":"TT. Tân Phú","dist":"Tân Phú","province":"Đồng Nai, Vietnam","ward2":"Xã Phú Thịnh","dist2":"Huyện Tân Phú","province2":"Tỉnh Đồng Nai"}
{"id":"0x317467349b85159d:0x9cbe9b46cbe24935","tel":null,"spa":"Uốn tóc THANH","name":"Uốn tóc THANH, HL 120, 326, ấp 2, Phú Tân, Định Quán, Đồng Nai, Vietnam","name2":"Uốn tóc THANH, HL 120, 326, ấp 2, Phú Tân, Định Quán, Đồng Nai, Vietnam","lat":11.2457148,"lon":107.38517859999999,"add":"HL 120, 326, ấp 2","ward":"Phú Tân","dist":"Định Quán","province":"Đồng Nai, Vietnam","ward2":"Xã Phú Thịnh","dist2":"Huyện Tân Phú","province2":"Tỉnh Đồng Nai"}
