{"id":"0x3135abe2d302fdcd:0x17907c1d763978b4","tel":null,"spa":"Spa","name":"Spa, 17 Tôn Thất Thuyết, Dịch Vọng Hậu, Cầu Giấy, Hà Nội 100000, Vietnam","name2":"Spa, 17 Tôn Thất Thuyết, Dịch Vọng Hậu, Cầu Giấy, Hà Nội 100000, Vietnam","lat":21.0281628,"lon":105.7853968,"add":"17 Tôn Thất Thuyết","ward":"Dịch Vọng Hậu","dist":"Cầu Giấy","province":"Hà Nội 100000, Vietnam","ward2":"Xã Nghi Thịnh","dist2":"Huyện Nghi Lộc","province2":"Tỉnh Nghệ An"}
{"id":"0x3139ce09d9beab35:0xdcdc6c18853f814","tel":"+84 986 340 240","spa":"HB Spa - Nghệ An (Dưỡng Sinh & Thủ Đạo Thang)","name":"HB Spa - Nghệ An (Dưỡng Sinh & Thủ Đạo Thang), 75 Phạm Đình Toái, Nghi Phan, Nghệ An, 43000, Vietnam","name2":"HB Spa - Nghệ An (Dưỡng Sinh & Thủ Đạo Thang), 75 Phạm Đình Toái, Nghi Phan, Nghệ An, 43000, Vietnam","lat":18.6947705,"lon":105.6801469,"add":"75 Phạm Đình Toái","ward":"Nghi Phan","dist":"Nghệ An","province":"43000, Vietnam","ward2":"Xã Nghi Thịnh","dist2":"Huyện Nghi Lộc","province2":"Tỉnh Nghệ An"}
{"id":"0x3135abf6e77804fb:0x10c69fa0185bc363","tel":null,"spa":"Spa","name":"Spa, 97 P. Quan Hoa, Quan Hoa, Cầu Giấy, Hà Nội 100000, Vietnam","name2":"Spa, 97 P. Quan Hoa, Quan Hoa, Cầu Giấy, Hà Nội 100000, Vietnam","lat":21.0333874,"lon":105.8034897,"add":"97 P. Quan Hoa","ward":"Quan Hoa","dist":"Cầu Giấy","province":"Hà Nội 100000, Vietnam","ward2":"Xã Nghi Thịnh","dist2":"Huyện Nghi Lộc","province2":"Tỉnh Nghệ An"}
{"id":"0x3135ab93e5349a15:0xc3c37bed6fd5efb","tel":"+84 703 004 277","spa":"Spa","name":"Spa, 12 P. Bát Sứ, Hàng Bồ, Hoàn Kiếm, Hà Nội 11010, Vietnam","name2":"Spa, 12 P. Bát Sứ, Hàng Bồ, Hoàn Kiếm, Hà Nội 11010, Vietnam","lat":21.0351777,"lon":105.8474518,"add":"12 P. Bát Sứ","ward":"Hàng Bồ","dist":"Hoàn Kiếm","province":"Hà Nội 11010, Vietnam","ward2":"Xã Nghi Thịnh","dist2":"Huyện Nghi Lộc","province2":"Tỉnh Nghệ An"}
{"id":"0x3139cd20af572e41:0x279acb23edbdabdc","tel":"+84 948 297 456","spa":"THIÊN HƯƠNG Win Spa-ĐỊA CHỈ PHUN XĂM-DẠY NGHỀ THẨM MỸ UY TÍN TP VINH","name":"THIÊN HƯƠNG Win Spa-ĐỊA CHỈ PHUN XĂM-DẠY NGHỀ THẨM MỸ UY TÍN TP VINH, 32 Võ Thị Sáu, Bến Thủy, Thành phố Vinh, Nghệ An 43107, Vietnam","name2":"THIÊN HƯƠNG Win Spa-ĐỊA CHỈ PHUN XĂM-DẠY NGHỀ THẨM MỸ UY TÍN TP VINH, 32 Võ Thị Sáu, Bến Thủy, Thành phố Vinh, Nghệ An 43107, Vietnam","lat":18.665084,"lon":105.69771259999999,"add":"32 Võ Thị Sáu","ward":"Bến Thủy","dist":"Thành phố Vinh","province":"Nghệ An 43107, Vietnam","ward2":"Xã Nghi Thịnh","dist2":"Huyện Nghi Lộc","province2":"Tỉnh Nghệ An"}
{"id":"0x3139d1496009d0c3:0x9e8b752cec984ac5","tel":"+84 979 613 617","spa":"Trung tâm Diện Chẩn Nghệ An","name":"Trung tâm Diện Chẩn Nghệ An, Khu tái định cư xóm 5, Sư Vạn Hạnh, Tp. Vinh, Nghệ An, Vietnam","name2":"Trung tâm Diện Chẩn Nghệ An, Khu tái định cư xóm 5, Sư Vạn Hạnh, Tp. Vinh, Nghệ An, Vietnam","lat":18.7086932,"lon":105.68371959999999,"add":"Khu tái định cư xóm 5","ward":"Sư Vạn Hạnh","dist":"Tp. Vinh","province":"Nghệ An, Vietnam","ward2":"Xã Nghi Thịnh","dist2":"Huyện Nghi Lộc","province2":"Tỉnh Nghệ An"}
{"id":"0x3139cfd0595f4e27:0x796cb2b8229f1c","tel":"+84 961 382 223","spa":"Học Viện Thẩm Mỹ Tiên Spa","name":"Học Viện Thẩm Mỹ Tiên Spa, 125 Đường Hà Huy Tập, Hà Huy Tập, Thành phố Vinh, Nghệ An, Vietnam","name2":"Học Viện Thẩm Mỹ Tiên Spa, 125 Đường Hà Huy Tập, Hà Huy Tập, Thành phố Vinh, Nghệ An, Vietnam","lat":18.691286599999998,"lon":105.67873999999999,"add":"125 Đường Hà Huy Tập","ward":"Hà Huy Tập","dist":"Thành phố Vinh","province":"Nghệ An, Vietnam","ward2":"Xã Nghi Thịnh","dist2":"Huyện Nghi Lộc","province2":"Tỉnh Nghệ An"}
{"id":"0x3139ce7669caf997:0xbfd3f3e662d352e4","tel":"+84 981 201 333","spa":"Rosa Spa","name":null,"name2":null,"lat":18.6653829,"lon":105.76481799999999}
{"id":"0x3139ce7669449d8d:0x7caa67b0168b00f2","tel":"+84 915 001 600","spa":"Spa uy tín nhất tại tp Vinh, Nghệ an - TH Spa","name":"Spa uy tín nhất tại tp Vinh, Nghệ an - TH Spa, 115 Lê Hoàn, Hưng Phúc, Thành phố Vinh, Nghệ An 460000, Vietnam","name2":"Spa uy tín nhất tại tp Vinh, Nghệ an - TH Spa, 115 Lê Hoàn, Hưng Phúc, Thành phố Vinh, Nghệ An 460000, Vietnam","lat":18.6814996,"lon":105.69104929999999,"add":"115 Lê Hoàn","ward":"Hưng Phúc","dist":"Thành phố Vinh","province":"Nghệ An 460000, Vietnam","ward2":"Xã Nghi Thịnh","dist2":"Huyện Nghi Lộc","province2":"Tỉnh Nghệ An"}
{"id":"0x3139cde0a0c19aef:0xd42db3076763ef10","tel":"+84 868 601 001","spa":"SPA CHO NAM SUNMAN LÀM ĐẸP UY TÍN VINH","name":"SPA CHO NAM SUNMAN LÀM ĐẸP UY TÍN VINH, 207 Lê Duẩn, Trường Thi, Thành phố Vinh, Nghệ An 43130, Vietnam","name2":"SPA CHO NAM SUNMAN LÀM ĐẸP UY TÍN VINH, 207 Lê Duẩn, Trường Thi, Thành phố Vinh, Nghệ An 43130, Vietnam","lat":18.6605333,"lon":105.69339339999999,"add":"207 Lê Duẩn","ward":"Trường Thi","dist":"Thành phố Vinh","province":"Nghệ An 43130, Vietnam","ward2":"Xã Nghi Thịnh","dist2":"Huyện Nghi Lộc","province2":"Tỉnh Nghệ An"}
{"id":"0x3139cf3fda0c73b9:0xcc2b774927539851","tel":"+84 866 431 092","spa":"Học Viện Đào Tạo Nối Mi uy tín tại Vinh - Anh Đào Lashes","name":"Học Viện Đào Tạo Nối Mi uy tín tại Vinh - Anh Đào Lashes, 105 Đinh Công Tráng, Lê Mao, Thành phố Vinh, Nghệ An 43106, Vietnam","name2":"Học Viện Đào Tạo Nối Mi uy tín tại Vinh - Anh Đào Lashes, 105 Đinh Công Tráng, Lê Mao, Thành phố Vinh, Nghệ An 43106, Vietnam","lat":18.6693474,"lon":105.68169359999999,"add":"105 Đinh Công Tráng","ward":"Lê Mao","dist":"Thành phố Vinh","province":"Nghệ An 43106, Vietnam","ward2":"Xã Nghi Thịnh","dist2":"Huyện Nghi Lộc","province2":"Tỉnh Nghệ An"}
{"id":"0x3139d16bcbe38815:0x8ed15655586f8b8d","tel":null,"spa":"Cần tâm spa","name":"QMPP+RHC Cần tâm spa, Nghi Thịnh, Nghi Lộc, Nghệ An, Vietnam","name2":"QMPP+RHC Cần tâm spa, Nghi Thịnh, Nghi Lộc, Nghệ An, Vietnam","lat":18.7870715,"lon":105.6863898,"add":"QMPP+RHC","ward":"Nghi Thịnh","dist":"Nghi Lộc","province":"Nghệ An, Vietnam","ward2":"Xã Nghi Thịnh","dist2":"Huyện Nghi Lộc","province2":"Tỉnh Nghệ An"}
{"id":"0x3139d58d1a452013:0x83a55971f9bcfb72","tel":null,"spa":"Anna Trang Spa","name":"Anna Trang Spa, Khu đô thị Âu Lạc, Nghi Khánh, Nghi Lộc, Nghệ An, Vietnam","name2":"Anna Trang Spa, Khu đô thị Âu Lạc, Nghi Khánh, Nghi Lộc, Nghệ An, Vietnam","lat":18.8151044,"lon":105.70351169999999,"add":"Khu đô thị Âu Lạc","ward":"Nghi Khánh","dist":"Nghi Lộc","province":"Nghệ An, Vietnam","ward2":"Xã Nghi Thịnh","dist2":"Huyện Nghi Lộc","province2":"Tỉnh Nghệ An"}
{"id":"0x3139d5e8cce1981d:0x9dd1fa874e265946","tel":"+84 393 334 587","spa":"Thắm thắm spa","name":"RPF4+VC2 Thắm thắm spa, QL46, Nghi Tân, Cửa Lò, Nghệ An, Vietnam","name2":"RPF4+VC2 Thắm thắm spa, QL46, Nghi Tân, Cửa Lò, Nghệ An, Vietnam","lat":18.8246368,"lon":105.70601549999999,"add":"RPF4+VC2, QL46","ward":"Nghi Tân","dist":"Cửa Lò","province":"Nghệ An, Vietnam","ward2":"Xã Nghi Thịnh","dist2":"Huyện Nghi Lộc","province2":"Tỉnh Nghệ An"}
{"id":"0x3139cd53248797cd:0x58af84d23e34615f","tel":"+84 971 238 792","spa":"Nối Mi Chuyên Nghiệp HẰNG LASHES","name":"Nối Mi Chuyên Nghiệp HẰNG LASHES, Nhà Hàng Làng Việt bên kia đường, 178 Phong Định Cảng, Đối diẹn, Thành phố Vinh, Nghệ An 43108, Vietnam","name2":"Nối Mi Chuyên Nghiệp HẰNG LASHES, Nhà Hàng Làng Việt bên kia đường, 178 Phong Định Cảng, Đối diẹn, Thành phố Vinh, Nghệ An 43108, Vietnam","lat":18.6695872,"lon":105.7004508,"add":"Nhà Hàng Làng Việt bên kia đường, 178 Phong Định Cảng","ward":"Đối diẹn","dist":"Thành phố Vinh","province":"Nghệ An 43108, Vietnam","ward2":"Xã Nghi Thịnh","dist2":"Huyện Nghi Lộc","province2":"Tỉnh Nghệ An"}
{"id":"0x3139d5f3b80b8e93:0x9f7355ca633154c7","tel":"+84 964 057 958","spa":"Myna Spa","name":"Myna Spa, 96 Mai Thúc Loan, Thu Thuỷ, Cửa Lò, Nghệ An, Vietnam","name2":"Myna Spa, 96 Mai Thúc Loan, Thu Thuỷ, Cửa Lò, Nghệ An, Vietnam","lat":18.7968658,"lon":105.72657509999999,"add":"96 Mai Thúc Loan","ward":"Thu Thuỷ","dist":"Cửa Lò","province":"Nghệ An, Vietnam","ward2":"Xã Nghi Thịnh","dist2":"Huyện Nghi Lộc","province2":"Tỉnh Nghệ An"}
{"id":"0x3139cfd15405d01d:0x792e4a151e9b8fe0","tel":"+84 388 292 868","spa":"Gul Spa","name":"Gul Spa, 119 Nguyễn Văn Cừ, Hưng Bình, Thành phố Vinh, Nghệ An 154751, Vietnam","name2":"Gul Spa, 119 Nguyễn Văn Cừ, Hưng Bình, Thành phố Vinh, Nghệ An 154751, Vietnam","lat":18.677019899999998,"lon":105.6862653,"add":"119 Nguyễn Văn Cừ","ward":"Hưng Bình","dist":"Thành phố Vinh","province":"Nghệ An 154751, Vietnam","ward2":"Xã Nghi Thịnh","dist2":"Huyện Nghi Lộc","province2":"Tỉnh Nghệ An"}
{"id":"0x3139cf292c6e60af:0x36474db0eaff6fd1","tel":"+84 972 055 820","spa":"HER Skincare & Spa","name":"HER Skincare & Spa, 178 Đặng Thái Thân, Quang Trung, Thành phố Vinh, Nghệ An 43000, Vietnam","name2":"HER Skincare & Spa, 178 Đặng Thái Thân, Quang Trung, Thành phố Vinh, Nghệ An 43000, Vietnam","lat":18.6666863,"lon":105.67325299999999,"add":"178 Đặng Thái Thân","ward":"Quang Trung","dist":"Thành phố Vinh","province":"Nghệ An 43000, Vietnam","ward2":"Xã Nghi Thịnh","dist2":"Huyện Nghi Lộc","province2":"Tỉnh Nghệ An"}
{"id":"0x3139d3a343bf580b:0xaf2dd9f5313c3032","tel":"+84 911 268 826","spa":"Spa Hồng Ngọc","name":"PP78+6P2 Spa Hồng Ngọc, Thái Thọ, Nghi Lộc, Nghệ An, Vietnam","name2":"PP78+6P2 Spa Hồng Ngọc, Thái Thọ, Nghi Lộc, Nghệ An, Vietnam","lat":18.7130106,"lon":105.71678039999999,"add":"PP78+6P2","ward":"Thái Thọ","dist":"Nghi Lộc","province":"Nghệ An, Vietnam","ward2":"Xã Nghi Thịnh","dist2":"Huyện Nghi Lộc","province2":"Tỉnh Nghệ An"}
{"id":"0x3139cd2318dc3fd3:0x70d22505ae74ce6","tel":"+84 964 645 585","spa":"MG Spa Dưỡng Sinh Đông Y","name":"MG Spa Dưỡng Sinh Đông Y, Shophouse Lk08 Trường Thịnh Phát, Trương Văn Lĩnh, Hà Huy Tập, Thành phố Vinh, Nghệ An 460000, Vietnam","name2":"MG Spa Dưỡng Sinh Đông Y, Shophouse Lk08 Trường Thịnh Phát, Trương Văn Lĩnh, Hà Huy Tập, Thành phố Vinh, Nghệ An 460000, Vietnam","lat":18.6935616,"lon":105.6901599,"add":"Shophouse Lk08 Trường Thịnh Phát, Trương Văn Lĩnh","ward":"Hà Huy Tập","dist":"Thành phố Vinh","province":"Nghệ An 460000, Vietnam","ward2":"Xã Nghi Thịnh","dist2":"Huyện Nghi Lộc","province2":"Tỉnh Nghệ An"}
{"id":"0x3139cd2318dc3fd3:0x70d22505ae74ce6","tel":"+84 964 645 585","spa":"MG Spa Dưỡng Sinh Đông Y","name":"MG Spa Dưỡng Sinh Đông Y, Shophouse Lk08 Trường Thịnh Phát, Trương Văn Lĩnh, Hà Huy Tập, Thành phố Vinh, Nghệ An 460000, Vietnam","name2":"MG Spa Dưỡng Sinh Đông Y, Shophouse Lk08 Trường Thịnh Phát, Trương Văn Lĩnh, Hà Huy Tập, Thành phố Vinh, Nghệ An 460000, Vietnam","lat":18.6935616,"lon":105.6901599,"add":"Shophouse Lk08 Trường Thịnh Phát, Trương Văn Lĩnh","ward":"Hà Huy Tập","dist":"Thành phố Vinh","province":"Nghệ An 460000, Vietnam","ward2":"Xã Nghi Thịnh","dist2":"Huyện Nghi Lộc","province2":"Tỉnh Nghệ An"}
{"id":"0x3139d5971b146f4f:0x7ccdd75873a660ec","tel":"+84 982 717 066","spa":"Phun Xăm Hồng Hạnh","name":"QPXC+GQP Phun Xăm Hồng Hạnh, Nguyễn Huệ, Nghi Hương, Cửa Lò, Nghệ An, Vietnam","name2":"QPXC+GQP Phun Xăm Hồng Hạnh, Nguyễn Huệ, Nghi Hương, Cửa Lò, Nghệ An, Vietnam","lat":18.7988411,"lon":105.72196559999999,"add":"QPXC+GQP, Nguyễn Huệ","ward":"Nghi Hương","dist":"Cửa Lò","province":"Nghệ An, Vietnam","ward2":"Xã Nghi Thịnh","dist2":"Huyện Nghi Lộc","province2":"Tỉnh Nghệ An"}
{"id":"0x3139d11fcec63d79:0xea6bf8580800a62a","tel":null,"spa":"Calla Beauty","name":"QJHW+G4Q Calla Beauty, Đ. Khối 4, TT. Quan Hành, Nghi Lộc, Nghệ An, Vietnam","name2":"QJHW+G4Q Calla Beauty, Đ. Khối 4, TT. Quan Hành, Nghi Lộc, Nghệ An, Vietnam","lat":18.7788498,"lon":105.64536319999999,"add":"QJHW+G4Q, Đ. Khối 4","ward":"TT. Quan Hành","dist":"Nghi Lộc","province":"Nghệ An, Vietnam","ward2":"Xã Nghi Thịnh","dist2":"Huyện Nghi Lộc","province2":"Tỉnh Nghệ An"}
{"id":"0x3139d99a9fcf7ac3:0x94792dd944d8be3","tel":"+84 817 894 544","spa":"Spa ĐỨC CHÂU","name":"Spa ĐỨC CHÂU, xóm 5, Nghi Lộc, Nghệ An, Vietnam","name2":"Spa ĐỨC CHÂU, xóm 5, Nghi Lộc, Nghệ An, Vietnam","lat":18.8135416,"lon":105.56210999999999,"add":"xóm 5","ward":"Nghi Lộc","dist":"Nghệ An","province":"Vietnam","ward2":"Xã Nghi Thịnh","dist2":"Huyện Nghi Lộc","province2":"Tỉnh Nghệ An"}
{"id":"0x3139d159a4ccd223:0xa849e5ae00802b4","tel":"+84 961 115 777","spa":"SPA - ANH THƠ - LÀM ĐẸP","name":"QJGW+FJ6 SPA - ANH THƠ - LÀM ĐẸP, QL1A, TT. Quan Hành, Nghi Lộc, Nghệ An, Vietnam","name2":"QJGW+FJ6 SPA - ANH THƠ - LÀM ĐẸP, QL1A, TT. Quan Hành, Nghi Lộc, Nghệ An, Vietnam","lat":18.7761404,"lon":105.6465235,"add":"QJGW+FJ6, QL1A","ward":"TT. Quan Hành","dist":"Nghi Lộc","province":"Nghệ An, Vietnam","ward2":"Xã Nghi Thịnh","dist2":"Huyện Nghi Lộc","province2":"Tỉnh Nghệ An"}
{"id":"0x3139cf405553973b:0xd886e90bfd0ecd01","tel":"+84 379 069 891","spa":"ThBrows-Thuý Huti Academy (Chuyên gia về phun xăm thẩm mỹ)","name":"ThBrows-Thuý Huti Academy (Chuyên gia về phun xăm thẩm mỹ), 161 Đặng Thái Thân, Cửa Nam, Thành phố Vinh, Nghệ An 460000, Vietnam","name2":"ThBrows-Thuý Huti Academy (Chuyên gia về phun xăm thẩm mỹ), 161 Đặng Thái Thân, Cửa Nam, Thành phố Vinh, Nghệ An 460000, Vietnam","lat":18.6670029,"lon":105.6710892,"add":"161 Đặng Thái Thân","ward":"Cửa Nam","dist":"Thành phố Vinh","province":"Nghệ An 460000, Vietnam","ward2":"Xã Nghi Thịnh","dist2":"Huyện Nghi Lộc","province2":"Tỉnh Nghệ An"}
{"id":"0x3139cf5ef05eb053:0x4c12a1cb004a54e6","tel":"+84 842 200 301","spa":"Golden Spa","name":"Golden Spa, 189 Đường Hà Huy Tập, Hà Huy Tập, Thành phố Vinh, Nghệ An 43100, Vietnam","name2":"Golden Spa, 189 Đường Hà Huy Tập, Hà Huy Tập, Thành phố Vinh, Nghệ An 43100, Vietnam","lat":18.6940526,"lon":105.6773193,"add":"189 Đường Hà Huy Tập","ward":"Hà Huy Tập","dist":"Thành phố Vinh","province":"Nghệ An 43100, Vietnam","ward2":"Xã Nghi Thịnh","dist2":"Huyện Nghi Lộc","province2":"Tỉnh Nghệ An"}
{"id":"0x3135abc3a2308d77:0x5c648fcbafa6090c","tel":"+84 565 811 811","spa":"Spa Cắt Tỉa Thú Cưng Chill Pet","name":"3QPP+XVP Spa Cắt Tỉa Thú Cưng Chill Pet, Bắc, Nhật Tảo, Từ Liêm, Hà Nội, Vietnam","name2":"3QPP+XVP Spa Cắt Tỉa Thú Cưng Chill Pet, Bắc, Nhật Tảo, Từ Liêm, Hà Nội, Vietnam","lat":21.087473199999998,"lon":105.78718769999999,"add":"3QPP+XVP, Bắc","ward":"Nhật Tảo","dist":"Từ Liêm","province":"Hà Nội, Vietnam","ward2":"Xã Nghi Thịnh","dist2":"Huyện Nghi Lộc","province2":"Tỉnh Nghệ An"}
{"id":"0x3139d1e4f662dc77:0x56a48fb19aa9d545","tel":null,"spa":"Spa Yến Giang","name":"Spa Yến Giang, 7 Xô Viết Nghệ Tĩnh, Nghi Phú, Thành phố Vinh, Nghệ An, Vietnam","name2":"Spa Yến Giang, 7 Xô Viết Nghệ Tĩnh, Nghi Phú, Thành phố Vinh, Nghệ An, Vietnam","lat":18.7163367,"lon":105.6735968,"add":"7 Xô Viết Nghệ Tĩnh","ward":"Nghi Phú","dist":"Thành phố Vinh","province":"Nghệ An, Vietnam","ward2":"Xã Nghi Thịnh","dist2":"Huyện Nghi Lộc","province2":"Tỉnh Nghệ An"}
{"id":"0x3139d3d97a3c224d:0xf8f9f98d2360a9b2","tel":"+84 979 706 728","spa":"Phương Anh massage body","name":"Phương Anh massage body, 77 QL46, Khối 4, Nghi Lộc, Nghệ An, Vietnam","name2":"Phương Anh massage body, 77 QL46, Khối 4, Nghi Lộc, Nghệ An, Vietnam","lat":18.798878,"lon":105.6999467,"add":"77 QL46","ward":"Khối 4","dist":"Nghi Lộc","province":"Nghệ An, Vietnam","ward2":"Xã Nghi Thịnh","dist2":"Huyện Nghi Lộc","province2":"Tỉnh Nghệ An"}
{"id":"0x3139cfc01514e6d7:0xb3dfb81da139d78a","tel":"+84 866 968 526","spa":"HOANG TRA MY NAILS","name":"HOANG TRA MY NAILS, 15 Đinh Văn Chất, Quán Bàu, Thành phố Vinh, Nghệ An 02383, Vietnam","name2":"HOANG TRA MY NAILS, 15 Đinh Văn Chất, Quán Bàu, Thành phố Vinh, Nghệ An 02383, Vietnam","lat":18.7019845,"lon":105.66107099999999,"add":"15 Đinh Văn Chất","ward":"Quán Bàu","dist":"Thành phố Vinh","province":"Nghệ An 02383, Vietnam","ward2":"Xã Nghi Thịnh","dist2":"Huyện Nghi Lộc","province2":"Tỉnh Nghệ An"}
{"id":"0x313455ffb3fd8257:0x3c0884ba432bf9ff","tel":"+84 793 051 695","spa":"Spa","name":"Spa, 8 Đ. Xuân Phương, Minh Khai, Từ Liêm, Hà Nội, Vietnam","name2":"Spa, 8 Đ. Xuân Phương, Minh Khai, Từ Liêm, Hà Nội, Vietnam","lat":21.053606199999997,"lon":105.73319169999999,"add":"8 Đ. Xuân Phương","ward":"Minh Khai","dist":"Từ Liêm","province":"Hà Nội, Vietnam","ward2":"Xã Nghi Thịnh","dist2":"Huyện Nghi Lộc","province2":"Tỉnh Nghệ An"}
{"id":"0x3139cf1744a56193:0x1c1309e7a6325ed6","tel":"+84 382 660 858","spa":"Cs Tẩm Quất Người Mù Đông Nam","name":"Cs Tẩm Quất Người Mù Đông Nam, 190b Đường Hà Huy Tập, Hà Huy Tập, Thành phố Vinh, Nghệ An 43117, Vietnam","name2":"Cs Tẩm Quất Người Mù Đông Nam, 190b Đường Hà Huy Tập, Hà Huy Tập, Thành phố Vinh, Nghệ An 43117, Vietnam","lat":18.6952107,"lon":105.6770992,"add":"190b Đường Hà Huy Tập","ward":"Hà Huy Tập","dist":"Thành phố Vinh","province":"Nghệ An 43117, Vietnam","ward2":"Xã Nghi Thịnh","dist2":"Huyện Nghi Lộc","province2":"Tỉnh Nghệ An"}
{"id":"0x3139d73b96f14011:0x834308ec343eee67","tel":"+84 859 373 868","spa":"Lâm Oanh beauty","name":"RMJ7+JHQ Lâm Oanh beauty, xóm 11, Nghi Lộc, Nghệ An, Vietnam","name2":"RMJ7+JHQ Lâm Oanh beauty, xóm 11, Nghi Lộc, Nghệ An, Vietnam","lat":18.8315754,"lon":105.66398099999999,"add":"RMJ7+JHQ","ward":"xóm 11","dist":"Nghi Lộc","province":"Nghệ An, Vietnam","ward2":"Xã Nghi Thịnh","dist2":"Huyện Nghi Lộc","province2":"Tỉnh Nghệ An"}
{"id":"0x29f68b334f94f41b:0x61fd28f14e649eea","tel":"+84 914 278 095","spa":"Dưỡng Sinh Đông Y trị Liệu Nghi Ân","name":null,"name2":null,"lat":19.2745876,"lon":104.84067809999999}
{"id":"0x3139ff71893c1f91:0x1c4acafed6972948","tel":"+84 941 487 622","spa":"Ann Spa","name":"Ann Spa, Đường vào cổng trường THPT Anh, Sơn 1, Anh Sơn, Nghệ An, Vietnam","name2":"Ann Spa, Đường vào cổng trường THPT Anh, Sơn 1, Anh Sơn, Nghệ An, Vietnam","lat":18.9332065,"lon":105.09442539999999,"add":"Đường vào cổng trường THPT Anh","ward":"Sơn 1","dist":"Anh Sơn","province":"Nghệ An, Vietnam","ward2":"Xã Nghi Thịnh","dist2":"Huyện Nghi Lộc","province2":"Tỉnh Nghệ An"}
{"id":"0x3139d743083789f7:0x98d5aa882caffccf","tel":null,"spa":"Spa THUỶ KIỀU","name":"RJFQ+GQX Spa THUỶ KIỀU, Xóm 4, Nghi Lộc, Nghệ An, Vietnam","name2":"RJFQ+GQX Spa THUỶ KIỀU, Xóm 4, Nghi Lộc, Nghệ An, Vietnam","lat":18.8238721,"lon":105.6394842,"add":"RJFQ+GQX","ward":"Xóm 4","dist":"Nghi Lộc","province":"Nghệ An, Vietnam","ward2":"Xã Nghi Thịnh","dist2":"Huyện Nghi Lộc","province2":"Tỉnh Nghệ An"}
{"id":"0x3139d1acc184cc6f:0x8bfce01eeee631cc","tel":null,"spa":"Spa Xuân Hồng","name":"QMJ3+JR6 Spa Xuân Hồng, Xóm 9, Nghi Lộc, Nghệ An, Vietnam","name2":"QMJ3+JR6 Spa Xuân Hồng, Xóm 9, Nghi Lộc, Nghệ An, Vietnam","lat":18.7815431,"lon":105.6545191,"add":"QMJ3+JR6","ward":"Xóm 9","dist":"Nghi Lộc","province":"Nghệ An, Vietnam","ward2":"Xã Nghi Thịnh","dist2":"Huyện Nghi Lộc","province2":"Tỉnh Nghệ An"}
{"id":"0x3139cf644187a8ed:0x39d6071b40f5e5cd","tel":"+84 834 722 513","spa":"VTM Quốc Tế Medic Skin - Nghệ An","name":"VTM Quốc Tế Medic Skin - Nghệ An, 238A Trần Phú, Lê Mao, Thành phố Vinh, Nghệ An 43113, Vietnam","name2":"VTM Quốc Tế Medic Skin - Nghệ An, 238A Trần Phú, Lê Mao, Thành phố Vinh, Nghệ An 43113, Vietnam","lat":18.6652079,"lon":105.6872736,"add":"238A Trần Phú","ward":"Lê Mao","dist":"Thành phố Vinh","province":"Nghệ An 43113, Vietnam","ward2":"Xã Nghi Thịnh","dist2":"Huyện Nghi Lộc","province2":"Tỉnh Nghệ An"}
{"id":"0x3139d1e42aa8da0f:0x4c453a796027728","tel":"+84 917 719 483","spa":"Spa Kim Chi","name":"Spa Kim Chi, 84 Đ. Nghệ An Xiêng Khoảng, Nghi Phú, Thành phố Vinh, Nghệ An, Vietnam","name2":"Spa Kim Chi, 84 Đ. Nghệ An Xiêng Khoảng, Nghi Phú, Thành phố Vinh, Nghệ An, Vietnam","lat":18.7175196,"lon":105.6708206,"add":"84 Đ. Nghệ An Xiêng Khoảng","ward":"Nghi Phú","dist":"Thành phố Vinh","province":"Nghệ An, Vietnam","ward2":"Xã Nghi Thịnh","dist2":"Huyện Nghi Lộc","province2":"Tỉnh Nghệ An"}
{"id":"0x3139cf476679214b:0x7228e6d37f568aec","tel":"+84 987 682 186","spa":"Thương Nails","name":"Thương Nails, Số 48 Hồng Bàng, Lê Mao, Thành phố Vinh, Nghệ An 43106, Vietnam","name2":"Thương Nails, Số 48 Hồng Bàng, Lê Mao, Thành phố Vinh, Nghệ An 43106, Vietnam","lat":18.669578899999998,"lon":105.67645759999999,"add":"Số 48 Hồng Bàng","ward":"Lê Mao","dist":"Thành phố Vinh","province":"Nghệ An 43106, Vietnam","ward2":"Xã Nghi Thịnh","dist2":"Huyện Nghi Lộc","province2":"Tỉnh Nghệ An"}
{"id":"0x3139d3afc2f38dbb:0xae869c00716d41","tel":"+84 976 769 728","spa":"Thuỳy Mýtt Nail","name":"Thuỳy Mýtt Nail, Thái Lộc, Nghi Lộc, Nghệ An, Vietnam","name2":"Thuỳy Mýtt Nail, Thái Lộc, Nghi Lộc, Nghệ An, Vietnam","lat":18.7096585,"lon":105.7223224,"add":"Thái Lộc","ward":"Nghi Lộc","dist":"Nghệ An","province":"Vietnam","ward2":"Xã Nghi Thịnh","dist2":"Huyện Nghi Lộc","province2":"Tỉnh Nghệ An"}
{"id":"0x3139cfb51cf2252f:0x6447b7784591008f","tel":"+84 976 308 987","spa":"Mina Beauty & Spa","name":"Mina Beauty & Spa, 44 Văn Đức Giai, Hưng Bình, Thành phố Vinh, Nghệ An, Vietnam","name2":"Mina Beauty & Spa, 44 Văn Đức Giai, Hưng Bình, Thành phố Vinh, Nghệ An, Vietnam","lat":18.6735856,"lon":105.6865615,"add":"44 Văn Đức Giai","ward":"Hưng Bình","dist":"Thành phố Vinh","province":"Nghệ An, Vietnam","ward2":"Xã Nghi Thịnh","dist2":"Huyện Nghi Lộc","province2":"Tỉnh Nghệ An"}
{"id":"0x3139cdefdf1eb331:0xb98098d97d698dec","tel":"+84 332 749 800","spa":"Tẩm quất Hội người mù tỉnh Nghệ An","name":"Tẩm quất Hội người mù tỉnh Nghệ An, 38 Đinh Bạt Tụy, Trường Thi, Thành phố Vinh, Nghệ An 43107, Vietnam","name2":"Tẩm quất Hội người mù tỉnh Nghệ An, 38 Đinh Bạt Tụy, Trường Thi, Thành phố Vinh, Nghệ An 43107, Vietnam","lat":18.6690349,"lon":105.69489329999999,"add":"38 Đinh Bạt Tụy","ward":"Trường Thi","dist":"Thành phố Vinh","province":"Nghệ An 43107, Vietnam","ward2":"Xã Nghi Thịnh","dist2":"Huyện Nghi Lộc","province2":"Tỉnh Nghệ An"}
{"id":"0x3139d33c2154537f:0xb750719073216775","tel":"+84 989 936 057","spa":"phương spa","name":"QMCV+MX9 phương spa, QL46, Nghi Trường, Nghi Lộc, Nghệ An, Vietnam","name2":"QMCV+MX9 phương spa, QL46, Nghi Trường, Nghi Lộc, Nghệ An, Vietnam","lat":18.7716693,"lon":105.6949793,"add":"QMCV+MX9, QL46","ward":"Nghi Trường","dist":"Nghi Lộc","province":"Nghệ An, Vietnam","ward2":"Xã Nghi Thịnh","dist2":"Huyện Nghi Lộc","province2":"Tỉnh Nghệ An"}
{"id":"0x3139cf2c6d0f13ad:0x9ec002ce98f2b2ab","tel":"+84 982 555 583","spa":"BaLi Spa","name":"BaLi Spa, Đường Nguyễn Quốc Trị, Hưng Bình, Thành phố Vinh, Nghệ An, Vietnam","name2":"BaLi Spa, Đường Nguyễn Quốc Trị, Hưng Bình, Thành phố Vinh, Nghệ An, Vietnam","lat":18.682367199999998,"lon":105.6823953,"add":"Đường Nguyễn Quốc Trị","ward":"Hưng Bình","dist":"Thành phố Vinh","province":"Nghệ An, Vietnam","ward2":"Xã Nghi Thịnh","dist2":"Huyện Nghi Lộc","province2":"Tỉnh Nghệ An"}
{"id":"0x3139d1942d476635:0x4a5d0077ff241206","tel":"+84 986 099 867","spa":"Phương Lê spa","name":"QJJX+8P8 Phương Lê spa, Xóm 6, Nghi Lộc, Nghệ An, Vietnam","name2":"QJJX+8P8 Phương Lê spa, Xóm 6, Nghi Lộc, Nghệ An, Vietnam","lat":18.7807981,"lon":105.64932549999999,"add":"QJJX+8P8","ward":"Xóm 6","dist":"Nghi Lộc","province":"Nghệ An, Vietnam","ward2":"Xã Nghi Thịnh","dist2":"Huyện Nghi Lộc","province2":"Tỉnh Nghệ An"}
{"id":"0x3139cfe61aa43c0b:0xe887809cee2c7a74","tel":"+84 917 320 354","spa":"Trị nám tàn nhang tại nhà Nghệ An - Tổng kho Viên uống trắng da toàn thân 9 ngày đẹp Nine's Beauty","name":"Trị nám tàn nhang tại nhà Nghệ An - Tổng kho Viên uống trắng da toàn thân 9 ngày đẹp Nine's Beauty, Huyền Vy, Xóm 9, Nghi Lộc, Nghệ An 463425, Vietnam","name2":"Trị nám tàn nhang tại nhà Nghệ An - Tổng kho Viên uống trắng da toàn thân 9 ngày đẹp Nine's Beauty, Huyền Vy, Xóm 9, Nghi Lộc, Nghệ An 463425, Vietnam","lat":18.7486305,"lon":105.707695,"add":"Huyền Vy","ward":"Xóm 9","dist":"Nghi Lộc","province":"Nghệ An 463425, Vietnam","ward2":"Xã Nghi Thịnh","dist2":"Huyện Nghi Lộc","province2":"Tỉnh Nghệ An"}
{"id":"0x3139d118e23a1c8d:0x5632c077c4ba4b91","tel":null,"spa":"Nhà anh thơ spa","name":"QMP3+MJ3 Nhà anh thơ spa, Kim Ngọc, Xóm 13, Nghi Lộc, Nghệ An, Vietnam","name2":"QMP3+MJ3 Nhà anh thơ spa, Kim Ngọc, Xóm 13, Nghi Lộc, Nghệ An, Vietnam","lat":18.7863532,"lon":105.65337099999999,"add":"QMP3+MJ3, Kim Ngọc","ward":"Xóm 13","dist":"Nghi Lộc","province":"Nghệ An, Vietnam","ward2":"Xã Nghi Thịnh","dist2":"Huyện Nghi Lộc","province2":"Tỉnh Nghệ An"}
{"id":"0x3139d20b1866e067:0x7ff06fc10cecd0f7","tel":"+84 915 027 552","spa":"Huệ Spa","name":"PP56+J2X Huệ Spa, Lê Viết Thuật, Thành Phố Vinh, Tỉnh Nghệ An, Thành phố Vinh, Vietnam","name2":"PP56+J2X Huệ Spa, Lê Viết Thuật, Thành Phố Vinh, Tỉnh Nghệ An, Thành phố Vinh, Vietnam","lat":18.7091,"lon":105.7101,"add":"PP56+J2X","ward":"Lê Viết Thuật, Thành Phố Vinh, Tỉnh Nghệ An","dist":"Thành phố Vinh","province":"Vietnam","ward2":"Xã Nghi Thịnh","dist2":"Huyện Nghi Lộc","province2":"Tỉnh Nghệ An"}
{"id":"0x3139d73b336562f3:0x9330843da1abe51","tel":null,"spa":"Quỳnh Spa","name":"RM35+FGW Quỳnh Spa, Xóm 7, Nghi Lộc, Nghệ An, Vietnam","name2":"RM35+FGW Quỳnh Spa, Xóm 7, Nghi Lộc, Nghệ An, Vietnam","lat":18.8037359,"lon":105.6588379,"add":"RM35+FGW","ward":"Xóm 7","dist":"Nghi Lộc","province":"Nghệ An, Vietnam","ward2":"Xã Nghi Thịnh","dist2":"Huyện Nghi Lộc","province2":"Tỉnh Nghệ An"}
{"id":"0x3139ce09d9beab35:0xdcdc6c18853f814","tel":"+84 986 340 240","spa":"HB Spa - Nghệ An (Dưỡng Sinh & Thủ Đạo Thang)","name":"HB Spa - Nghệ An (Dưỡng Sinh & Thủ Đạo Thang), 75 Phạm Đình Toái, Nghi Phan, Nghệ An, 43000, Vietnam","name2":"HB Spa - Nghệ An (Dưỡng Sinh & Thủ Đạo Thang), 75 Phạm Đình Toái, Nghi Phan, Nghệ An, 43000, Vietnam","lat":18.6947705,"lon":105.6801469,"add":"75 Phạm Đình Toái","ward":"Nghi Phan","dist":"Nghệ An","province":"43000, Vietnam","ward2":"Xã Nghi Công Bắc","dist2":"Huyện Nghi Lộc","province2":"Tỉnh Nghệ An"}
{"id":"0x3135abe2d302fdcd:0x17907c1d763978b4","tel":null,"spa":"Spa","name":"Spa, 17 Tôn Thất Thuyết, Dịch Vọng Hậu, Cầu Giấy, Hà Nội 100000, Vietnam","name2":"Spa, 17 Tôn Thất Thuyết, Dịch Vọng Hậu, Cầu Giấy, Hà Nội 100000, Vietnam","lat":21.0281628,"lon":105.7853968,"add":"17 Tôn Thất Thuyết","ward":"Dịch Vọng Hậu","dist":"Cầu Giấy","province":"Hà Nội 100000, Vietnam","ward2":"Xã Nghi Công Bắc","dist2":"Huyện Nghi Lộc","province2":"Tỉnh Nghệ An"}
{"id":"0x3135ab93e5349a15:0xc3c37bed6fd5efb","tel":"+84 703 004 277","spa":"Spa","name":"Spa, 12 P. Bát Sứ, Hàng Bồ, Hoàn Kiếm, Hà Nội 11010, Vietnam","name2":"Spa, 12 P. Bát Sứ, Hàng Bồ, Hoàn Kiếm, Hà Nội 11010, Vietnam","lat":21.0351777,"lon":105.8474518,"add":"12 P. Bát Sứ","ward":"Hàng Bồ","dist":"Hoàn Kiếm","province":"Hà Nội 11010, Vietnam","ward2":"Xã Nghi Công Bắc","dist2":"Huyện Nghi Lộc","province2":"Tỉnh Nghệ An"}
{"id":"0x313455ffb3fd8257:0x3c0884ba432bf9ff","tel":"+84 793 051 695","spa":"Spa","name":"Spa, 8 Đ. Xuân Phương, Minh Khai, Từ Liêm, Hà Nội, Vietnam","name2":"Spa, 8 Đ. Xuân Phương, Minh Khai, Từ Liêm, Hà Nội, Vietnam","lat":21.053606199999997,"lon":105.73319169999999,"add":"8 Đ. Xuân Phương","ward":"Minh Khai","dist":"Từ Liêm","province":"Hà Nội, Vietnam","ward2":"Xã Nghi Công Bắc","dist2":"Huyện Nghi Lộc","province2":"Tỉnh Nghệ An"}
{"id":"0x3139cfd0595f4e27:0x796cb2b8229f1c","tel":"+84 961 382 223","spa":"Học Viện Thẩm Mỹ Tiên Spa","name":"Học Viện Thẩm Mỹ Tiên Spa, 125 Đường Hà Huy Tập, Hà Huy Tập, Thành phố Vinh, Nghệ An, Vietnam","name2":"Học Viện Thẩm Mỹ Tiên Spa, 125 Đường Hà Huy Tập, Hà Huy Tập, Thành phố Vinh, Nghệ An, Vietnam","lat":18.691286599999998,"lon":105.67873999999999,"add":"125 Đường Hà Huy Tập","ward":"Hà Huy Tập","dist":"Thành phố Vinh","province":"Nghệ An, Vietnam","ward2":"Xã Nghi Công Bắc","dist2":"Huyện Nghi Lộc","province2":"Tỉnh Nghệ An"}
{"id":"0x3139d1496009d0c3:0x9e8b752cec984ac5","tel":"+84 979 613 617","spa":"Trung tâm Diện Chẩn Nghệ An","name":"Trung tâm Diện Chẩn Nghệ An, Khu tái định cư xóm 5, Sư Vạn Hạnh, Tp. Vinh, Nghệ An, Vietnam","name2":"Trung tâm Diện Chẩn Nghệ An, Khu tái định cư xóm 5, Sư Vạn Hạnh, Tp. Vinh, Nghệ An, Vietnam","lat":18.7086932,"lon":105.68371959999999,"add":"Khu tái định cư xóm 5","ward":"Sư Vạn Hạnh","dist":"Tp. Vinh","province":"Nghệ An, Vietnam","ward2":"Xã Nghi Công Bắc","dist2":"Huyện Nghi Lộc","province2":"Tỉnh Nghệ An"}
{"id":"0x3139ce7669caf997:0xbfd3f3e662d352e4","tel":"+84 981 201 333","spa":"Rosa Spa","name":null,"name2":null,"lat":18.6653829,"lon":105.76481799999999}
{"id":"0x3139dfb7836ef0f3:0x21d278d8110f692e","tel":"+84 984 688 637","spa":"Hậu Spa","name":"Hậu Spa, xóm 10, Nghi Lộc, Nghệ An 43331, Vietnam","name2":"Hậu Spa, xóm 10, Nghi Lộc, Nghệ An 43331, Vietnam","lat":18.828139999999998,"lon":105.4934566,"add":"xóm 10","ward":"Nghi Lộc","dist":"Nghệ An 43331","province":"Vietnam","ward2":"Xã Nghi Công Bắc","dist2":"Huyện Nghi Lộc","province2":"Tỉnh Nghệ An"}
{"id":"0x31377cd6d87a0e11:0x2e2535eb1e051440","tel":"+84 388 913 002","spa":"Spa - Massage Thiên Hướng","name":"XJ23+874 Spa - Massage Thiên Hướng, QL1A, Diễn Thịnh, Diễn Châu, Nghệ An, Vietnam","name2":"XJ23+874 Spa - Massage Thiên Hướng, QL1A, Diễn Thịnh, Diễn Châu, Nghệ An, Vietnam","lat":18.9507734,"lon":105.6031926,"add":"XJ23+874, QL1A","ward":"Diễn Thịnh","dist":"Diễn Châu","province":"Nghệ An, Vietnam","ward2":"Xã Nghi Công Bắc","dist2":"Huyện Nghi Lộc","province2":"Tỉnh Nghệ An"}
{"id":"0x3139ce7669449d8d:0x7caa67b0168b00f2","tel":"+84 915 001 600","spa":"Spa uy tín nhất tại tp Vinh, Nghệ an - TH Spa","name":"Spa uy tín nhất tại tp Vinh, Nghệ an - TH Spa, 115 Lê Hoàn, Hưng Phúc, Thành phố Vinh, Nghệ An 460000, Vietnam","name2":"Spa uy tín nhất tại tp Vinh, Nghệ an - TH Spa, 115 Lê Hoàn, Hưng Phúc, Thành phố Vinh, Nghệ An 460000, Vietnam","lat":18.6814996,"lon":105.69104929999999,"add":"115 Lê Hoàn","ward":"Hưng Phúc","dist":"Thành phố Vinh","province":"Nghệ An 460000, Vietnam","ward2":"Xã Nghi Công Bắc","dist2":"Huyện Nghi Lộc","province2":"Tỉnh Nghệ An"}
{"id":"0x31377dd32b753ab7:0x7f1d2d299f9986a1","tel":"+84 973 596 882","spa":"Duyen Spa","name":"Duyen Spa, Xóm 10 đông diễn thọ diễn châu, Nghệ An, Vietnam","name2":"Duyen Spa, Xóm 10 đông diễn thọ diễn châu, Nghệ An, Vietnam","lat":18.936405,"lon":105.576168,"add":"Xóm 10 đông diễn thọ diễn châu","ward":"Nghệ An","dist":"Vietnam","ward2":"Xã Nghi Công Bắc","dist2":"Huyện Nghi Lộc","province2":"Tỉnh Nghệ An"}
{"id":"0x3139c44269fcdd03:0xc494b9929309ecc3","tel":"+84 987 976 489","spa":"Salon Phước tình","name":"MG5G+V66 Salon Phước tình, Hồng Long, Nam Đàn, Nghệ An, Vietnam","name2":"MG5G+V66 Salon Phước tình, Hồng Long, Nam Đàn, Nghệ An, Vietnam","lat":18.659656,"lon":105.5255203,"add":"MG5G+V66","ward":"Hồng Long","dist":"Nam Đàn","province":"Nghệ An, Vietnam","ward2":"Xã Nghi Công Bắc","dist2":"Huyện Nghi Lộc","province2":"Tỉnh Nghệ An"}
{"id":"0x3139d58d1a452013:0x83a55971f9bcfb72","tel":null,"spa":"Anna Trang Spa","name":"Anna Trang Spa, Khu đô thị Âu Lạc, Nghi Khánh, Nghi Lộc, Nghệ An, Vietnam","name2":"Anna Trang Spa, Khu đô thị Âu Lạc, Nghi Khánh, Nghi Lộc, Nghệ An, Vietnam","lat":18.8151044,"lon":105.70351169999999,"add":"Khu đô thị Âu Lạc","ward":"Nghi Khánh","dist":"Nghi Lộc","province":"Nghệ An, Vietnam","ward2":"Xã Nghi Công Bắc","dist2":"Huyện Nghi Lộc","province2":"Tỉnh Nghệ An"}
{"id":"0x3139d5e8cce1981d:0x9dd1fa874e265946","tel":"+84 393 334 587","spa":"Thắm thắm spa","name":"RPF4+VC2 Thắm thắm spa, QL46, Nghi Tân, Cửa Lò, Nghệ An, Vietnam","name2":"RPF4+VC2 Thắm thắm spa, QL46, Nghi Tân, Cửa Lò, Nghệ An, Vietnam","lat":18.8246368,"lon":105.70601549999999,"add":"RPF4+VC2, QL46","ward":"Nghi Tân","dist":"Cửa Lò","province":"Nghệ An, Vietnam","ward2":"Xã Nghi Công Bắc","dist2":"Huyện Nghi Lộc","province2":"Tỉnh Nghệ An"}
{"id":"0x3135abc3a2308d77:0x5c648fcbafa6090c","tel":"+84 565 811 811","spa":"Spa Cắt Tỉa Thú Cưng Chill Pet","name":"3QPP+XVP Spa Cắt Tỉa Thú Cưng Chill Pet, Bắc, Nhật Tảo, Từ Liêm, Hà Nội, Vietnam","name2":"3QPP+XVP Spa Cắt Tỉa Thú Cưng Chill Pet, Bắc, Nhật Tảo, Từ Liêm, Hà Nội, Vietnam","lat":21.087473199999998,"lon":105.78718769999999,"add":"3QPP+XVP, Bắc","ward":"Nhật Tảo","dist":"Từ Liêm","province":"Hà Nội, Vietnam","ward2":"Xã Nghi Công Bắc","dist2":"Huyện Nghi Lộc","province2":"Tỉnh Nghệ An"}
{"id":"0x3139cfd15405d01d:0x792e4a151e9b8fe0","tel":"+84 388 292 868","spa":"Gul Spa","name":"Gul Spa, 119 Nguyễn Văn Cừ, Hưng Bình, Thành phố Vinh, Nghệ An 154751, Vietnam","name2":"Gul Spa, 119 Nguyễn Văn Cừ, Hưng Bình, Thành phố Vinh, Nghệ An 154751, Vietnam","lat":18.677019899999998,"lon":105.6862653,"add":"119 Nguyễn Văn Cừ","ward":"Hưng Bình","dist":"Thành phố Vinh","province":"Nghệ An 154751, Vietnam","ward2":"Xã Nghi Công Bắc","dist2":"Huyện Nghi Lộc","province2":"Tỉnh Nghệ An"}
{"id":"0x3139cf5ef05eb053:0x4c12a1cb004a54e6","tel":"+84 842 200 301","spa":"Golden Spa","name":"Golden Spa, 189 Đường Hà Huy Tập, Hà Huy Tập, Thành phố Vinh, Nghệ An 43100, Vietnam","name2":"Golden Spa, 189 Đường Hà Huy Tập, Hà Huy Tập, Thành phố Vinh, Nghệ An 43100, Vietnam","lat":18.6940526,"lon":105.6773193,"add":"189 Đường Hà Huy Tập","ward":"Hà Huy Tập","dist":"Thành phố Vinh","province":"Nghệ An 43100, Vietnam","ward2":"Xã Nghi Công Bắc","dist2":"Huyện Nghi Lộc","province2":"Tỉnh Nghệ An"}
{"id":"0x3139dfec38825891:0xfee021364bd5029d","tel":"+84 986 347 479","spa":"Salon Bảo Quyên","name":"Salon Bảo Quyên, Xón Chợ, Nghi Kiều, Nghi Lộc, Nghệ An, Vietnam","name2":"Salon Bảo Quyên, Xón Chợ, Nghi Kiều, Nghi Lộc, Nghệ An, Vietnam","lat":18.8222818,"lon":105.49308819999999,"add":"Xón Chợ","ward":"Nghi Kiều","dist":"Nghi Lộc","province":"Nghệ An, Vietnam","ward2":"Xã Nghi Công Bắc","dist2":"Huyện Nghi Lộc","province2":"Tỉnh Nghệ An"}
{"id":"0x3139cfda7e51d0e7:0x10236384d15986d4","tel":null,"spa":"Thìa Vàng Center Homespa Chăm Sóc Sức Khoẻ Mẹ và Bé","name":"Thìa Vàng Center Homespa Chăm Sóc Sức Khoẻ Mẹ và Bé, 43B Phan Chu Trinh, Đội Cung, Thành phố Vinh, Nghệ An, Vietnam","name2":"Thìa Vàng Center Homespa Chăm Sóc Sức Khoẻ Mẹ và Bé, 43B Phan Chu Trinh, Đội Cung, Thành phố Vinh, Nghệ An, Vietnam","lat":18.6748996,"lon":105.6668313,"add":"43B Phan Chu Trinh","ward":"Đội Cung","dist":"Thành phố Vinh","province":"Nghệ An, Vietnam","ward2":"Xã Nghi Công Bắc","dist2":"Huyện Nghi Lộc","province2":"Tỉnh Nghệ An"}
{"id":"0x3139d99a9fcf7ac3:0x94792dd944d8be3","tel":"+84 817 894 544","spa":"Spa ĐỨC CHÂU","name":"Spa ĐỨC CHÂU, xóm 5, Nghi Lộc, Nghệ An, Vietnam","name2":"Spa ĐỨC CHÂU, xóm 5, Nghi Lộc, Nghệ An, Vietnam","lat":18.8135416,"lon":105.56210999999999,"add":"xóm 5","ward":"Nghi Lộc","dist":"Nghệ An","province":"Vietnam","ward2":"Xã Nghi Công Bắc","dist2":"Huyện Nghi Lộc","province2":"Tỉnh Nghệ An"}
{"id":"0x3139d743083789f7:0x98d5aa882caffccf","tel":null,"spa":"Spa THUỶ KIỀU","name":"RJFQ+GQX Spa THUỶ KIỀU, Xóm 4, Nghi Lộc, Nghệ An, Vietnam","name2":"RJFQ+GQX Spa THUỶ KIỀU, Xóm 4, Nghi Lộc, Nghệ An, Vietnam","lat":18.8238721,"lon":105.6394842,"add":"RJFQ+GQX","ward":"Xóm 4","dist":"Nghi Lộc","province":"Nghệ An, Vietnam","ward2":"Xã Nghi Công Bắc","dist2":"Huyện Nghi Lộc","province2":"Tỉnh Nghệ An"}
{"id":"0x3139d3d97a3c224d:0xf8f9f98d2360a9b2","tel":"+84 979 706 728","spa":"Phương Anh massage body","name":"Phương Anh massage body, 77 QL46, Khối 4, Nghi Lộc, Nghệ An, Vietnam","name2":"Phương Anh massage body, 77 QL46, Khối 4, Nghi Lộc, Nghệ An, Vietnam","lat":18.798878,"lon":105.6999467,"add":"77 QL46","ward":"Khối 4","dist":"Nghi Lộc","province":"Nghệ An, Vietnam","ward2":"Xã Nghi Công Bắc","dist2":"Huyện Nghi Lộc","province2":"Tỉnh Nghệ An"}
{"id":"0x3139d73b96f14011:0x834308ec343eee67","tel":"+84 859 373 868","spa":"Lâm Oanh beauty","name":"RMJ7+JHQ Lâm Oanh beauty, xóm 11, Nghi Lộc, Nghệ An, Vietnam","name2":"RMJ7+JHQ Lâm Oanh beauty, xóm 11, Nghi Lộc, Nghệ An, Vietnam","lat":18.8315754,"lon":105.66398099999999,"add":"RMJ7+JHQ","ward":"xóm 11","dist":"Nghi Lộc","province":"Nghệ An, Vietnam","ward2":"Xã Nghi Công Bắc","dist2":"Huyện Nghi Lộc","province2":"Tỉnh Nghệ An"}
{"id":"0x3139d1e4f662dc77:0x56a48fb19aa9d545","tel":null,"spa":"Spa Yến Giang","name":"Spa Yến Giang, 7 Xô Viết Nghệ Tĩnh, Nghi Phú, Thành phố Vinh, Nghệ An, Vietnam","name2":"Spa Yến Giang, 7 Xô Viết Nghệ Tĩnh, Nghi Phú, Thành phố Vinh, Nghệ An, Vietnam","lat":18.7163367,"lon":105.6735968,"add":"7 Xô Viết Nghệ Tĩnh","ward":"Nghi Phú","dist":"Thành phố Vinh","province":"Nghệ An, Vietnam","ward2":"Xã Nghi Công Bắc","dist2":"Huyện Nghi Lộc","province2":"Tỉnh Nghệ An"}
{"id":"0x3139d1ac20268e7f:0xd0ccbd030fa759d9","tel":"+84 944 544 486","spa":"Mộc Minh Thống - Nhà thuốc Đại Minh","name":"Mộc Minh Thống - Nhà thuốc Đại Minh, QL1A, Khối3, Nghi Lộc, Nghệ An 100000, Vietnam","name2":"Mộc Minh Thống - Nhà thuốc Đại Minh, QL1A, Khối3, Nghi Lộc, Nghệ An 100000, Vietnam","lat":18.7814411,"lon":105.6463517,"add":"QL1A","ward":"Khối3","dist":"Nghi Lộc","province":"Nghệ An 100000, Vietnam","ward2":"Xã Nghi Công Bắc","dist2":"Huyện Nghi Lộc","province2":"Tỉnh Nghệ An"}
{"id":"0x3139ce7669449d8d:0x7caa67b0168b00f2","tel":"+84 915 001 600","spa":"Spa uy tín nhất tại tp Vinh, Nghệ an - TH Spa","name":"Spa uy tín nhất tại tp Vinh, Nghệ an - TH Spa, 115 Lê Hoàn, Hưng Phúc, Thành phố Vinh, Nghệ An 460000, Vietnam","name2":"Spa uy tín nhất tại tp Vinh, Nghệ an - TH Spa, 115 Lê Hoàn, Hưng Phúc, Thành phố Vinh, Nghệ An 460000, Vietnam","lat":18.6814996,"lon":105.69104929999999,"add":"115 Lê Hoàn","ward":"Hưng Phúc","dist":"Thành phố Vinh","province":"Nghệ An 460000, Vietnam","ward2":"Xã Nghi Công Bắc","dist2":"Huyện Nghi Lộc","province2":"Tỉnh Nghệ An"}
{"id":"0x3139cf5ef05eb053:0x4c12a1cb004a54e6","tel":"+84 842 200 301","spa":"Golden Spa","name":"Golden Spa, 189 Đường Hà Huy Tập, Hà Huy Tập, Thành phố Vinh, Nghệ An 43100, Vietnam","name2":"Golden Spa, 189 Đường Hà Huy Tập, Hà Huy Tập, Thành phố Vinh, Nghệ An 43100, Vietnam","lat":18.6940526,"lon":105.6773193,"add":"189 Đường Hà Huy Tập","ward":"Hà Huy Tập","dist":"Thành phố Vinh","province":"Nghệ An 43100, Vietnam","ward2":"Xã Nghi Công Bắc","dist2":"Huyện Nghi Lộc","province2":"Tỉnh Nghệ An"}
{"id":"0x29f68b334f94f41b:0x61fd28f14e649eea","tel":"+84 914 278 095","spa":"Dưỡng Sinh Đông Y trị Liệu Nghi Ân","name":null,"name2":null,"lat":19.2745876,"lon":104.84067809999999}
{"id":"0x3139da3f1201a909:0xdc6f17af950f5713","tel":null,"spa":"Hoa Beauty Spa","name":"Hoa Beauty Spa, Nghi Công Nam, Nghi Lộc, Nghệ An, Vietnam","name2":"Hoa Beauty Spa, Nghi Công Nam, Nghi Lộc, Nghệ An, Vietnam","lat":18.7889133,"lon":105.5672089,"add":"Nghi Công Nam","ward":"Nghi Lộc","dist":"Nghệ An","province":"Vietnam","ward2":"Xã Nghi Công Bắc","dist2":"Huyện Nghi Lộc","province2":"Tỉnh Nghệ An"}
{"id":"0x3139cfda7e51d0e7:0x10236384d15986d4","tel":null,"spa":"Thìa Vàng Center Homespa Chăm Sóc Sức Khoẻ Mẹ và Bé","name":"Thìa Vàng Center Homespa Chăm Sóc Sức Khoẻ Mẹ và Bé, 43B Phan Chu Trinh, Đội Cung, Thành phố Vinh, Nghệ An, Vietnam","name2":"Thìa Vàng Center Homespa Chăm Sóc Sức Khoẻ Mẹ và Bé, 43B Phan Chu Trinh, Đội Cung, Thành phố Vinh, Nghệ An, Vietnam","lat":18.6748996,"lon":105.6668313,"add":"43B Phan Chu Trinh","ward":"Đội Cung","dist":"Thành phố Vinh","province":"Nghệ An, Vietnam","ward2":"Xã Nghi Công Bắc","dist2":"Huyện Nghi Lộc","province2":"Tỉnh Nghệ An"}
{"id":"0x3139d1e42aa8da0f:0x4c453a796027728","tel":"+84 917 719 483","spa":"Spa Kim Chi","name":"Spa Kim Chi, 84 Đ. Nghệ An Xiêng Khoảng, Nghi Phú, Thành phố Vinh, Nghệ An, Vietnam","name2":"Spa Kim Chi, 84 Đ. Nghệ An Xiêng Khoảng, Nghi Phú, Thành phố Vinh, Nghệ An, Vietnam","lat":18.7175196,"lon":105.6708206,"add":"84 Đ. Nghệ An Xiêng Khoảng","ward":"Nghi Phú","dist":"Thành phố Vinh","province":"Nghệ An, Vietnam","ward2":"Xã Nghi Công Bắc","dist2":"Huyện Nghi Lộc","province2":"Tỉnh Nghệ An"}
{"id":"0x3139c3cb1a056e0f:0xcd614cba8a171136","tel":"+84 374 900 189","spa":"Miu Spa AND nail","name":"PF2W+FFH Miu Spa AND nail, Nam Đàn, Nghệ An, Vietnam","name2":"PF2W+FFH Miu Spa AND nail, Nam Đàn, Nghệ An, Vietnam","lat":18.701182799999998,"lon":105.49623439999999,"add":"PF2W+FFH","ward":"Nam Đàn","dist":"Nghệ An","province":"Vietnam","ward2":"Xã Nghi Công Bắc","dist2":"Huyện Nghi Lộc","province2":"Tỉnh Nghệ An"}
{"id":"0x31377dda924bb7ab:0xe3ee5c8afdc0b729","tel":null,"spa":"TRỊNH THANH SPA","name":"WJV6+63 TRỊNH THANH SPA, Dien Chau, Diễn Châu, Nghệ An, Vietnam","name2":"WJV6+63 TRỊNH THANH SPA, Dien Chau, Diễn Châu, Nghệ An, Vietnam","lat":18.9429995,"lon":105.6101499,"add":"WJV6+63","ward":"Dien Chau","dist":"Diễn Châu","province":"Nghệ An, Vietnam","ward2":"Xã Nghi Công Bắc","dist2":"Huyện Nghi Lộc","province2":"Tỉnh Nghệ An"}
{"id":"0x31377d3c4859f54b:0x133f4fe11d5729d","tel":"+84 989 084 687","spa":"Pearl Spa Nghệ An","name":"Pearl Spa Nghệ An, Xóm 5, Diễn Châu, Nghệ An, Vietnam","name2":"Pearl Spa Nghệ An, Xóm 5, Diễn Châu, Nghệ An, Vietnam","lat":18.9773986,"lon":105.60433959999999,"add":"Xóm 5","ward":"Diễn Châu","dist":"Nghệ An","province":"Vietnam","ward2":"Xã Nghi Công Bắc","dist2":"Huyện Nghi Lộc","province2":"Tỉnh Nghệ An"}
{"id":"0x3139cfd15405d01d:0x792e4a151e9b8fe0","tel":"+84 388 292 868","spa":"Gul Spa","name":"Gul Spa, 119 Nguyễn Văn Cừ, Hưng Bình, Thành phố Vinh, Nghệ An 154751, Vietnam","name2":"Gul Spa, 119 Nguyễn Văn Cừ, Hưng Bình, Thành phố Vinh, Nghệ An 154751, Vietnam","lat":18.677019899999998,"lon":105.6862653,"add":"119 Nguyễn Văn Cừ","ward":"Hưng Bình","dist":"Thành phố Vinh","province":"Nghệ An 154751, Vietnam","ward2":"Xã Nghi Công Bắc","dist2":"Huyện Nghi Lộc","province2":"Tỉnh Nghệ An"}
{"id":"0x31377db75fd0064f:0x298e5298d8aff6c5","tel":"+84 869 847 813","spa":"Hương Tics Beauty","name":"Hương Tics Beauty, Công Viên Xanh, Khối 6, Diễn Châu, Nghệ An 43400, Vietnam","name2":"Hương Tics Beauty, Công Viên Xanh, Khối 6, Diễn Châu, Nghệ An 43400, Vietnam","lat":18.9723167,"lon":105.6006484,"add":"Công Viên Xanh","ward":"Khối 6","dist":"Diễn Châu","province":"Nghệ An 43400, Vietnam","ward2":"Xã Nghi Công Bắc","dist2":"Huyện Nghi Lộc","province2":"Tỉnh Nghệ An"}
{"id":"0x3139cd2318dc3fd3:0x70d22505ae74ce6","tel":"+84 964 645 585","spa":"MG Spa Dưỡng Sinh Đông Y","name":"MG Spa Dưỡng Sinh Đông Y, Shophouse Lk08 Trường Thịnh Phát, Trương Văn Lĩnh, Hà Huy Tập, Thành phố Vinh, Nghệ An 460000, Vietnam","name2":"MG Spa Dưỡng Sinh Đông Y, Shophouse Lk08 Trường Thịnh Phát, Trương Văn Lĩnh, Hà Huy Tập, Thành phố Vinh, Nghệ An 460000, Vietnam","lat":18.6935616,"lon":105.6901599,"add":"Shophouse Lk08 Trường Thịnh Phát, Trương Văn Lĩnh","ward":"Hà Huy Tập","dist":"Thành phố Vinh","province":"Nghệ An 460000, Vietnam","ward2":"Xã Nghi Công Bắc","dist2":"Huyện Nghi Lộc","province2":"Tỉnh Nghệ An"}
{"id":"0x3139db23f1928673:0x7263b2ca1affcf7","tel":null,"spa":"HLV Dinh dưỡng cộng đồng","name":"PGQH+8W9 HLV Dinh dưỡng cộng đồng, Nam Đàn, Nghệ An 44608, Vietnam","name2":"PGQH+8W9 HLV Dinh dưỡng cộng đồng, Nam Đàn, Nghệ An 44608, Vietnam","lat":18.7382885,"lon":105.52985249999999,"add":"PGQH+8W9","ward":"Nam Đàn","dist":"Nghệ An 44608","province":"Vietnam","ward2":"Xã Nghi Công Bắc","dist2":"Huyện Nghi Lộc","province2":"Tỉnh Nghệ An"}
{"id":"0x3139cf1744a56193:0x1c1309e7a6325ed6","tel":"+84 382 660 858","spa":"Cs Tẩm Quất Người Mù Đông Nam","name":"Cs Tẩm Quất Người Mù Đông Nam, 190b Đường Hà Huy Tập, Hà Huy Tập, Thành phố Vinh, Nghệ An 43117, Vietnam","name2":"Cs Tẩm Quất Người Mù Đông Nam, 190b Đường Hà Huy Tập, Hà Huy Tập, Thành phố Vinh, Nghệ An 43117, Vietnam","lat":18.6952107,"lon":105.6770992,"add":"190b Đường Hà Huy Tập","ward":"Hà Huy Tập","dist":"Thành phố Vinh","province":"Nghệ An 43117, Vietnam","ward2":"Xã Nghi Công Bắc","dist2":"Huyện Nghi Lộc","province2":"Tỉnh Nghệ An"}
{"id":"0x3139e1f355105713:0xb8405c07c73aa007","tel":"+84 964 047 175","spa":"Thu Hằng spa","name":"Thu Hằng spa, xóm 3, Đô Lương, Nghệ An, Vietnam","name2":"Thu Hằng spa, xóm 3, Đô Lương, Nghệ An, Vietnam","lat":18.8739679,"lon":105.3910942,"add":"xóm 3","ward":"Đô Lương","dist":"Nghệ An","province":"Vietnam","ward2":"Xã Nghi Công Bắc","dist2":"Huyện Nghi Lộc","province2":"Tỉnh Nghệ An"}
{"id":"0x3139cfe61aa43c0b:0xe887809cee2c7a74","tel":"+84 917 320 354","spa":"Trị nám tàn nhang tại nhà Nghệ An - Tổng kho Viên uống trắng da toàn thân 9 ngày đẹp Nine's Beauty","name":"Trị nám tàn nhang tại nhà Nghệ An - Tổng kho Viên uống trắng da toàn thân 9 ngày đẹp Nine's Beauty, Huyền Vy, Xóm 9, Nghi Lộc, Nghệ An 463425, Vietnam","name2":"Trị nám tàn nhang tại nhà Nghệ An - Tổng kho Viên uống trắng da toàn thân 9 ngày đẹp Nine's Beauty, Huyền Vy, Xóm 9, Nghi Lộc, Nghệ An 463425, Vietnam","lat":18.7486305,"lon":105.707695,"add":"Huyền Vy","ward":"Xóm 9","dist":"Nghi Lộc","province":"Nghệ An 463425, Vietnam","ward2":"Xã Nghi Công Bắc","dist2":"Huyện Nghi Lộc","province2":"Tỉnh Nghệ An"}
{"id":"0x3139cfb51cf2252f:0x6447b7784591008f","tel":"+84 976 308 987","spa":"Mina Beauty & Spa","name":"Mina Beauty & Spa, 44 Văn Đức Giai, Hưng Bình, Thành phố Vinh, Nghệ An, Vietnam","name2":"Mina Beauty & Spa, 44 Văn Đức Giai, Hưng Bình, Thành phố Vinh, Nghệ An, Vietnam","lat":18.6735856,"lon":105.6865615,"add":"44 Văn Đức Giai","ward":"Hưng Bình","dist":"Thành phố Vinh","province":"Nghệ An, Vietnam","ward2":"Xã Nghi Công Bắc","dist2":"Huyện Nghi Lộc","province2":"Tỉnh Nghệ An"}
{"id":"0x3137636784f7b5c1:0x4922810c0350d8b4","tel":"+84 377 643 088","spa":"Spa Hoa Anh","name":"Spa Hoa Anh, X 8, Diễn Cát, Diễn Châu, Nghệ An, Vietnam","name2":"Spa Hoa Anh, X 8, Diễn Cát, Diễn Châu, Nghệ An, Vietnam","lat":18.9640211,"lon":105.5587247,"add":"X 8","ward":"Diễn Cát","dist":"Diễn Châu","province":"Nghệ An, Vietnam","ward2":"Xã Nghi Công Bắc","dist2":"Huyện Nghi Lộc","province2":"Tỉnh Nghệ An"}
{"id":"0x3139df10e013b391:0x3362992cf52a69dd","tel":"+84 988 069 238","spa":"An nhiên nhung","name":"WF4M+M98 An nhiên nhung, Tiên Công, Yên Thành, Nghệ An, Vietnam","name2":"WF4M+M98 An nhiên nhung, Tiên Công, Yên Thành, Nghệ An, Vietnam","lat":18.9069808,"lon":105.48348469999999,"add":"WF4M+M98","ward":"Tiên Công","dist":"Yên Thành","province":"Nghệ An, Vietnam","ward2":"Xã Nghi Công Bắc","dist2":"Huyện Nghi Lộc","province2":"Tỉnh Nghệ An"}
{"id":"0x31377d6dc0df40e1:0xe6f99d17c0c02c65","tel":"+84 342 176 179","spa":"Spa Uy Tín Diễn Thịnh Diễn Châu - Linh Tú Beauty","name":"Spa Uy Tín Diễn Thịnh Diễn Châu - Linh Tú Beauty, Gần cây xăng Hồng Phúc, Xóm 6, Diễn Châu, Nghệ An 43415, Vietnam","name2":"Spa Uy Tín Diễn Thịnh Diễn Châu - Linh Tú Beauty, Gần cây xăng Hồng Phúc, Xóm 6, Diễn Châu, Nghệ An 43415, Vietnam","lat":18.9505804,"lon":105.6032487,"add":"Gần cây xăng Hồng Phúc","ward":"Xóm 6","dist":"Diễn Châu","province":"Nghệ An 43415, Vietnam","ward2":"Xã Nghi Công Bắc","dist2":"Huyện Nghi Lộc","province2":"Tỉnh Nghệ An"}
{"id":"0x31377da9f298c6a3:0x9ed6973df7b0f20d","tel":null,"spa":"DOLAxinh Spa","name":"XHGX+G63 DOLAxinh Spa, QL7, Dien Chau, Diễn Châu, Nghệ An, Vietnam","name2":"XHGX+G63 DOLAxinh Spa, QL7, Dien Chau, Diễn Châu, Nghệ An, Vietnam","lat":18.976115099999998,"lon":105.59811459999999,"add":"XHGX+G63, QL7","ward":"Dien Chau","dist":"Diễn Châu","province":"Nghệ An, Vietnam","ward2":"Xã Nghi Công Bắc","dist2":"Huyện Nghi Lộc","province2":"Tỉnh Nghệ An"}
{"id":"0x31377d22ea183837:0xad900b28f4b6226c","tel":null,"spa":"Spa Tú Oanh","name":"WJR3+RMF Spa Tú Oanh, QL1A, Diễn Thịnh, Diễn Châu, Nghệ An, Vietnam","name2":"WJR3+RMF Spa Tú Oanh, QL1A, Diễn Thịnh, Diễn Châu, Nghệ An, Vietnam","lat":18.942058,"lon":105.60415739999999,"add":"WJR3+RMF, QL1A","ward":"Diễn Thịnh","dist":"Diễn Châu","province":"Nghệ An, Vietnam","ward2":"Xã Nghi Công Bắc","dist2":"Huyện Nghi Lộc","province2":"Tỉnh Nghệ An"}
{"id":"0x3139cf2c6d0f13ad:0x9ec002ce98f2b2ab","tel":"+84 982 555 583","spa":"BaLi Spa","name":"BaLi Spa, Đường Nguyễn Quốc Trị, Hưng Bình, Thành phố Vinh, Nghệ An, Vietnam","name2":"BaLi Spa, Đường Nguyễn Quốc Trị, Hưng Bình, Thành phố Vinh, Nghệ An, Vietnam","lat":18.682367199999998,"lon":105.6823953,"add":"Đường Nguyễn Quốc Trị","ward":"Hưng Bình","dist":"Thành phố Vinh","province":"Nghệ An, Vietnam","ward2":"Xã Nghi Công Bắc","dist2":"Huyện Nghi Lộc","province2":"Tỉnh Nghệ An"}
{"id":"0x3139d5b75ec04317:0xbd2a4202540a6957","tel":"+84 899 622 818","spa":"Lâm Anh Spa SKINCARE RELAX&BEAUTY","name":"Lâm Anh Spa SKINCARE RELAX&BEAUTY, 57 Đường Hoàng Đan, Nghi Thu, Cửa Lò, Nghệ An, Vietnam","name2":"Lâm Anh Spa SKINCARE RELAX&BEAUTY, 57 Đường Hoàng Đan, Nghi Thu, Cửa Lò, Nghệ An, Vietnam","lat":18.806173299999998,"lon":105.7152811,"add":"57 Đường Hoàng Đan","ward":"Nghi Thu","dist":"Cửa Lò","province":"Nghệ An, Vietnam","ward2":"Xã Nghi Công Bắc","dist2":"Huyện Nghi Lộc","province2":"Tỉnh Nghệ An"}
{"id":"0x3139d126f0ec8ce7:0x73e4fa2e78a7d563","tel":"+84 967 920 373","spa":"Hanaka spa","name":"Hanaka spa, Trương Văn Lĩnh, Nghi Phú, Thành phố Vinh, Nghệ An, Vietnam","name2":"Hanaka spa, Trương Văn Lĩnh, Nghi Phú, Thành phố Vinh, Nghệ An, Vietnam","lat":18.709991799999997,"lon":105.6824544,"add":"Trương Văn Lĩnh","ward":"Nghi Phú","dist":"Thành phố Vinh","province":"Nghệ An, Vietnam","ward2":"Xã Nghi Công Bắc","dist2":"Huyện Nghi Lộc","province2":"Tỉnh Nghệ An"}
{"id":"0x3139c34feffff0f1:0x6c883ab196767d7d","tel":"+84 978 776 093","spa":"Quỳnh Nga Spa","name":"Quỳnh Nga Spa, QL46A, Nam Thượng, Tp. Vinh, Nghệ An, Vietnam","name2":"Quỳnh Nga Spa, QL46A, Nam Thượng, Tp. Vinh, Nghệ An, Vietnam","lat":18.7093836,"lon":105.4612588,"add":"QL46A","ward":"Nam Thượng","dist":"Tp. Vinh","province":"Nghệ An, Vietnam","ward2":"Xã Nghi Công Bắc","dist2":"Huyện Nghi Lộc","province2":"Tỉnh Nghệ An"}
{"id":"0x3139cde2b2606f63:0xee513b1630dfbe19","tel":"+84 346 883 878","spa":"Thảo Nhi Spa","name":"Thảo Nhi Spa, 26 Trương Văn Lĩnh, Hà Huy Tập, Thành phố Vinh, Nghệ An, Vietnam","name2":"Thảo Nhi Spa, 26 Trương Văn Lĩnh, Hà Huy Tập, Thành phố Vinh, Nghệ An, Vietnam","lat":18.6957328,"lon":105.6890415,"add":"26 Trương Văn Lĩnh","ward":"Hà Huy Tập","dist":"Thành phố Vinh","province":"Nghệ An, Vietnam","ward2":"Xã Nghi Công Bắc","dist2":"Huyện Nghi Lộc","province2":"Tỉnh Nghệ An"}
{"id":"0x3139cfd1e4e18a0d:0x6fb522d665a2d83","tel":"+84 967 887 799","spa":"An spa chăm sóc cao cấp mẹ bé sau sinh","name":"An spa chăm sóc cao cấp mẹ bé sau sinh, 25 Đường Nguyễn Quốc Trị, Hưng Bình, Thành phố Vinh, Nghệ An 450000, Vietnam","name2":"An spa chăm sóc cao cấp mẹ bé sau sinh, 25 Đường Nguyễn Quốc Trị, Hưng Bình, Thành phố Vinh, Nghệ An 450000, Vietnam","lat":18.682480599999998,"lon":105.68248729999999,"add":"25 Đường Nguyễn Quốc Trị","ward":"Hưng Bình","dist":"Thành phố Vinh","province":"Nghệ An 450000, Vietnam","ward2":"Xã Nghi Công Bắc","dist2":"Huyện Nghi Lộc","province2":"Tỉnh Nghệ An"}
{"id":"0x3139ce07a2c8775f:0x7c580baae055a507","tel":null,"spa":"Green Spa Xông Hơi Đá Muối Himalaya","name":"Green Spa Xông Hơi Đá Muối Himalaya, Nghi Phú, Tp. Vinh, Nghệ An, Vietnam","name2":"Green Spa Xông Hơi Đá Muối Himalaya, Nghi Phú, Tp. Vinh, Nghệ An, Vietnam","lat":18.6983115,"lon":105.686612,"add":"Nghi Phú","ward":"Tp. Vinh","dist":"Nghệ An","province":"Vietnam","ward2":"Xã Nghi Công Bắc","dist2":"Huyện Nghi Lộc","province2":"Tỉnh Nghệ An"}
{"id":"0x3139c539c71425b9:0xf00700fc94da9ffc","tel":null,"spa":"Mai hương beauty & nail","name":"Mai hương beauty & nail, Xóm 3 ( chợ chùa, Nam Anh, Nam Đàn, Nghệ An, Vietnam","name2":"Mai hương beauty & nail, Xóm 3 ( chợ chùa, Nam Anh, Nam Đàn, Nghệ An, Vietnam","lat":18.7081733,"lon":105.53024549999999,"add":"Xóm 3 ( chợ chùa","ward":"Nam Anh","dist":"Nam Đàn","province":"Nghệ An, Vietnam","ward2":"Xã Nghi Công Bắc","dist2":"Huyện Nghi Lộc","province2":"Tỉnh Nghệ An"}
{"id":"0x3139cfc01514e6d7:0xb3dfb81da139d78a","tel":"+84 866 968 526","spa":"HOANG TRA MY NAILS","name":"HOANG TRA MY NAILS, 15 Đinh Văn Chất, Quán Bàu, Thành phố Vinh, Nghệ An 02383, Vietnam","name2":"HOANG TRA MY NAILS, 15 Đinh Văn Chất, Quán Bàu, Thành phố Vinh, Nghệ An 02383, Vietnam","lat":18.7019845,"lon":105.66107099999999,"add":"15 Đinh Văn Chất","ward":"Quán Bàu","dist":"Thành phố Vinh","province":"Nghệ An 02383, Vietnam","ward2":"Xã Nghi Công Bắc","dist2":"Huyện Nghi Lộc","province2":"Tỉnh Nghệ An"}
{"id":"0x3139cf292c6e60af:0x36474db0eaff6fd1","tel":"+84 972 055 820","spa":"HER Skincare & Spa","name":"HER Skincare & Spa, 178 Đặng Thái Thân, Quang Trung, Thành phố Vinh, Nghệ An 43000, Vietnam","name2":"HER Skincare & Spa, 178 Đặng Thái Thân, Quang Trung, Thành phố Vinh, Nghệ An 43000, Vietnam","lat":18.6666863,"lon":105.67325299999999,"add":"178 Đặng Thái Thân","ward":"Quang Trung","dist":"Thành phố Vinh","province":"Nghệ An 43000, Vietnam","ward2":"Xã Nghi Công Bắc","dist2":"Huyện Nghi Lộc","province2":"Tỉnh Nghệ An"}
{"id":"0x3139cfbf41884fe1:0x2e752369184056de","tel":null,"spa":"Delavu Beauty Center - Nghệ An","name":"Delavu Beauty Center - Nghệ An, 6 Mai Hắc Đế, Hà Huy Tập, Thành phố Vinh, Nghệ An, Vietnam","name2":"Delavu Beauty Center - Nghệ An, 6 Mai Hắc Đế, Hà Huy Tập, Thành phố Vinh, Nghệ An, Vietnam","lat":18.6883123,"lon":105.67495939999999,"add":"6 Mai Hắc Đế","ward":"Hà Huy Tập","dist":"Thành phố Vinh","province":"Nghệ An, Vietnam","ward2":"Xã Nghi Công Bắc","dist2":"Huyện Nghi Lộc","province2":"Tỉnh Nghệ An"}
{"id":"0x3139c37229c97409:0xa5ac00e319e0b351","tel":"+84 852 247 007","spa":"Delavu Spa 007 Nam Đàn","name":"Delavu Spa 007 Nam Đàn, 44 - Khối, Mai Hắc Đế, Nam Đàn, Nghệ An 460000, Vietnam","name2":"Delavu Spa 007 Nam Đàn, 44 - Khối, Mai Hắc Đế, Nam Đàn, Nghệ An 460000, Vietnam","lat":18.7043549,"lon":105.4930376,"add":"44 - Khối","ward":"Mai Hắc Đế","dist":"Nam Đàn","province":"Nghệ An 460000, Vietnam","ward2":"Xã Nghi Công Bắc","dist2":"Huyện Nghi Lộc","province2":"Tỉnh Nghệ An"}
{"id":"0x3139d33109da0ce1:0xf1167a5cfb422075","tel":"+84 344 733 697","spa":"Anh Beauty","name":"Anh Beauty, Đường Nguyễn Huy Nhu, Nghi Hương, Cửa Lò, Nghệ An, Vietnam","name2":"Anh Beauty, Đường Nguyễn Huy Nhu, Nghi Hương, Cửa Lò, Nghệ An, Vietnam","lat":18.7942251,"lon":105.7252402,"add":"Đường Nguyễn Huy Nhu","ward":"Nghi Hương","dist":"Cửa Lò","province":"Nghệ An, Vietnam","ward2":"Xã Nghi Công Bắc","dist2":"Huyện Nghi Lộc","province2":"Tỉnh Nghệ An"}
{"id":"0x3139cf912d0a0e51:0xba1365651faf6031","tel":"+84 979 936 303","spa":"Bách Diệp Spa & Beauty Clinic","name":"Bách Diệp Spa & Beauty Clinic, 28 Nguyễn Sỹ Sách, Hưng Bình, Thành phố Vinh, Nghệ An 46000, Vietnam","name2":"Bách Diệp Spa & Beauty Clinic, 28 Nguyễn Sỹ Sách, Hưng Bình, Thành phố Vinh, Nghệ An 46000, Vietnam","lat":18.6863809,"lon":105.6779954,"add":"28 Nguyễn Sỹ Sách","ward":"Hưng Bình","dist":"Thành phố Vinh","province":"Nghệ An 46000, Vietnam","ward2":"Xã Nghi Công Bắc","dist2":"Huyện Nghi Lộc","province2":"Tỉnh Nghệ An"}
{"id":"0x3139d504c83a7de3:0x564dd8ef003e2f59","tel":"+84 945 363 386","spa":"Trường Lạc Spa","name":"Trường Lạc Spa, Số 5 Đ. Hoàng Nguyên Cát, Nghi Hương, Cửa Lò, Nghệ An, Vietnam","name2":"Trường Lạc Spa, Số 5 Đ. Hoàng Nguyên Cát, Nghi Hương, Cửa Lò, Nghệ An, Vietnam","lat":18.8170444,"lon":105.71285759999999,"add":"Số 5 Đ. Hoàng Nguyên Cát","ward":"Nghi Hương","dist":"Cửa Lò","province":"Nghệ An, Vietnam","ward2":"Xã Nghi Công Bắc","dist2":"Huyện Nghi Lộc","province2":"Tỉnh Nghệ An"}
{"id":"0x4c96202704dea8b3:0xeded386970253d38","tel":"+84 332 749 800","spa":"Tẩm quất Hội người mù tỉnh Nghệ An","name":null,"name2":null,"lat":18.6703564,"lon":105.69444179999999}
{"id":"0x3139c31a503e2887:0xa28c697860b3e3e","tel":"+84 978 527 887","spa":"Anthu spa","name":"Anthu spa, Giang lam, Thanh Chương, Nghệ An, Vietnam","name2":"Anthu spa, Giang lam, Thanh Chương, Nghệ An, Vietnam","lat":18.6733925,"lon":105.42035879999999,"add":"Giang lam","ward":"Thanh Chương","dist":"Nghệ An","province":"Vietnam","ward2":"Xã Nghi Công Bắc","dist2":"Huyện Nghi Lộc","province2":"Tỉnh Nghệ An"}
{"id":"0x3139cfc6090e996d:0x5ba21a9f1497d044","tel":"+84 238 7777 777","spa":"Spa Anh Nga","name":"Spa Anh Nga, Ngõ 54 Lý Thường Kiệt, Lê Lợi, Thành phố Vinh, Nghệ An, Vietnam","name2":"Spa Anh Nga, Ngõ 54 Lý Thường Kiệt, Lê Lợi, Thành phố Vinh, Nghệ An, Vietnam","lat":18.6783719,"lon":105.6690113,"add":"Ngõ 54 Lý Thường Kiệt","ward":"Lê Lợi","dist":"Thành phố Vinh","province":"Nghệ An, Vietnam","ward2":"Xã Nghi Công Bắc","dist2":"Huyện Nghi Lộc","province2":"Tỉnh Nghệ An"}
{"id":"0x3139c4e423be85f7:0xc77347fb61770913","tel":null,"spa":"Spa Hải Yến","name":"MGRQ+7WW Spa Hải Yến, QL46A, Hùng Tiến, Nam Đàn, Nghệ An, Vietnam","name2":"MGRQ+7WW Spa Hải Yến, QL46A, Hùng Tiến, Nam Đàn, Nghệ An, Vietnam","lat":18.6907295,"lon":105.53981549999999,"add":"MGRQ+7WW, QL46A","ward":"Hùng Tiến","dist":"Nam Đàn","province":"Nghệ An, Vietnam","ward2":"Xã Nghi Công Bắc","dist2":"Huyện Nghi Lộc","province2":"Tỉnh Nghệ An"}
{"id":"0x3139cfac79438521:0xdc1fe599aff3080","tel":null,"spa":"phòng khám da liễu thẩm mỹ","name":"phòng khám da liễu thẩm mỹ, 04 Phan Bội Châu, Lê Lợi, Thành phố Vinh, Nghệ An, Vietnam","name2":"phòng khám da liễu thẩm mỹ, 04 Phan Bội Châu, Lê Lợi, Thành phố Vinh, Nghệ An, Vietnam","lat":18.687255699999998,"lon":105.66649419999999,"add":"04 Phan Bội Châu","ward":"Lê Lợi","dist":"Thành phố Vinh","province":"Nghệ An, Vietnam","ward2":"Xã Nghi Công Bắc","dist2":"Huyện Nghi Lộc","province2":"Tỉnh Nghệ An"}
{"id":"0x3139cfb695097621:0xae3a3af572c48d3a","tel":"+84 968 217 918","spa":"SPA Thanh Huyền","name":"SPA Thanh Huyền, Ngô Đức Mai, Phúc Hòa, Hưng Nguyên, Nghệ An 43000, Vietnam","name2":"SPA Thanh Huyền, Ngô Đức Mai, Phúc Hòa, Hưng Nguyên, Nghệ An 43000, Vietnam","lat":18.6951792,"lon":105.6384853,"add":"Ngô Đức Mai","ward":"Phúc Hòa","dist":"Hưng Nguyên","province":"Nghệ An 43000, Vietnam","ward2":"Xã Nghi Công Bắc","dist2":"Huyện Nghi Lộc","province2":"Tỉnh Nghệ An"}
{"id":"0x3139db8d439e48fb:0x42f23c1790c4c835","tel":"+84 989 459 497","spa":"Sức khỏe & sắc đẹp","name":"Sức khỏe & sắc đẹp, Thành phố Vinh, Nam Đàn, Nghệ An 44608, Vietnam","name2":"Sức khỏe & sắc đẹp, Thành phố Vinh, Nam Đàn, Nghệ An 44608, Vietnam","lat":18.7514111,"lon":105.5185872,"add":"Thành phố Vinh","ward":"Nam Đàn","dist":"Nghệ An 44608","province":"Vietnam","ward2":"Xã Nghi Công Bắc","dist2":"Huyện Nghi Lộc","province2":"Tỉnh Nghệ An"}
{"id":"0x3139cf4011d547cb:0x9d9b418b28eceded","tel":"+84 975 840 126","spa":"Spa Thương Ngô","name":"Spa Thương Ngô, Ngô Đức Mai, Hưng Tây, Hưng Nguyên, Nghệ An, Vietnam","name2":"Spa Thương Ngô, Ngô Đức Mai, Hưng Tây, Hưng Nguyên, Nghệ An, Vietnam","lat":18.7041403,"lon":105.6349913,"add":"Ngô Đức Mai","ward":"Hưng Tây","dist":"Hưng Nguyên","province":"Nghệ An, Vietnam","ward2":"Xã Nghi Công Bắc","dist2":"Huyện Nghi Lộc","province2":"Tỉnh Nghệ An"}
{"id":"0x3139cf90ff5eef61:0xdb9056598152a240","tel":null,"spa":"Feliz Baby Spa-Bơi thủy liệu, massage","name":"Feliz Baby Spa-Bơi thủy liệu, massage, 674 V.I. Lê Nin, Nghi Phan, Thành phố Vinh, Nghệ An, Vietnam","name2":"Feliz Baby Spa-Bơi thủy liệu, massage, 674 V.I. Lê Nin, Nghi Phan, Thành phố Vinh, Nghệ An, Vietnam","lat":18.7004783,"lon":105.6843346,"add":"674 V.I. Lê Nin","ward":"Nghi Phan","dist":"Thành phố Vinh","province":"Nghệ An, Vietnam","ward2":"Xã Nghi Công Bắc","dist2":"Huyện Nghi Lộc","province2":"Tỉnh Nghệ An"}
{"id":"0x3139d374196fb45f:0xeeaf62531892f18f","tel":null,"spa":"Huyền My Beauty & Spa","name":"Huyền My Beauty & Spa, Đường Phạm Nguyễn Du, Hải Thanh, Thành phố Vinh, Nghệ An, Vietnam","name2":"Huyền My Beauty & Spa, Đường Phạm Nguyễn Du, Hải Thanh, Thành phố Vinh, Nghệ An, Vietnam","lat":18.7597301,"lon":105.74074859999999,"add":"Đường Phạm Nguyễn Du","ward":"Hải Thanh","dist":"Thành phố Vinh","province":"Nghệ An, Vietnam","ward2":"Xã Nghi Công Bắc","dist2":"Huyện Nghi Lộc","province2":"Tỉnh Nghệ An"}
{"id":"0x3139c52484911fc5:0xb55a0f59bfe74f9d","tel":"+84 965 888 615","spa":"Thắm Xuân","name":"Thắm Xuân, Xóm Liên Sơn, Nam Đàn, Nghệ An, Vietnam","name2":"Thắm Xuân, Xóm Liên Sơn, Nam Đàn, Nghệ An, Vietnam","lat":18.663591999999998,"lon":105.56135909999999,"add":"Xóm Liên Sơn","ward":"Nam Đàn","dist":"Nghệ An","province":"Vietnam","ward2":"Xã Nghi Công Bắc","dist2":"Huyện Nghi Lộc","province2":"Tỉnh Nghệ An"}
{"id":"0x3139db4e93fd9865:0xb132edb88227dfd7","tel":"+81 70-2013-9066","spa":"Nhà Dịu Mai","name":"Nhà Dịu Mai, Xóm 3, Hưng Nguyên, Nghệ An 44509, Vietnam","name2":"Nhà Dịu Mai, Xóm 3, Hưng Nguyên, Nghệ An 44509, Vietnam","lat":18.7593255,"lon":105.5867111,"add":"Xóm 3","ward":"Hưng Nguyên","dist":"Nghệ An 44509","province":"Vietnam","ward2":"Xã Nghi Công Bắc","dist2":"Huyện Nghi Lộc","province2":"Tỉnh Nghệ An"}
{"id":"0x3139c49f0dc4e28d:0x3f2458ab6a8f2a9a","tel":"+84 976 468 788","spa":"Spa Thảo Vy","name":"Spa Thảo Vy, 150 QL46A, Nam Đàn, Nghệ An, Vietnam","name2":"Spa Thảo Vy, 150 QL46A, Nam Đàn, Nghệ An, Vietnam","lat":18.698332399999998,"lon":105.5040806,"add":"150 QL46A","ward":"Nam Đàn","dist":"Nghệ An","province":"Vietnam","ward2":"Xã Nghi Công Bắc","dist2":"Huyện Nghi Lộc","province2":"Tỉnh Nghệ An"}
{"id":"0x3139cf405553973b:0xd886e90bfd0ecd01","tel":"+84 379 069 891","spa":"ThBrows-Thuý Huti Academy (Chuyên gia về phun xăm thẩm mỹ)","name":"ThBrows-Thuý Huti Academy (Chuyên gia về phun xăm thẩm mỹ), 161 Đặng Thái Thân, Cửa Nam, Thành phố Vinh, Nghệ An 460000, Vietnam","name2":"ThBrows-Thuý Huti Academy (Chuyên gia về phun xăm thẩm mỹ), 161 Đặng Thái Thân, Cửa Nam, Thành phố Vinh, Nghệ An 460000, Vietnam","lat":18.6670029,"lon":105.6710892,"add":"161 Đặng Thái Thân","ward":"Cửa Nam","dist":"Thành phố Vinh","province":"Nghệ An 460000, Vietnam","ward2":"Xã Nghi Công Bắc","dist2":"Huyện Nghi Lộc","province2":"Tỉnh Nghệ An"}
{"id":"0x3139df5112fba93f:0xdb221dd2e446f7dc","tel":"+84 978 270 459","spa":"Đông y trị liệu Nguyễn Xuân Mãi","name":"VC77+JGQ Đông y trị liệu Nguyễn Xuân Mãi, xóm 7, Đô Lương, Nghệ An, Vietnam","name2":"VC77+JGQ Đông y trị liệu Nguyễn Xuân Mãi, xóm 7, Đô Lương, Nghệ An, Vietnam","lat":18.864083,"lon":105.41387399999999,"add":"VC77+JGQ","ward":"xóm 7","dist":"Đô Lương","province":"Nghệ An, Vietnam","ward2":"Xã Nghi Công Bắc","dist2":"Huyện Nghi Lộc","province2":"Tỉnh Nghệ An"}
{"id":"0x3139cf476679214b:0x7228e6d37f568aec","tel":"+84 987 682 186","spa":"Thương Nails","name":"Thương Nails, Số 48 Hồng Bàng, Lê Mao, Thành phố Vinh, Nghệ An 43106, Vietnam","name2":"Thương Nails, Số 48 Hồng Bàng, Lê Mao, Thành phố Vinh, Nghệ An 43106, Vietnam","lat":18.669578899999998,"lon":105.67645759999999,"add":"Số 48 Hồng Bàng","ward":"Lê Mao","dist":"Thành phố Vinh","province":"Nghệ An 43106, Vietnam","ward2":"Xã Nghi Công Bắc","dist2":"Huyện Nghi Lộc","province2":"Tỉnh Nghệ An"}
{"id":"0x3139cd2514b50159:0x68d6aa74da189f32","tel":"+84 963 283 777","spa":"Thẩm Mỹ Công Nghệ Cao Anna Beuaty - Spa Uy Tín Tại Vinh Nghệ An","name":"Thẩm Mỹ Công Nghệ Cao Anna Beuaty - Spa Uy Tín Tại Vinh Nghệ An, 118 Đường Tuệ Tĩnh, Hà Huy Tập, Thành phố Vinh, Nghệ An 43117, Vietnam","name2":"Thẩm Mỹ Công Nghệ Cao Anna Beuaty - Spa Uy Tín Tại Vinh Nghệ An, 118 Đường Tuệ Tĩnh, Hà Huy Tập, Thành phố Vinh, Nghệ An 43117, Vietnam","lat":18.689395899999997,"lon":105.6939881,"add":"118 Đường Tuệ Tĩnh","ward":"Hà Huy Tập","dist":"Thành phố Vinh","province":"Nghệ An 43117, Vietnam","ward2":"Xã Nghi Công Bắc","dist2":"Huyện Nghi Lộc","province2":"Tỉnh Nghệ An"}
{"id":"0x3139cf8d05ba0bd1:0x5a71c9c93c54300c","tel":"+84 945 359 356","spa":"Ngọc Uyên Spa","name":"Ngọc Uyên Spa, 65 Hồ Học Lãm, Hưng Đông, Thành phố Vinh, Nghệ An, Vietnam","name2":"Ngọc Uyên Spa, 65 Hồ Học Lãm, Hưng Đông, Thành phố Vinh, Nghệ An, Vietnam","lat":18.70606,"lon":105.6605264,"add":"65 Hồ Học Lãm","ward":"Hưng Đông","dist":"Thành phố Vinh","province":"Nghệ An, Vietnam","ward2":"Xã Nghi Công Bắc","dist2":"Huyện Nghi Lộc","province2":"Tỉnh Nghệ An"}
{"id":"0x3139cfe898928a2b:0xf0982c213efde986","tel":"+84 931 623 737","spa":"Myuki Spa","name":"Myuki Spa, 186 Đặng Thái Thân, P, Thành phố Vinh, Nghệ An, Vietnam","name2":"Myuki Spa, 186 Đặng Thái Thân, P, Thành phố Vinh, Nghệ An, Vietnam","lat":18.6666773,"lon":105.6733982,"add":"186 Đặng Thái Thân","ward":"P","dist":"Thành phố Vinh","province":"Nghệ An, Vietnam","ward2":"Xã Nghi Công Bắc","dist2":"Huyện Nghi Lộc","province2":"Tỉnh Nghệ An"}
{"id":"0x3139d109078d0717:0x2e59c13bd6c95d7","tel":"+84 984 844 721","spa":"Cơ Sở Tấm Quất Xuân Bắc","name":"Cơ Sở Tấm Quất Xuân Bắc, Đường sân bay Vinh, Nghi Liên, Thành phố Vinh, Nghệ An 43125, Vietnam","name2":"Cơ Sở Tấm Quất Xuân Bắc, Đường sân bay Vinh, Nghi Liên, Thành phố Vinh, Nghệ An 43125, Vietnam","lat":18.7261132,"lon":105.668145,"add":"Đường sân bay Vinh","ward":"Nghi Liên","dist":"Thành phố Vinh","province":"Nghệ An 43125, Vietnam","ward2":"Xã Nghi Công Bắc","dist2":"Huyện Nghi Lộc","province2":"Tỉnh Nghệ An"}
{"id":"0x31377dbf2931a8bb:0xd493ea65a82304ea","tel":"+84 877 348 777","spa":"Khoai","name":"Khoai, Dien Chau, Thị trấn, Nghệ An, Vietnam","name2":"Khoai, Dien Chau, Thị trấn, Nghệ An, Vietnam","lat":18.9765577,"lon":105.598379,"add":"Dien Chau","ward":"Thị trấn","dist":"Nghệ An","province":"Vietnam","ward2":"Xã Nghi Công Bắc","dist2":"Huyện Nghi Lộc","province2":"Tỉnh Nghệ An"}
{"id":"0x3139cf3c6e845e5d:0x39263b589ec81c3c","tel":"+84 916 619 393","spa":"Spa Dưỡng Sinh Thanh Bình","name":"Spa Dưỡng Sinh Thanh Bình, 5 Nguyễn Chích, Quang Trung, Thành phố Vinh, Nghệ An, Vietnam","name2":"Spa Dưỡng Sinh Thanh Bình, 5 Nguyễn Chích, Quang Trung, Thành phố Vinh, Nghệ An, Vietnam","lat":18.6727108,"lon":105.6723579,"add":"5 Nguyễn Chích","ward":"Quang Trung","dist":"Thành phố Vinh","province":"Nghệ An, Vietnam","ward2":"Xã Nghi Công Bắc","dist2":"Huyện Nghi Lộc","province2":"Tỉnh Nghệ An"}
{"id":"0x3139cf51956ac9b3:0x28378e20b1fadfca","tel":"+84 977 353 992","spa":"Lam Trà & Hương Trà Beauty Spa","name":"Lam Trà & Hương Trà Beauty Spa, Ngõ 51 Nguyễn Thái Học, Lê Lợi, Thành phố Vinh, Nghệ An 450000, Vietnam","name2":"Lam Trà & Hương Trà Beauty Spa, Ngõ 51 Nguyễn Thái Học, Lê Lợi, Thành phố Vinh, Nghệ An 450000, Vietnam","lat":18.6772988,"lon":105.6694309,"add":"Ngõ 51 Nguyễn Thái Học","ward":"Lê Lợi","dist":"Thành phố Vinh","province":"Nghệ An 450000, Vietnam","ward2":"Xã Nghi Công Bắc","dist2":"Huyện Nghi Lộc","province2":"Tỉnh Nghệ An"}
{"id":"0x3139cf255d53433b:0xf4a7845e62a4cd2d","tel":"+84 947 189 505","spa":"Nâng Mũi Filler - Thẩm Mỹ Viện Chuột Đào Uy Tín Tại Nghệ An","name":"Nâng Mũi Filler - Thẩm Mỹ Viện Chuột Đào Uy Tín Tại Nghệ An, 134 Đ. Lý Tự Trọng, Hà Huy Tập, Thành phố Vinh, Nghệ An 43117, Vietnam","name2":"Nâng Mũi Filler - Thẩm Mỹ Viện Chuột Đào Uy Tín Tại Nghệ An, 134 Đ. Lý Tự Trọng, Hà Huy Tập, Thành phố Vinh, Nghệ An 43117, Vietnam","lat":18.6941401,"lon":105.6857825,"add":"134 Đ. Lý Tự Trọng","ward":"Hà Huy Tập","dist":"Thành phố Vinh","province":"Nghệ An 43117, Vietnam","ward2":"Xã Nghi Công Bắc","dist2":"Huyện Nghi Lộc","province2":"Tỉnh Nghệ An"}
{"id":"0x3139cf6d12167535:0xbdca0c37f91e4345","tel":"+84 941 487 622","spa":"Ann Spa & Clinic cs Vinh","name":"Ann Spa & Clinic cs Vinh, 126 Phan Chu Trinh, Đội Cung, Thành phố Vinh, Nghệ An 450000, Vietnam","name2":"Ann Spa & Clinic cs Vinh, 126 Phan Chu Trinh, Đội Cung, Thành phố Vinh, Nghệ An 450000, Vietnam","lat":18.6746007,"lon":105.6699878,"add":"126 Phan Chu Trinh","ward":"Đội Cung","dist":"Thành phố Vinh","province":"Nghệ An 450000, Vietnam","ward2":"Xã Nghi Công Bắc","dist2":"Huyện Nghi Lộc","province2":"Tỉnh Nghệ An"}
{"id":"0x3139cfc185ff54c7:0x19c3ef28803db67a","tel":"+84 967 630 593","spa":"Spa Thiên Nga","name":"PJ4M+FM6 Spa Thiên Nga, Hưng Tây, Hưng Nguyên, Nghệ An, Vietnam","name2":"PJ4M+FM6 Spa Thiên Nga, Hưng Tây, Hưng Nguyên, Nghệ An, Vietnam","lat":18.7062398,"lon":105.6341307,"add":"PJ4M+FM6","ward":"Hưng Tây","dist":"Hưng Nguyên","province":"Nghệ An, Vietnam","ward2":"Xã Nghi Công Bắc","dist2":"Huyện Nghi Lộc","province2":"Tỉnh Nghệ An"}
{"id":"0x3139db9542ff1c2f:0xb3dc0762565af92a","tel":null,"spa":"Spa nhu quynh","name":"QH7M+X92 Spa nhu quynh, Hưng Yên Bắc, Hưng Nguyên, Nghệ An, Vietnam","name2":"QH7M+X92 Spa nhu quynh, Hưng Yên Bắc, Hưng Nguyên, Nghệ An, Vietnam","lat":18.7649915,"lon":105.58348249999999,"add":"QH7M+X92","ward":"Hưng Yên Bắc","dist":"Hưng Nguyên","province":"Nghệ An, Vietnam","ward2":"Xã Nghi Công Bắc","dist2":"Huyện Nghi Lộc","province2":"Tỉnh Nghệ An"}
{"id":"0x3139ce0fabb595a7:0x9d9f7ff5a591f0c5","tel":null,"spa":"Hana Spa Vinh","name":"Hana Spa Vinh, 37 Phạm Đình Toái, Nghi Phan, Thành phố Vinh, Nghệ An, Vietnam","name2":"Hana Spa Vinh, 37 Phạm Đình Toái, Nghi Phan, Thành phố Vinh, Nghệ An, Vietnam","lat":18.6941149,"lon":105.67917949999999,"add":"37 Phạm Đình Toái","ward":"Nghi Phan","dist":"Thành phố Vinh","province":"Nghệ An, Vietnam","ward2":"Xã Nghi Công Bắc","dist2":"Huyện Nghi Lộc","province2":"Tỉnh Nghệ An"}
{"id":"0x3139c290c12ba8a7:0x39cf1b6fabc52300","tel":"+84 965 361 034","spa":"Spa Trâm Anh","name":"PC2C+425 Spa Trâm Anh, QL46A, Thanh Lương, Thanh Chương, Nghệ An, Vietnam","name2":"PC2C+425 Spa Trâm Anh, QL46A, Thanh Lương, Thanh Chương, Nghệ An, Vietnam","lat":18.700267999999998,"lon":105.4201209,"add":"PC2C+425, QL46A","ward":"Thanh Lương","dist":"Thanh Chương","province":"Nghệ An, Vietnam","ward2":"Xã Nghi Công Bắc","dist2":"Huyện Nghi Lộc","province2":"Tỉnh Nghệ An"}
{"id":"0x3139cf9d7fe547cd:0x153286dbe937389","tel":"+84 777 161 655","spa":"Spa Baby Mom Care","name":"MMWP+PM Spa Baby Mom Care, Biệt Thự liền Kề 05,Handico,V, V.I. Lê Nin, Hà Huy Tập, Thành phố Vinh, Nghệ An 450000, Vietnam","name2":"MMWP+PM Spa Baby Mom Care, Biệt Thự liền Kề 05,Handico,V, V.I. Lê Nin, Hà Huy Tập, Thành phố Vinh, Nghệ An 450000, Vietnam","lat":18.6968511,"lon":105.68678419999999,"add":"MMWP+PM, Biệt Thự liền Kề 05,Handico,V, V.I. Lê Nin","ward":"Hà Huy Tập","dist":"Thành phố Vinh","province":"Nghệ An 450000, Vietnam","ward2":"Xã Nghi Công Bắc","dist2":"Huyện Nghi Lộc","province2":"Tỉnh Nghệ An"}
{"id":"0x3139df617ac23f07:0x62d5c6aca6ab9217","tel":null,"spa":"Tóc trang phương","name":"RCRM+MFF Tóc trang phương, Hiến Sơn, Đô Lương, Nghệ An, Vietnam","name2":"RCRM+MFF Tóc trang phương, Hiến Sơn, Đô Lương, Nghệ An, Vietnam","lat":18.8416973,"lon":105.43365809999999,"add":"RCRM+MFF","ward":"Hiến Sơn","dist":"Đô Lương","province":"Nghệ An, Vietnam","ward2":"Xã Nghi Công Bắc","dist2":"Huyện Nghi Lộc","province2":"Tỉnh Nghệ An"}
{"id":"0x3139d5f8e41ba9d5:0xc300c1600bf7cc81","tel":"+84 964 589 788","spa":"Băng băng spa","name":"RP95+F7X Băng băng spa, Unnamed Road, khối 1, Cửa Lò, Nghệ An, Vietnam","name2":"RP95+F7X Băng băng spa, Unnamed Road, khối 1, Cửa Lò, Nghệ An, Vietnam","lat":18.8187328,"lon":105.7082499,"add":"RP95+F7X, Unnamed Road","ward":"khối 1","dist":"Cửa Lò","province":"Nghệ An, Vietnam","ward2":"Xã Nghi Công Bắc","dist2":"Huyện Nghi Lộc","province2":"Tỉnh Nghệ An"}
{"id":"0x3139cf2f011d7c9b:0x83c3ebf4895d2db4","tel":"+84 975 437 327","spa":"Mai hiên spa dịch vụ chăm sóc mẹ bầu-mẹ và bé sau sinh","name":"Mai hiên spa dịch vụ chăm sóc mẹ bầu-mẹ và bé sau sinh, 68 Hải Thượng Lãn Ông, Hà Huy Tập, Thành phố Vinh, Nghệ An, Vietnam","name2":"Mai hiên spa dịch vụ chăm sóc mẹ bầu-mẹ và bé sau sinh, 68 Hải Thượng Lãn Ông, Hà Huy Tập, Thành phố Vinh, Nghệ An, Vietnam","lat":18.6890124,"lon":105.68420289999999,"add":"68 Hải Thượng Lãn Ông","ward":"Hà Huy Tập","dist":"Thành phố Vinh","province":"Nghệ An, Vietnam","ward2":"Xã Nghi Công Bắc","dist2":"Huyện Nghi Lộc","province2":"Tỉnh Nghệ An"}
{"id":"0x3139cf9215594eb5:0xfc2c15fb83473add","tel":"+84 899 959 997","spa":"Mommy Spa","name":"Mommy Spa, 7 Phùng Chí Kiên, Khối 15, Thành phố Vinh, Nghệ An 461461, Vietnam","name2":"Mommy Spa, 7 Phùng Chí Kiên, Khối 15, Thành phố Vinh, Nghệ An 461461, Vietnam","lat":18.686952299999998,"lon":105.6816283,"add":"7 Phùng Chí Kiên","ward":"Khối 15","dist":"Thành phố Vinh","province":"Nghệ An 461461, Vietnam","ward2":"Xã Nghi Công Bắc","dist2":"Huyện Nghi Lộc","province2":"Tỉnh Nghệ An"}
{"id":"0x3139d1a5a1ea36d9:0xda9a66d3351609b4","tel":"+84 565 669 928","spa":"Spa Thanh Hằng","name":"Spa Thanh Hằng, 6 Hồ Học Lãm, Hưng Đông, Thành phố Vinh, Nghệ An 460000, Vietnam","name2":"Spa Thanh Hằng, 6 Hồ Học Lãm, Hưng Đông, Thành phố Vinh, Nghệ An 460000, Vietnam","lat":18.707413499999998,"lon":105.65943929999999,"add":"6 Hồ Học Lãm","ward":"Hưng Đông","dist":"Thành phố Vinh","province":"Nghệ An 460000, Vietnam","ward2":"Xã Nghi Công Bắc","dist2":"Huyện Nghi Lộc","province2":"Tỉnh Nghệ An"}
{"id":"0x3139cf23f9f96f5f:0x84a89a78521f36c6","tel":"+84 866 866 101","spa":"TẠO GOOGLE MAPS - SEO TOP SPA PiNow","name":"TẠO GOOGLE MAPS - SEO TOP SPA PiNow, 145 Văn Đức Giai, Hưng Bình, Thành phố Vinh, Nghệ An 43100, Vietnam","name2":"TẠO GOOGLE MAPS - SEO TOP SPA PiNow, 145 Văn Đức Giai, Hưng Bình, Thành phố Vinh, Nghệ An 43100, Vietnam","lat":18.6751964,"lon":105.685153,"add":"145 Văn Đức Giai","ward":"Hưng Bình","dist":"Thành phố Vinh","province":"Nghệ An 43100, Vietnam","ward2":"Xã Nghi Công Bắc","dist2":"Huyện Nghi Lộc","province2":"Tỉnh Nghệ An"}
{"id":"0x3139ce7b3fea07f1:0x8aafed3d4b576792","tel":null,"spa":"L.e.a Spa","name":"L.e.a Spa, 12 Ngô Văn Sở, Lê Mao, Thành phố Vinh, Nghệ An, Vietnam","name2":"L.e.a Spa, 12 Ngô Văn Sở, Lê Mao, Thành phố Vinh, Nghệ An, Vietnam","lat":18.669546399999998,"lon":105.6778499,"add":"12 Ngô Văn Sở","ward":"Lê Mao","dist":"Thành phố Vinh","province":"Nghệ An, Vietnam","ward2":"Xã Nghi Công Bắc","dist2":"Huyện Nghi Lộc","province2":"Tỉnh Nghệ An"}
{"id":"0x3139dbc87331cb0b:0x83b973d6787b4093","tel":null,"spa":"Nghi Công Bắc","name":"Nghi Công Bắc, Nghi Lộc District, Nghe An, Vietnam","name2":"Nghi Công Bắc, Nghi Lộc District, Nghe An, Vietnam","lat":18.7924315,"lon":105.53864469999999,"add":"Nghi Lộc District","ward":"Nghe An","dist":"Vietnam","ward2":"Xã Nghi Công Bắc","dist2":"Huyện Nghi Lộc","province2":"Tỉnh Nghệ An"}
{"id":"0x3139d118e23a1c8d:0x5632c077c4ba4b91","tel":null,"spa":"Nhà anh thơ spa","name":"QMP3+MJ3 Nhà anh thơ spa, Kim Ngọc, Xóm 13, Nghi Lộc, Nghệ An, Vietnam","name2":"QMP3+MJ3 Nhà anh thơ spa, Kim Ngọc, Xóm 13, Nghi Lộc, Nghệ An, Vietnam","lat":18.7863532,"lon":105.65337099999999,"add":"QMP3+MJ3, Kim Ngọc","ward":"Xóm 13","dist":"Nghi Lộc","province":"Nghệ An, Vietnam","ward2":"Xã Nghi Công Bắc","dist2":"Huyện Nghi Lộc","province2":"Tỉnh Nghệ An"}
{"id":"0x31377df60d6d0f29:0x9616ac6ae326e629","tel":"+84 972 161 796","spa":"Thanh Lĩnh Spa","name":"XJ52+HMW Thanh Lĩnh Spa, QL1, xóm 6, Diễn Châu, Nghệ An, Vietnam","name2":"XJ52+HMW Thanh Lĩnh Spa, QL1, xóm 6, Diễn Châu, Nghệ An, Vietnam","lat":18.9589774,"lon":105.6016877,"add":"XJ52+HMW, QL1","ward":"xóm 6","dist":"Diễn Châu","province":"Nghệ An, Vietnam","ward2":"Xã Nghi Công Bắc","dist2":"Huyện Nghi Lộc","province2":"Tỉnh Nghệ An"}
{"id":"0x31377d935c07e2c5:0x79e8cac15cc3dc22","tel":"+84 974 481 862","spa":"spa như ý (TRUNG TÂM TRỊ LIỆU VÀ CHĂM SÓC DA NHƯ Ý)","name":"WJF5+FG8 spa như ý (TRUNG TÂM TRỊ LIỆU VÀ CHĂM SÓC DA NHƯ Ý), Diễn Trung, Diễn Châu, Nghệ An, Vietnam","name2":"WJF5+FG8 spa như ý (TRUNG TÂM TRỊ LIỆU VÀ CHĂM SÓC DA NHƯ Ý), Diễn Trung, Diễn Châu, Nghệ An, Vietnam","lat":18.923666,"lon":105.6088341,"add":"WJF5+FG8","ward":"Diễn Trung","dist":"Diễn Châu","province":"Nghệ An, Vietnam","ward2":"Xã Nghi Công Bắc","dist2":"Huyện Nghi Lộc","province2":"Tỉnh Nghệ An"}
{"id":"0x31376331e9008301:0x55c8277c95609f2c","tel":null,"spa":"NgaBeauty Spa","name":"XG4P+HQ5 NgaBeauty Spa, QL7, xóm 6, Diễn Châu, Nghệ An, Vietnam","name2":"XG4P+HQ5 NgaBeauty Spa, QL7, xóm 6, Diễn Châu, Nghệ An, Vietnam","lat":18.956387,"lon":105.53698829999999,"add":"XG4P+HQ5, QL7","ward":"xóm 6","dist":"Diễn Châu","province":"Nghệ An, Vietnam","ward2":"Xã Nghi Công Bắc","dist2":"Huyện Nghi Lộc","province2":"Tỉnh Nghệ An"}
{"id":"0x3139d10ff3614907:0xe7551321b186c8be","tel":"+84 967 244 345","spa":"July Nail Spa","name":"July Nail Spa, 02 Mai Lão Bạng, Nghi Phú, Thành phố Vinh, Nghệ An, Vietnam","name2":"July Nail Spa, 02 Mai Lão Bạng, Nghi Phú, Thành phố Vinh, Nghệ An, Vietnam","lat":18.7101372,"lon":105.6696501,"add":"02 Mai Lão Bạng","ward":"Nghi Phú","dist":"Thành phố Vinh","province":"Nghệ An, Vietnam","ward2":"Xã Nghi Công Bắc","dist2":"Huyện Nghi Lộc","province2":"Tỉnh Nghệ An"}
{"id":"0x3139ce0e331a4557:0xb7881768c59019a0","tel":"+84 988 160 788","spa":"Oanh Venus Spa","name":"Oanh Venus Spa, 158 Đường Hà Huy Tập, Hà Huy Tập, Thành phố Vinh, Nghệ An, Vietnam","name2":"Oanh Venus Spa, 158 Đường Hà Huy Tập, Hà Huy Tập, Thành phố Vinh, Nghệ An, Vietnam","lat":18.693995299999997,"lon":105.6776795,"add":"158 Đường Hà Huy Tập","ward":"Hà Huy Tập","dist":"Thành phố Vinh","province":"Nghệ An, Vietnam","ward2":"Xã Nghi Công Bắc","dist2":"Huyện Nghi Lộc","province2":"Tỉnh Nghệ An"}
{"id":"0x3139ce0527b3c039:0x82bec82c791d9dea","tel":"+84 977 645 555","spa":"Dịch Vụ Chăm Sóc Sắc Đẹp Cao Cấp","name":"Dịch Vụ Chăm Sóc Sắc Đẹp Cao Cấp, 163, Hà Huy Tập, Thành Phố Vinh, Tỉnh Nghệ An, Vietnam","name2":"Dịch Vụ Chăm Sóc Sắc Đẹp Cao Cấp, 163, Hà Huy Tập, Thành Phố Vinh, Tỉnh Nghệ An, Vietnam","lat":18.69962,"lon":105.67729999999999,"add":"163, Hà Huy Tập, Thành Phố Vinh, Tỉnh Nghệ An","ward":"Vietnam","ward2":"Xã Nghi Công Bắc","dist2":"Huyện Nghi Lộc","province2":"Tỉnh Nghệ An"}
{"id":"0x3139cf5186e0796b:0x12314629fdb9d540","tel":"+84 912 922 177","spa":"SPA GIANG MGHỆ 43 LÊKHÔI .MAkEUP &BEAUTY CARE WOMEN","name":"SPA GIANG MGHỆ 43 LÊKHÔI .MAkEUP &BEAUTY CARE WOMEN, 43 Lê Khôi, Quang Trung, Thành phố Vinh, Nghệ An, Vietnam","name2":"SPA GIANG MGHỆ 43 LÊKHÔI .MAkEUP &BEAUTY CARE WOMEN, 43 Lê Khôi, Quang Trung, Thành phố Vinh, Nghệ An, Vietnam","lat":18.6736398,"lon":105.6729699,"add":"43 Lê Khôi","ward":"Quang Trung","dist":"Thành phố Vinh","province":"Nghệ An, Vietnam","ward2":"Xã Nghi Công Bắc","dist2":"Huyện Nghi Lộc","province2":"Tỉnh Nghệ An"}
{"id":"0x3139ce0c5a8b44af:0xdcb533005b0252cd","tel":"+84 974 766 666","spa":"Elisa Spa","name":"Elisa Spa, 41 Đường Hà Huy Tập, Hà Huy Tập, Thành phố Vinh, Nghệ An, Vietnam","name2":"Elisa Spa, 41 Đường Hà Huy Tập, Hà Huy Tập, Thành phố Vinh, Nghệ An, Vietnam","lat":18.6885808,"lon":105.6801407,"add":"41 Đường Hà Huy Tập","ward":"Hà Huy Tập","dist":"Thành phố Vinh","province":"Nghệ An, Vietnam","ward2":"Xã Nghi Công Bắc","dist2":"Huyện Nghi Lộc","province2":"Tỉnh Nghệ An"}
{"id":"0x3139cfb0bf169187:0xd2b5809a94e74f5b","tel":"+84 238 6542 222","spa":"Amia Beauty","name":"Amia Beauty, 154 Nguyễn Văn Cừ, Hưng Bình, Thành phố Vinh, Nghệ An 43000, Vietnam","name2":"Amia Beauty, 154 Nguyễn Văn Cừ, Hưng Bình, Thành phố Vinh, Nghệ An 43000, Vietnam","lat":18.6779337,"lon":105.6861916,"add":"154 Nguyễn Văn Cừ","ward":"Hưng Bình","dist":"Thành phố Vinh","province":"Nghệ An 43000, Vietnam","ward2":"Xã Nghi Công Bắc","dist2":"Huyện Nghi Lộc","province2":"Tỉnh Nghệ An"}
{"id":"0x3139ce10014be643:0x40bcc90689e22c54","tel":"+84 947 828 688","spa":"Thanh Trúc Spa","name":"Thanh Trúc Spa, 248, Phạm Đình Toái, Thành Phố Vinh, Tỉnh Nghệ An, Vietnam","name2":"Thanh Trúc Spa, 248, Phạm Đình Toái, Thành Phố Vinh, Tỉnh Nghệ An, Vietnam","lat":18.6967479,"lon":105.6761793,"add":"248, Phạm Đình Toái, Thành Phố Vinh, Tỉnh Nghệ An","ward":"Vietnam","ward2":"Xã Nghi Công Bắc","dist2":"Huyện Nghi Lộc","province2":"Tỉnh Nghệ An"}
{"id":"0x3139ce59d3e53cb1:0x3c9a2f512138a58e","tel":"+84 985 261 119","spa":"Spa & Nail Linh Linh","name":"Spa & Nail Linh Linh, 28, Nguyễn Sinh Sắc, Phường Cửa Nam, Thành Phố Vinh, Tỉnh Nghệ An, Vietnam","name2":"Spa & Nail Linh Linh, 28, Nguyễn Sinh Sắc, Phường Cửa Nam, Thành Phố Vinh, Tỉnh Nghệ An, Vietnam","lat":18.6674996,"lon":105.65338369999999,"add":"28, Nguyễn Sinh Sắc, Phường Cửa Nam, Thành Phố Vinh, Tỉnh Nghệ An","ward":"Vietnam","ward2":"Xã Nghi Công Bắc","dist2":"Huyện Nghi Lộc","province2":"Tỉnh Nghệ An"}
{"id":"0x3139ce09d9beab35:0xdcdc6c18853f814","tel":"+84 986 340 240","spa":"HB Spa - Nghệ An (Dưỡng Sinh & Thủ Đạo Thang)","name":"HB Spa - Nghệ An (Dưỡng Sinh & Thủ Đạo Thang), 75 Phạm Đình Toái, Nghi Phan, Nghệ An, 43000, Vietnam","name2":"HB Spa - Nghệ An (Dưỡng Sinh & Thủ Đạo Thang), 75 Phạm Đình Toái, Nghi Phan, Nghệ An, 43000, Vietnam","lat":18.6947705,"lon":105.6801469,"add":"75 Phạm Đình Toái","ward":"Nghi Phan","dist":"Nghệ An","province":"43000, Vietnam","ward2":"Xã Nghi Công Nam","dist2":"Huyện Nghi Lộc","province2":"Tỉnh Nghệ An"}
{"id":"0x3135abe2d302fdcd:0x17907c1d763978b4","tel":null,"spa":"Spa","name":"Spa, 17 Tôn Thất Thuyết, Dịch Vọng Hậu, Cầu Giấy, Hà Nội 100000, Vietnam","name2":"Spa, 17 Tôn Thất Thuyết, Dịch Vọng Hậu, Cầu Giấy, Hà Nội 100000, Vietnam","lat":21.0281628,"lon":105.7853968,"add":"17 Tôn Thất Thuyết","ward":"Dịch Vọng Hậu","dist":"Cầu Giấy","province":"Hà Nội 100000, Vietnam","ward2":"Xã Nghi Công Nam","dist2":"Huyện Nghi Lộc","province2":"Tỉnh Nghệ An"}
{"id":"0x3135ab93e5349a15:0xc3c37bed6fd5efb","tel":"+84 703 004 277","spa":"Spa","name":"Spa, 12 P. Bát Sứ, Hàng Bồ, Hoàn Kiếm, Hà Nội 11010, Vietnam","name2":"Spa, 12 P. Bát Sứ, Hàng Bồ, Hoàn Kiếm, Hà Nội 11010, Vietnam","lat":21.0351777,"lon":105.8474518,"add":"12 P. Bát Sứ","ward":"Hàng Bồ","dist":"Hoàn Kiếm","province":"Hà Nội 11010, Vietnam","ward2":"Xã Nghi Công Nam","dist2":"Huyện Nghi Lộc","province2":"Tỉnh Nghệ An"}
{"id":"0x3139c44269fcdd03:0xc494b9929309ecc3","tel":"+84 987 976 489","spa":"Salon Phước tình","name":"MG5G+V66 Salon Phước tình, Hồng Long, Nam Đàn, Nghệ An, Vietnam","name2":"MG5G+V66 Salon Phước tình, Hồng Long, Nam Đàn, Nghệ An, Vietnam","lat":18.659656,"lon":105.5255203,"add":"MG5G+V66","ward":"Hồng Long","dist":"Nam Đàn","province":"Nghệ An, Vietnam","ward2":"Xã Nghi Công Nam","dist2":"Huyện Nghi Lộc","province2":"Tỉnh Nghệ An"}
{"id":"0x3139cde0a0c19aef:0xd42db3076763ef10","tel":"+84 868 601 001","spa":"SPA CHO NAM SUNMAN LÀM ĐẸP UY TÍN VINH","name":"SPA CHO NAM SUNMAN LÀM ĐẸP UY TÍN VINH, 207 Lê Duẩn, Trường Thi, Thành phố Vinh, Nghệ An 43130, Vietnam","name2":"SPA CHO NAM SUNMAN LÀM ĐẸP UY TÍN VINH, 207 Lê Duẩn, Trường Thi, Thành phố Vinh, Nghệ An 43130, Vietnam","lat":18.6605333,"lon":105.69339339999999,"add":"207 Lê Duẩn","ward":"Trường Thi","dist":"Thành phố Vinh","province":"Nghệ An 43130, Vietnam","ward2":"Xã Nghi Công Nam","dist2":"Huyện Nghi Lộc","province2":"Tỉnh Nghệ An"}
{"id":"0x3139cfd0595f4e27:0x796cb2b8229f1c","tel":"+84 961 382 223","spa":"Học Viện Thẩm Mỹ Tiên Spa","name":"Học Viện Thẩm Mỹ Tiên Spa, 125 Đường Hà Huy Tập, Hà Huy Tập, Thành phố Vinh, Nghệ An, Vietnam","name2":"Học Viện Thẩm Mỹ Tiên Spa, 125 Đường Hà Huy Tập, Hà Huy Tập, Thành phố Vinh, Nghệ An, Vietnam","lat":18.691286599999998,"lon":105.67873999999999,"add":"125 Đường Hà Huy Tập","ward":"Hà Huy Tập","dist":"Thành phố Vinh","province":"Nghệ An, Vietnam","ward2":"Xã Nghi Công Nam","dist2":"Huyện Nghi Lộc","province2":"Tỉnh Nghệ An"}
{"id":"0x3139d1496009d0c3:0x9e8b752cec984ac5","tel":"+84 979 613 617","spa":"Trung tâm Diện Chẩn Nghệ An","name":"Trung tâm Diện Chẩn Nghệ An, Khu tái định cư xóm 5, Sư Vạn Hạnh, Tp. Vinh, Nghệ An, Vietnam","name2":"Trung tâm Diện Chẩn Nghệ An, Khu tái định cư xóm 5, Sư Vạn Hạnh, Tp. Vinh, Nghệ An, Vietnam","lat":18.7086932,"lon":105.68371959999999,"add":"Khu tái định cư xóm 5","ward":"Sư Vạn Hạnh","dist":"Tp. Vinh","province":"Nghệ An, Vietnam","ward2":"Xã Nghi Công Nam","dist2":"Huyện Nghi Lộc","province2":"Tỉnh Nghệ An"}
{"id":"0x3139dfb7836ef0f3:0x21d278d8110f692e","tel":"+84 984 688 637","spa":"Hậu Spa","name":"Hậu Spa, xóm 10, Nghi Lộc, Nghệ An 43331, Vietnam","name2":"Hậu Spa, xóm 10, Nghi Lộc, Nghệ An 43331, Vietnam","lat":18.828139999999998,"lon":105.4934566,"add":"xóm 10","ward":"Nghi Lộc","dist":"Nghệ An 43331","province":"Vietnam","ward2":"Xã Nghi Công Nam","dist2":"Huyện Nghi Lộc","province2":"Tỉnh Nghệ An"}
{"id":"0x3139ce7669caf997:0xbfd3f3e662d352e4","tel":"+84 981 201 333","spa":"Rosa Spa","name":null,"name2":null,"lat":18.6653829,"lon":105.76481799999999}
{"id":"0x3139ce7669449d8d:0x7caa67b0168b00f2","tel":"+84 915 001 600","spa":"Spa uy tín nhất tại tp Vinh, Nghệ an - TH Spa","name":"Spa uy tín nhất tại tp Vinh, Nghệ an - TH Spa, 115 Lê Hoàn, Hưng Phúc, Thành phố Vinh, Nghệ An 460000, Vietnam","name2":"Spa uy tín nhất tại tp Vinh, Nghệ an - TH Spa, 115 Lê Hoàn, Hưng Phúc, Thành phố Vinh, Nghệ An 460000, Vietnam","lat":18.6814996,"lon":105.69104929999999,"add":"115 Lê Hoàn","ward":"Hưng Phúc","dist":"Thành phố Vinh","province":"Nghệ An 460000, Vietnam","ward2":"Xã Nghi Công Nam","dist2":"Huyện Nghi Lộc","province2":"Tỉnh Nghệ An"}
{"id":"0x3139cfd15405d01d:0x792e4a151e9b8fe0","tel":"+84 388 292 868","spa":"Gul Spa","name":"Gul Spa, 119 Nguyễn Văn Cừ, Hưng Bình, Thành phố Vinh, Nghệ An 154751, Vietnam","name2":"Gul Spa, 119 Nguyễn Văn Cừ, Hưng Bình, Thành phố Vinh, Nghệ An 154751, Vietnam","lat":18.677019899999998,"lon":105.6862653,"add":"119 Nguyễn Văn Cừ","ward":"Hưng Bình","dist":"Thành phố Vinh","province":"Nghệ An 154751, Vietnam","ward2":"Xã Nghi Công Nam","dist2":"Huyện Nghi Lộc","province2":"Tỉnh Nghệ An"}
{"id":"0x3139d58d1a452013:0x83a55971f9bcfb72","tel":null,"spa":"Anna Trang Spa","name":"Anna Trang Spa, Khu đô thị Âu Lạc, Nghi Khánh, Nghi Lộc, Nghệ An, Vietnam","name2":"Anna Trang Spa, Khu đô thị Âu Lạc, Nghi Khánh, Nghi Lộc, Nghệ An, Vietnam","lat":18.8151044,"lon":105.70351169999999,"add":"Khu đô thị Âu Lạc","ward":"Nghi Khánh","dist":"Nghi Lộc","province":"Nghệ An, Vietnam","ward2":"Xã Nghi Công Nam","dist2":"Huyện Nghi Lộc","province2":"Tỉnh Nghệ An"}
{"id":"0x3139cf1744a56193:0x1c1309e7a6325ed6","tel":"+84 382 660 858","spa":"Cs Tẩm Quất Người Mù Đông Nam","name":"Cs Tẩm Quất Người Mù Đông Nam, 190b Đường Hà Huy Tập, Hà Huy Tập, Thành phố Vinh, Nghệ An 43117, Vietnam","name2":"Cs Tẩm Quất Người Mù Đông Nam, 190b Đường Hà Huy Tập, Hà Huy Tập, Thành phố Vinh, Nghệ An 43117, Vietnam","lat":18.6952107,"lon":105.6770992,"add":"190b Đường Hà Huy Tập","ward":"Hà Huy Tập","dist":"Thành phố Vinh","province":"Nghệ An 43117, Vietnam","ward2":"Xã Nghi Công Nam","dist2":"Huyện Nghi Lộc","province2":"Tỉnh Nghệ An"}
{"id":"0x3139dfec38825891:0xfee021364bd5029d","tel":"+84 986 347 479","spa":"Salon Bảo Quyên","name":"Salon Bảo Quyên, Xón Chợ, Nghi Kiều, Nghi Lộc, Nghệ An, Vietnam","name2":"Salon Bảo Quyên, Xón Chợ, Nghi Kiều, Nghi Lộc, Nghệ An, Vietnam","lat":18.8222818,"lon":105.49308819999999,"add":"Xón Chợ","ward":"Nghi Kiều","dist":"Nghi Lộc","province":"Nghệ An, Vietnam","ward2":"Xã Nghi Công Nam","dist2":"Huyện Nghi Lộc","province2":"Tỉnh Nghệ An"}
{"id":"0x3139d99a9fcf7ac3:0x94792dd944d8be3","tel":"+84 817 894 544","spa":"Spa ĐỨC CHÂU","name":"Spa ĐỨC CHÂU, xóm 5, Nghi Lộc, Nghệ An, Vietnam","name2":"Spa ĐỨC CHÂU, xóm 5, Nghi Lộc, Nghệ An, Vietnam","lat":18.8135416,"lon":105.56210999999999,"add":"xóm 5","ward":"Nghi Lộc","dist":"Nghệ An","province":"Vietnam","ward2":"Xã Nghi Công Nam","dist2":"Huyện Nghi Lộc","province2":"Tỉnh Nghệ An"}
{"id":"0x3139d3a343bf580b:0xaf2dd9f5313c3032","tel":"+84 911 268 826","spa":"Spa Hồng Ngọc","name":"PP78+6P2 Spa Hồng Ngọc, Thái Thọ, Nghi Lộc, Nghệ An, Vietnam","name2":"PP78+6P2 Spa Hồng Ngọc, Thái Thọ, Nghi Lộc, Nghệ An, Vietnam","lat":18.7130106,"lon":105.71678039999999,"add":"PP78+6P2","ward":"Thái Thọ","dist":"Nghi Lộc","province":"Nghệ An, Vietnam","ward2":"Xã Nghi Công Nam","dist2":"Huyện Nghi Lộc","province2":"Tỉnh Nghệ An"}
{"id":"0x3139cf5ef05eb053:0x4c12a1cb004a54e6","tel":"+84 842 200 301","spa":"Golden Spa","name":"Golden Spa, 189 Đường Hà Huy Tập, Hà Huy Tập, Thành phố Vinh, Nghệ An 43100, Vietnam","name2":"Golden Spa, 189 Đường Hà Huy Tập, Hà Huy Tập, Thành phố Vinh, Nghệ An 43100, Vietnam","lat":18.6940526,"lon":105.6773193,"add":"189 Đường Hà Huy Tập","ward":"Hà Huy Tập","dist":"Thành phố Vinh","province":"Nghệ An 43100, Vietnam","ward2":"Xã Nghi Công Nam","dist2":"Huyện Nghi Lộc","province2":"Tỉnh Nghệ An"}
{"id":"0x3134e9bfc021d91f:0xf5245ad879981c0b","tel":null,"spa":"Spa","name":"CH87+229 Spa, Hợp Châu - Đồng Tĩnh, Hoàn Hoa, Tam Dương, Vĩnh Phúc, Vietnam","name2":"CH87+229 Spa, Hợp Châu - Đồng Tĩnh, Hoàn Hoa, Tam Dương, Vĩnh Phúc, Vietnam","lat":21.4150621,"lon":105.56251359999999,"add":"CH87+229, Hợp Châu - Đồng Tĩnh","ward":"Hoàn Hoa","dist":"Tam Dương","province":"Vĩnh Phúc, Vietnam","ward2":"Xã Nghi Công Nam","dist2":"Huyện Nghi Lộc","province2":"Tỉnh Nghệ An"}
{"id":"0x3139d16bcbe38815:0x8ed15655586f8b8d","tel":null,"spa":"Cần tâm spa","name":"QMPP+RHC Cần tâm spa, Nghi Thịnh, Nghi Lộc, Nghệ An, Vietnam","name2":"QMPP+RHC Cần tâm spa, Nghi Thịnh, Nghi Lộc, Nghệ An, Vietnam","lat":18.7870715,"lon":105.6863898,"add":"QMPP+RHC","ward":"Nghi Thịnh","dist":"Nghi Lộc","province":"Nghệ An, Vietnam","ward2":"Xã Nghi Công Nam","dist2":"Huyện Nghi Lộc","province2":"Tỉnh Nghệ An"}
{"id":"0x3139cfda7e51d0e7:0x10236384d15986d4","tel":null,"spa":"Thìa Vàng Center Homespa Chăm Sóc Sức Khoẻ Mẹ và Bé","name":"Thìa Vàng Center Homespa Chăm Sóc Sức Khoẻ Mẹ và Bé, 43B Phan Chu Trinh, Đội Cung, Thành phố Vinh, Nghệ An, Vietnam","name2":"Thìa Vàng Center Homespa Chăm Sóc Sức Khoẻ Mẹ và Bé, 43B Phan Chu Trinh, Đội Cung, Thành phố Vinh, Nghệ An, Vietnam","lat":18.6748996,"lon":105.6668313,"add":"43B Phan Chu Trinh","ward":"Đội Cung","dist":"Thành phố Vinh","province":"Nghệ An, Vietnam","ward2":"Xã Nghi Công Nam","dist2":"Huyện Nghi Lộc","province2":"Tỉnh Nghệ An"}
{"id":"0x3139db8d439e48fb:0x42f23c1790c4c835","tel":"+84 989 459 497","spa":"Sức khỏe & sắc đẹp","name":"Sức khỏe & sắc đẹp, Thành phố Vinh, Nam Đàn, Nghệ An 44608, Vietnam","name2":"Sức khỏe & sắc đẹp, Thành phố Vinh, Nam Đàn, Nghệ An 44608, Vietnam","lat":18.7514111,"lon":105.5185872,"add":"Thành phố Vinh","ward":"Nam Đàn","dist":"Nghệ An 44608","province":"Vietnam","ward2":"Xã Nghi Công Nam","dist2":"Huyện Nghi Lộc","province2":"Tỉnh Nghệ An"}
{"id":"0x3139d1e4f662dc77:0x56a48fb19aa9d545","tel":null,"spa":"Spa Yến Giang","name":"Spa Yến Giang, 7 Xô Viết Nghệ Tĩnh, Nghi Phú, Thành phố Vinh, Nghệ An, Vietnam","name2":"Spa Yến Giang, 7 Xô Viết Nghệ Tĩnh, Nghi Phú, Thành phố Vinh, Nghệ An, Vietnam","lat":18.7163367,"lon":105.6735968,"add":"7 Xô Viết Nghệ Tĩnh","ward":"Nghi Phú","dist":"Thành phố Vinh","province":"Nghệ An, Vietnam","ward2":"Xã Nghi Công Nam","dist2":"Huyện Nghi Lộc","province2":"Tỉnh Nghệ An"}
{"id":"0x3139d3d97a3c224d:0xf8f9f98d2360a9b2","tel":"+84 979 706 728","spa":"Phương Anh massage body","name":"Phương Anh massage body, 77 QL46, Khối 4, Nghi Lộc, Nghệ An, Vietnam","name2":"Phương Anh massage body, 77 QL46, Khối 4, Nghi Lộc, Nghệ An, Vietnam","lat":18.798878,"lon":105.6999467,"add":"77 QL46","ward":"Khối 4","dist":"Nghi Lộc","province":"Nghệ An, Vietnam","ward2":"Xã Nghi Công Nam","dist2":"Huyện Nghi Lộc","province2":"Tỉnh Nghệ An"}
{"id":"0x3139ce7669449d8d:0x7caa67b0168b00f2","tel":"+84 915 001 600","spa":"Spa uy tín nhất tại tp Vinh, Nghệ an - TH Spa","name":"Spa uy tín nhất tại tp Vinh, Nghệ an - TH Spa, 115 Lê Hoàn, Hưng Phúc, Thành phố Vinh, Nghệ An 460000, Vietnam","name2":"Spa uy tín nhất tại tp Vinh, Nghệ an - TH Spa, 115 Lê Hoàn, Hưng Phúc, Thành phố Vinh, Nghệ An 460000, Vietnam","lat":18.6814996,"lon":105.69104929999999,"add":"115 Lê Hoàn","ward":"Hưng Phúc","dist":"Thành phố Vinh","province":"Nghệ An 460000, Vietnam","ward2":"Xã Nghi Công Nam","dist2":"Huyện Nghi Lộc","province2":"Tỉnh Nghệ An"}
{"id":"0x3139d1ac20268e7f:0xd0ccbd030fa759d9","tel":"+84 944 544 486","spa":"Mộc Minh Thống - Nhà thuốc Đại Minh","name":"Mộc Minh Thống - Nhà thuốc Đại Minh, QL1A, Khối3, Nghi Lộc, Nghệ An 100000, Vietnam","name2":"Mộc Minh Thống - Nhà thuốc Đại Minh, QL1A, Khối3, Nghi Lộc, Nghệ An 100000, Vietnam","lat":18.7814411,"lon":105.6463517,"add":"QL1A","ward":"Khối3","dist":"Nghi Lộc","province":"Nghệ An 100000, Vietnam","ward2":"Xã Nghi Công Nam","dist2":"Huyện Nghi Lộc","province2":"Tỉnh Nghệ An"}
{"id":"0x3139c539c71425b9:0xf00700fc94da9ffc","tel":null,"spa":"Mai hương beauty & nail","name":"Mai hương beauty & nail, Xóm 3 ( chợ chùa, Nam Anh, Nam Đàn, Nghệ An, Vietnam","name2":"Mai hương beauty & nail, Xóm 3 ( chợ chùa, Nam Anh, Nam Đàn, Nghệ An, Vietnam","lat":18.7081733,"lon":105.53024549999999,"add":"Xóm 3 ( chợ chùa","ward":"Nam Anh","dist":"Nam Đàn","province":"Nghệ An, Vietnam","ward2":"Xã Nghi Công Nam","dist2":"Huyện Nghi Lộc","province2":"Tỉnh Nghệ An"}
{"id":"0x3139cf5ef05eb053:0x4c12a1cb004a54e6","tel":"+84 842 200 301","spa":"Golden Spa","name":"Golden Spa, 189 Đường Hà Huy Tập, Hà Huy Tập, Thành phố Vinh, Nghệ An 43100, Vietnam","name2":"Golden Spa, 189 Đường Hà Huy Tập, Hà Huy Tập, Thành phố Vinh, Nghệ An 43100, Vietnam","lat":18.6940526,"lon":105.6773193,"add":"189 Đường Hà Huy Tập","ward":"Hà Huy Tập","dist":"Thành phố Vinh","province":"Nghệ An 43100, Vietnam","ward2":"Xã Nghi Công Nam","dist2":"Huyện Nghi Lộc","province2":"Tỉnh Nghệ An"}
{"id":"0x29f68b334f94f41b:0x61fd28f14e649eea","tel":"+84 914 278 095","spa":"Dưỡng Sinh Đông Y trị Liệu Nghi Ân","name":null,"name2":null,"lat":19.2745876,"lon":104.84067809999999}
{"id":"0x3139da3f1201a909:0xdc6f17af950f5713","tel":null,"spa":"Hoa Beauty Spa","name":"Hoa Beauty Spa, Nghi Công Nam, Nghi Lộc, Nghệ An, Vietnam","name2":"Hoa Beauty Spa, Nghi Công Nam, Nghi Lộc, Nghệ An, Vietnam","lat":18.7889133,"lon":105.5672089,"add":"Nghi Công Nam","ward":"Nghi Lộc","dist":"Nghệ An","province":"Vietnam","ward2":"Xã Nghi Công Nam","dist2":"Huyện Nghi Lộc","province2":"Tỉnh Nghệ An"}
{"id":"0x3139cfd15405d01d:0x792e4a151e9b8fe0","tel":"+84 388 292 868","spa":"Gul Spa","name":"Gul Spa, 119 Nguyễn Văn Cừ, Hưng Bình, Thành phố Vinh, Nghệ An 154751, Vietnam","name2":"Gul Spa, 119 Nguyễn Văn Cừ, Hưng Bình, Thành phố Vinh, Nghệ An 154751, Vietnam","lat":18.677019899999998,"lon":105.6862653,"add":"119 Nguyễn Văn Cừ","ward":"Hưng Bình","dist":"Thành phố Vinh","province":"Nghệ An 154751, Vietnam","ward2":"Xã Nghi Công Nam","dist2":"Huyện Nghi Lộc","province2":"Tỉnh Nghệ An"}
{"id":"0x3139d1e42aa8da0f:0x4c453a796027728","tel":"+84 917 719 483","spa":"Spa Kim Chi","name":"Spa Kim Chi, 84 Đ. Nghệ An Xiêng Khoảng, Nghi Phú, Thành phố Vinh, Nghệ An, Vietnam","name2":"Spa Kim Chi, 84 Đ. Nghệ An Xiêng Khoảng, Nghi Phú, Thành phố Vinh, Nghệ An, Vietnam","lat":18.7175196,"lon":105.6708206,"add":"84 Đ. Nghệ An Xiêng Khoảng","ward":"Nghi Phú","dist":"Thành phố Vinh","province":"Nghệ An, Vietnam","ward2":"Xã Nghi Công Nam","dist2":"Huyện Nghi Lộc","province2":"Tỉnh Nghệ An"}
{"id":"0x3139c37229c97409:0xa5ac00e319e0b351","tel":"+84 852 247 007","spa":"Delavu Spa 007 Nam Đàn","name":"Delavu Spa 007 Nam Đàn, 44 - Khối, Mai Hắc Đế, Nam Đàn, Nghệ An 460000, Vietnam","name2":"Delavu Spa 007 Nam Đàn, 44 - Khối, Mai Hắc Đế, Nam Đàn, Nghệ An 460000, Vietnam","lat":18.7043549,"lon":105.4930376,"add":"44 - Khối","ward":"Mai Hắc Đế","dist":"Nam Đàn","province":"Nghệ An 460000, Vietnam","ward2":"Xã Nghi Công Nam","dist2":"Huyện Nghi Lộc","province2":"Tỉnh Nghệ An"}
{"id":"0x3139cf3137183acf:0xe64cca4b00f62868","tel":"+84 989 708 974","spa":"Thanh Maispa","name":"Thanh Maispa, 4C Ngô Văn Sở, Lê Mao, Thành phố Vinh, Nghệ An, Vietnam","name2":"Thanh Maispa, 4C Ngô Văn Sở, Lê Mao, Thành phố Vinh, Nghệ An, Vietnam","lat":18.669201299999997,"lon":105.67790989999999,"add":"4C Ngô Văn Sở","ward":"Lê Mao","dist":"Thành phố Vinh","province":"Nghệ An, Vietnam","ward2":"Xã Nghi Công Nam","dist2":"Huyện Nghi Lộc","province2":"Tỉnh Nghệ An"}
{"id":"0x3139cd2318dc3fd3:0x70d22505ae74ce6","tel":"+84 964 645 585","spa":"MG Spa Dưỡng Sinh Đông Y","name":"MG Spa Dưỡng Sinh Đông Y, Shophouse Lk08 Trường Thịnh Phát, Trương Văn Lĩnh, Hà Huy Tập, Thành phố Vinh, Nghệ An 460000, Vietnam","name2":"MG Spa Dưỡng Sinh Đông Y, Shophouse Lk08 Trường Thịnh Phát, Trương Văn Lĩnh, Hà Huy Tập, Thành phố Vinh, Nghệ An 460000, Vietnam","lat":18.6935616,"lon":105.6901599,"add":"Shophouse Lk08 Trường Thịnh Phát, Trương Văn Lĩnh","ward":"Hà Huy Tập","dist":"Thành phố Vinh","province":"Nghệ An 460000, Vietnam","ward2":"Xã Nghi Công Nam","dist2":"Huyện Nghi Lộc","province2":"Tỉnh Nghệ An"}
{"id":"0x3139cf9fa399a119:0xd6d842523766eea8","tel":"+84 888 815 333","spa":"Namy Spa & Boss Tattoo","name":"Namy Spa & Boss Tattoo, 31 Đ. Lê Huân, Hồng Sơn, Thành phố Vinh, Nghệ An, Vietnam","name2":"Namy Spa & Boss Tattoo, 31 Đ. Lê Huân, Hồng Sơn, Thành phố Vinh, Nghệ An, Vietnam","lat":18.6641178,"lon":105.6750289,"add":"31 Đ. Lê Huân","ward":"Hồng Sơn","dist":"Thành phố Vinh","province":"Nghệ An, Vietnam","ward2":"Xã Nghi Công Nam","dist2":"Huyện Nghi Lộc","province2":"Tỉnh Nghệ An"}
{"id":"0x3139cfda7e51d0e7:0x10236384d15986d4","tel":null,"spa":"Thìa Vàng Center Homespa Chăm Sóc Sức Khoẻ Mẹ và Bé","name":"Thìa Vàng Center Homespa Chăm Sóc Sức Khoẻ Mẹ và Bé, 43B Phan Chu Trinh, Đội Cung, Thành phố Vinh, Nghệ An, Vietnam","name2":"Thìa Vàng Center Homespa Chăm Sóc Sức Khoẻ Mẹ và Bé, 43B Phan Chu Trinh, Đội Cung, Thành phố Vinh, Nghệ An, Vietnam","lat":18.6748996,"lon":105.6668313,"add":"43B Phan Chu Trinh","ward":"Đội Cung","dist":"Thành phố Vinh","province":"Nghệ An, Vietnam","ward2":"Xã Nghi Công Nam","dist2":"Huyện Nghi Lộc","province2":"Tỉnh Nghệ An"}
{"id":"0x3139cfe61aa43c0b:0xe887809cee2c7a74","tel":"+84 917 320 354","spa":"Trị nám tàn nhang tại nhà Nghệ An - Tổng kho Viên uống trắng da toàn thân 9 ngày đẹp Nine's Beauty","name":"Trị nám tàn nhang tại nhà Nghệ An - Tổng kho Viên uống trắng da toàn thân 9 ngày đẹp Nine's Beauty, Huyền Vy, Xóm 9, Nghi Lộc, Nghệ An 463425, Vietnam","name2":"Trị nám tàn nhang tại nhà Nghệ An - Tổng kho Viên uống trắng da toàn thân 9 ngày đẹp Nine's Beauty, Huyền Vy, Xóm 9, Nghi Lộc, Nghệ An 463425, Vietnam","lat":18.7486305,"lon":105.707695,"add":"Huyền Vy","ward":"Xóm 9","dist":"Nghi Lộc","province":"Nghệ An 463425, Vietnam","ward2":"Xã Nghi Công Nam","dist2":"Huyện Nghi Lộc","province2":"Tỉnh Nghệ An"}
{"id":"0x3139c49f0dc4e28d:0x3f2458ab6a8f2a9a","tel":"+84 976 468 788","spa":"Spa Thảo Vy","name":"Spa Thảo Vy, 150 QL46A, Nam Đàn, Nghệ An, Vietnam","name2":"Spa Thảo Vy, 150 QL46A, Nam Đàn, Nghệ An, Vietnam","lat":18.698332399999998,"lon":105.5040806,"add":"150 QL46A","ward":"Nam Đàn","dist":"Nghệ An","province":"Vietnam","ward2":"Xã Nghi Công Nam","dist2":"Huyện Nghi Lộc","province2":"Tỉnh Nghệ An"}
{"id":"0x3139cfb51cf2252f:0x6447b7784591008f","tel":"+84 976 308 987","spa":"Mina Beauty & Spa","name":"Mina Beauty & Spa, 44 Văn Đức Giai, Hưng Bình, Thành phố Vinh, Nghệ An, Vietnam","name2":"Mina Beauty & Spa, 44 Văn Đức Giai, Hưng Bình, Thành phố Vinh, Nghệ An, Vietnam","lat":18.6735856,"lon":105.6865615,"add":"44 Văn Đức Giai","ward":"Hưng Bình","dist":"Thành phố Vinh","province":"Nghệ An, Vietnam","ward2":"Xã Nghi Công Nam","dist2":"Huyện Nghi Lộc","province2":"Tỉnh Nghệ An"}
{"id":"0x3139c4e423be85f7:0xc77347fb61770913","tel":null,"spa":"Spa Hải Yến","name":"MGRQ+7WW Spa Hải Yến, QL46A, Hùng Tiến, Nam Đàn, Nghệ An, Vietnam","name2":"MGRQ+7WW Spa Hải Yến, QL46A, Hùng Tiến, Nam Đàn, Nghệ An, Vietnam","lat":18.6907295,"lon":105.53981549999999,"add":"MGRQ+7WW, QL46A","ward":"Hùng Tiến","dist":"Nam Đàn","province":"Nghệ An, Vietnam","ward2":"Xã Nghi Công Nam","dist2":"Huyện Nghi Lộc","province2":"Tỉnh Nghệ An"}
{"id":"0x3139db4e93fd9865:0xb132edb88227dfd7","tel":"+81 70-2013-9066","spa":"Nhà Dịu Mai","name":"Nhà Dịu Mai, Xóm 3, Hưng Nguyên, Nghệ An 44509, Vietnam","name2":"Nhà Dịu Mai, Xóm 3, Hưng Nguyên, Nghệ An 44509, Vietnam","lat":18.7593255,"lon":105.5867111,"add":"Xóm 3","ward":"Hưng Nguyên","dist":"Nghệ An 44509","province":"Vietnam","ward2":"Xã Nghi Công Nam","dist2":"Huyện Nghi Lộc","province2":"Tỉnh Nghệ An"}
{"id":"0x31377dda924bb7ab:0xe3ee5c8afdc0b729","tel":null,"spa":"TRỊNH THANH SPA","name":"WJV6+63 TRỊNH THANH SPA, Dien Chau, Diễn Châu, Nghệ An, Vietnam","name2":"WJV6+63 TRỊNH THANH SPA, Dien Chau, Diễn Châu, Nghệ An, Vietnam","lat":18.9429995,"lon":105.6101499,"add":"WJV6+63","ward":"Dien Chau","dist":"Diễn Châu","province":"Nghệ An, Vietnam","ward2":"Xã Nghi Công Nam","dist2":"Huyện Nghi Lộc","province2":"Tỉnh Nghệ An"}
{"id":"0x3139c34feffff0f1:0x6c883ab196767d7d","tel":"+84 978 776 093","spa":"Quỳnh Nga Spa","name":"Quỳnh Nga Spa, QL46A, Nam Thượng, Tp. Vinh, Nghệ An, Vietnam","name2":"Quỳnh Nga Spa, QL46A, Nam Thượng, Tp. Vinh, Nghệ An, Vietnam","lat":18.7093836,"lon":105.4612588,"add":"QL46A","ward":"Nam Thượng","dist":"Tp. Vinh","province":"Nghệ An, Vietnam","ward2":"Xã Nghi Công Nam","dist2":"Huyện Nghi Lộc","province2":"Tỉnh Nghệ An"}
{"id":"0x3139cf2c6d0f13ad:0x9ec002ce98f2b2ab","tel":"+84 982 555 583","spa":"BaLi Spa","name":"BaLi Spa, Đường Nguyễn Quốc Trị, Hưng Bình, Thành phố Vinh, Nghệ An, Vietnam","name2":"BaLi Spa, Đường Nguyễn Quốc Trị, Hưng Bình, Thành phố Vinh, Nghệ An, Vietnam","lat":18.682367199999998,"lon":105.6823953,"add":"Đường Nguyễn Quốc Trị","ward":"Hưng Bình","dist":"Thành phố Vinh","province":"Nghệ An, Vietnam","ward2":"Xã Nghi Công Nam","dist2":"Huyện Nghi Lộc","province2":"Tỉnh Nghệ An"}
