{"id":"0x3135ab44d50ec623:0x52ca849400acb78d","tel":"+84 961 019 698","spa":"Spa Yến House","name":"Spa Yến House, 86 P. Dịch Vọng Hậu, Dịch Vọng Hậu, Cầu Giấy, Hà Nội, Vietnam","name2":"Spa Yến House, 86 P. Dịch Vọng Hậu, Dịch Vọng Hậu, Cầu Giấy, Hà Nội, Vietnam","lat":21.029246,"lon":105.7858894,"add":"86 P. Dịch Vọng Hậu","ward":"Dịch Vọng Hậu","dist":"Cầu Giấy","province":"Hà Nội, Vietnam","ward2":"Xã Ninh Sơn","dist2":"Huyện Việt Yên","province2":"Tỉnh Bắc Giang"}
{"id":"0x3135abacbb81586d:0x2a173af5f8f695d6","tel":"+84 967 899 965","spa":"Lexu Spa","name":"Lexu Spa, 17 lô 10b Đường nguyễn bá khoản Trung Hoà 45, P. Lưu Quang Vũ/20m số nhà 19, rẽ vào, Cầu Giấy, Hà Nội, Vietnam","name2":"Lexu Spa, 17 lô 10b Đường nguyễn bá khoản Trung Hoà 45, P. Lưu Quang Vũ/20m số nhà 19, rẽ vào, Cầu Giấy, Hà Nội, Vietnam","lat":21.0157722,"lon":105.8018962,"add":"17 lô 10b Đường nguyễn bá khoản Trung Hoà 45, P. Lưu Quang Vũ/20m số nhà 19","ward":"rẽ vào","dist":"Cầu Giấy","province":"Hà Nội, Vietnam","ward2":"Xã Ninh Sơn","dist2":"Huyện Việt Yên","province2":"Tỉnh Bắc Giang"}
{"id":"0x31350d80f10b34a1:0x88ee7545c31efc14","tel":"+84 981 518 188","spa":"Mai Spa 1","name":"Mai Spa 1, Unnamed Road, Vân Trung, Việt Yên, Bắc Giang, Vietnam","name2":"Mai Spa 1, Unnamed Road, Vân Trung, Việt Yên, Bắc Giang, Vietnam","lat":21.2234983,"lon":106.1224969,"add":"Unnamed Road","ward":"Vân Trung","dist":"Việt Yên","province":"Bắc Giang, Vietnam","ward2":"Xã Ninh Sơn","dist2":"Huyện Việt Yên","province2":"Tỉnh Bắc Giang"}
{"id":"0x3135abedeae322e5:0x2b365cb7ed2e844b","tel":"+84 1900 633883","spa":"HER Skincare & Spa","name":"HER Skincare & Spa, 49 Ng. Thái Hà, Láng Hạ, Đống Đa, Hà Nội 116940, Vietnam","name2":"HER Skincare & Spa, 49 Ng. Thái Hà, Láng Hạ, Đống Đa, Hà Nội 116940, Vietnam","lat":21.0148243,"lon":105.8154565,"add":"49 Ng. Thái Hà","ward":"Láng Hạ","dist":"Đống Đa","province":"Hà Nội 116940, Vietnam","ward2":"Xã Ninh Sơn","dist2":"Huyện Việt Yên","province2":"Tỉnh Bắc Giang"}
{"id":"0x3135ac9587a425bd:0x4ebb3105c972439e","tel":"+84 964 593 411","spa":"Natalie Beauty Center","name":"Natalie Beauty Center, 40 P. Hạ Đình, Thanh Xuân Nam, Thanh Xuân, Hà Nội, Vietnam","name2":"Natalie Beauty Center, 40 P. Hạ Đình, Thanh Xuân Nam, Thanh Xuân, Hà Nội, Vietnam","lat":20.9919917,"lon":105.80566999999999,"add":"40 P. Hạ Đình","ward":"Thanh Xuân Nam","dist":"Thanh Xuân","province":"Hà Nội, Vietnam","ward2":"Xã Ninh Sơn","dist2":"Huyện Việt Yên","province2":"Tỉnh Bắc Giang"}
{"id":"0x3135ab0c1910c291:0xe95070292df071f3","tel":"+84 24 3722 8316","spa":"Dao's Care Massage Spa","name":"Dao's Care Massage Spa, No 351 Đ. Hoàng Hoa Thám, Ngọc Hồ, Ba Đình, Hà Nội 100000, Vietnam","name2":"Dao's Care Massage Spa, No 351 Đ. Hoàng Hoa Thám, Ngọc Hồ, Ba Đình, Hà Nội 100000, Vietnam","lat":21.041912,"lon":105.8174514,"add":"No 351 Đ. Hoàng Hoa Thám","ward":"Ngọc Hồ","dist":"Ba Đình","province":"Hà Nội 100000, Vietnam","ward2":"Xã Ninh Sơn","dist2":"Huyện Việt Yên","province2":"Tỉnh Bắc Giang"}
{"id":"0x313509381f9d6849:0xe531943f33fac46d","tel":"+84 901 412 918","spa":"Sorella Beauty Spa","name":"Sorella Beauty Spa, 105 P. Núi Trúc, Kim Mã, Ba Đình, Hà Nội 100000, Vietnam","name2":"Sorella Beauty Spa, 105 P. Núi Trúc, Kim Mã, Ba Đình, Hà Nội 100000, Vietnam","lat":21.0294909,"lon":105.8235831,"add":"105 P. Núi Trúc","ward":"Kim Mã","dist":"Ba Đình","province":"Hà Nội 100000, Vietnam","ward2":"Xã Ninh Sơn","dist2":"Huyện Việt Yên","province2":"Tỉnh Bắc Giang"}
{"id":"0x313509e1e653cccb:0x349379b3ae56be87","tel":"+84 966 609 789","spa":"Thẩm Mỹ Viện Yun Spa","name":"Thẩm Mỹ Viện Yun Spa, 22 Lý Thánh Tông, Tân Hồng, Từ Sơn, Bắc Ninh, Vietnam","name2":"Thẩm Mỹ Viện Yun Spa, 22 Lý Thánh Tông, Tân Hồng, Từ Sơn, Bắc Ninh, Vietnam","lat":21.117444199999998,"lon":105.97587019999999,"add":"22 Lý Thánh Tông","ward":"Tân Hồng","dist":"Từ Sơn","province":"Bắc Ninh, Vietnam","ward2":"Xã Ninh Sơn","dist2":"Huyện Việt Yên","province2":"Tỉnh Bắc Giang"}
{"id":"0x3135ab11086fcb09:0xd74aa91785282555","tel":"+84 839 393 428","spa":"Khương Y Đạo - Độc quyền Vai - Cổ - Gáy 141 Xã Đàn","name":"Khương Y Đạo - Độc quyền Vai - Cổ - Gáy 141 Xã Đàn, 141 P. Xã Đàn, Phương Liên, Đống Đa, Hà Nội 100000, Vietnam","name2":"Khương Y Đạo - Độc quyền Vai - Cổ - Gáy 141 Xã Đàn, 141 P. Xã Đàn, Phương Liên, Đống Đa, Hà Nội 100000, Vietnam","lat":21.0137702,"lon":105.8343144,"add":"141 P. Xã Đàn","ward":"Phương Liên","dist":"Đống Đa","province":"Hà Nội 100000, Vietnam","ward2":"Xã Ninh Sơn","dist2":"Huyện Việt Yên","province2":"Tỉnh Bắc Giang"}
{"id":"0x3135ab621ef225ff:0x7b88e3281ae05082","tel":"+84 965 628 885","spa":"Huong Giang Beauty Spa","name":"Huong Giang Beauty Spa, 149 P. Láng Hạ, Láng Hạ, Đống Đa, Hà Nội, Vietnam","name2":"Huong Giang Beauty Spa, 149 P. Láng Hạ, Láng Hạ, Đống Đa, Hà Nội, Vietnam","lat":21.011564999999997,"lon":105.8118049,"add":"149 P. Láng Hạ","ward":"Láng Hạ","dist":"Đống Đa","province":"Hà Nội, Vietnam","ward2":"Xã Ninh Sơn","dist2":"Huyện Việt Yên","province2":"Tỉnh Bắc Giang"}
{"id":"0x3135ac84510c68fb:0xdbad157ed53382b0","tel":"+84 904 040 999","spa":"Vietbeauty Academy","name":"Vietbeauty Academy, 565 P. Vũ Tông Phan, Khương Đình, Thanh Xuân, Hà Nội 100000, Vietnam","name2":"Vietbeauty Academy, 565 P. Vũ Tông Phan, Khương Đình, Thanh Xuân, Hà Nội 100000, Vietnam","lat":20.9845972,"lon":105.8152674,"add":"565 P. Vũ Tông Phan","ward":"Khương Đình","dist":"Thanh Xuân","province":"Hà Nội 100000, Vietnam","ward2":"Xã Ninh Sơn","dist2":"Huyện Việt Yên","province2":"Tỉnh Bắc Giang"}
{"id":"0x3134552b78be11a9:0xee02cf060dacc3b4","tel":"+84 975 720 788","spa":"Beauty Salon Mận","name":"Beauty Salon Mận, 2/347, Cổ Nhuế, Phường Cổ Nhuế 2, Quận Bắc Từ Liêm, Thành Phố Hà Nội, Cổ Nhuế, Hà Nội 100000, Vietnam","name2":"Beauty Salon Mận, 2/347, Cổ Nhuế, Phường Cổ Nhuế 2, Quận Bắc Từ Liêm, Thành Phố Hà Nội, Cổ Nhuế, Hà Nội 100000, Vietnam","lat":21.065932999999998,"lon":105.77920499999999,"add":"2/347, Cổ Nhuế, Phường Cổ Nhuế 2, Quận Bắc Từ Liêm, Thành Phố Hà Nội","ward":"Cổ Nhuế","dist":"Hà Nội 100000","province":"Vietnam","ward2":"Xã Ninh Sơn","dist2":"Huyện Việt Yên","province2":"Tỉnh Bắc Giang"}
{"id":"0x313507ced197ace3:0x979f90bd45018095","tel":null,"spa":"Tâm Sen Sauna and Massage","name":"Tâm Sen Sauna and Massage, 125 Đ. Lê Quang Đạo, Đồng Nguyên, Từ Sơn, Bắc Ninh, Vietnam","name2":"Tâm Sen Sauna and Massage, 125 Đ. Lê Quang Đạo, Đồng Nguyên, Từ Sơn, Bắc Ninh, Vietnam","lat":21.1201193,"lon":105.9680087,"add":"125 Đ. Lê Quang Đạo","ward":"Đồng Nguyên","dist":"Từ Sơn","province":"Bắc Ninh, Vietnam","ward2":"Xã Ninh Sơn","dist2":"Huyện Việt Yên","province2":"Tỉnh Bắc Giang"}
{"id":"0x3135ad1249c4cbaf:0xfd50804a537a3c11","tel":"+84 911 987 272","spa":"Massage Kimochi","name":"Massage Kimochi, Ng. 116 P. Nhân Hòa, Nhân Chính, Thanh Xuân, Hà Nội 100000, Vietnam","name2":"Massage Kimochi, Ng. 116 P. Nhân Hòa, Nhân Chính, Thanh Xuân, Hà Nội 100000, Vietnam","lat":21.0042923,"lon":105.8069891,"add":"Ng. 116 P. Nhân Hòa","ward":"Nhân Chính","dist":"Thanh Xuân","province":"Hà Nội 100000, Vietnam","ward2":"Xã Ninh Sơn","dist2":"Huyện Việt Yên","province2":"Tỉnh Bắc Giang"}
{"id":"0x3135abe0f53255c5:0x83ff8afdcbb9f9e0","tel":"+84 965 526 556","spa":"Aqua baby","name":"Aqua baby, Unnamed Road, Cổ Nhuế, Tây Hồ, Hà Nội, Vietnam","name2":"Aqua baby, Unnamed Road, Cổ Nhuế, Tây Hồ, Hà Nội, Vietnam","lat":21.054012999999998,"lon":105.7904362,"add":"Unnamed Road","ward":"Cổ Nhuế","dist":"Tây Hồ","province":"Hà Nội, Vietnam","ward2":"Xã Ninh Sơn","dist2":"Huyện Việt Yên","province2":"Tỉnh Bắc Giang"}
{"id":"0x3135ab83e4098b37:0xb1b8897775e1ce60","tel":"+84 1900 8046","spa":"Vạn Phúc Care","name":"Vạn Phúc Care, 21A Đ. Nguyễn Khang, Trung Hoà, Cầu Giấy, Hà Nội 100000, Vietnam","name2":"Vạn Phúc Care, 21A Đ. Nguyễn Khang, Trung Hoà, Cầu Giấy, Hà Nội 100000, Vietnam","lat":21.0158248,"lon":105.8034831,"add":"21A Đ. Nguyễn Khang","ward":"Trung Hoà","dist":"Cầu Giấy","province":"Hà Nội 100000, Vietnam","ward2":"Xã Ninh Sơn","dist2":"Huyện Việt Yên","province2":"Tỉnh Bắc Giang"}
{"id":"0x3135ab6c527e0f93:0xb8372cbcfd6e203e","tel":"+84 386 463 463","spa":"Thẩm mỹ Quốc tế Bally - 463 Kim Mã, Ba Đình","name":"Thẩm mỹ Quốc tế Bally - 463 Kim Mã, Ba Đình, 463 P. Kim Mã, Ngọc Khánh, Ba Đình, Hà Nội, Vietnam","name2":"Thẩm mỹ Quốc tế Bally - 463 Kim Mã, Ba Đình, 463 P. Kim Mã, Ngọc Khánh, Ba Đình, Hà Nội, Vietnam","lat":21.0302851,"lon":105.814157,"add":"463 P. Kim Mã","ward":"Ngọc Khánh","dist":"Ba Đình","province":"Hà Nội, Vietnam","ward2":"Xã Ninh Sơn","dist2":"Huyện Việt Yên","province2":"Tỉnh Bắc Giang"}
{"id":"0x313454ac14926969:0xaa59abcd365b8f2f","tel":"+84 24 6681 7963","spa":"Seoul Massage","name":"Seoul Massage, Số 9, Đội 8, Thôn Đình Thôn, Xã Mỹ Đình, Huyện Từ Liêm, Mỹ Đình, Hà Nội, Vietnam","name2":"Seoul Massage, Số 9, Đội 8, Thôn Đình Thôn, Xã Mỹ Đình, Huyện Từ Liêm, Mỹ Đình, Hà Nội, Vietnam","lat":21.021708,"lon":105.7778361,"add":"Số 9, Đội 8, Thôn Đình Thôn, Xã Mỹ Đình, Huyện Từ Liêm","ward":"Mỹ Đình","dist":"Hà Nội","province":"Vietnam","ward2":"Xã Ninh Sơn","dist2":"Huyện Việt Yên","province2":"Tỉnh Bắc Giang"}
{"id":"0x3135ab89dff9e0c1:0x1447e31ebaf74f7c","tel":"+84 968 908 686","spa":"Nhạc Dương Lầu Spa & Massage Club","name":"Nhạc Dương Lầu Spa & Massage Club, 12 Ng. 168 Hào Nam, Chợ Dừa, Đống Đa, Hà Nội 100000, Vietnam","name2":"Nhạc Dương Lầu Spa & Massage Club, 12 Ng. 168 Hào Nam, Chợ Dừa, Đống Đa, Hà Nội 100000, Vietnam","lat":21.0259857,"lon":105.828423,"add":"12 Ng. 168 Hào Nam","ward":"Chợ Dừa","dist":"Đống Đa","province":"Hà Nội 100000, Vietnam","ward2":"Xã Ninh Sơn","dist2":"Huyện Việt Yên","province2":"Tỉnh Bắc Giang"}
{"id":"0x3135abaa4c5b0681:0xc593967d4c0ccca","tel":"+84 855 939 393","spa":"Ky Anh Massage&Spa","name":"Ky Anh Massage&Spa, 101 P.Trung Phụng, Trung Phụng, Đống Đa, Hà Nội, Vietnam","name2":"Ky Anh Massage&Spa, 101 P.Trung Phụng, Trung Phụng, Đống Đa, Hà Nội, Vietnam","lat":21.0169845,"lon":105.83611189999999,"add":"101 P.Trung Phụng","ward":"Trung Phụng","dist":"Đống Đa","province":"Hà Nội, Vietnam","ward2":"Xã Ninh Sơn","dist2":"Huyện Việt Yên","province2":"Tỉnh Bắc Giang"}
{"id":"0x313507e4174ef787:0x9fd16a3f840d2afb","tel":null,"spa":"Quỳnh Trang Spa & Clininc","name":"Quỳnh Trang Spa & Clininc, Tân Hồng, Từ Sơn, Bắc Ninh, Vietnam","name2":"Quỳnh Trang Spa & Clininc, Tân Hồng, Từ Sơn, Bắc Ninh, Vietnam","lat":21.1060087,"lon":105.96297919999999,"add":"Tân Hồng","ward":"Từ Sơn","dist":"Bắc Ninh","province":"Vietnam","ward2":"Xã Ninh Sơn","dist2":"Huyện Việt Yên","province2":"Tỉnh Bắc Giang"}
{"id":"0x3135ac9587a425bd:0x4ebb3105c972439e","tel":"+84 964 593 411","spa":"Natalie Beauty Center","name":"Natalie Beauty Center, 40 P. Hạ Đình, Thanh Xuân Nam, Thanh Xuân, Hà Nội, Vietnam","name2":"Natalie Beauty Center, 40 P. Hạ Đình, Thanh Xuân Nam, Thanh Xuân, Hà Nội, Vietnam","lat":20.9919917,"lon":105.80566999999999,"add":"40 P. Hạ Đình","ward":"Thanh Xuân Nam","dist":"Thanh Xuân","province":"Hà Nội, Vietnam","ward2":"Xã Ninh Sơn","dist2":"Huyện Việt Yên","province2":"Tỉnh Bắc Giang"}
{"id":"0x3135abba58f04d03:0x95404a7fb5b0e372","tel":"+84 879 898 313","spa":"Thẩm mỹ viện quốc tế Nevada - Xã Đàn","name":"Thẩm mỹ viện quốc tế Nevada - Xã Đàn, 243 P. Xã Đàn, Nam Đồng, Đống Đa, Hà Nội, Vietnam","name2":"Thẩm mỹ viện quốc tế Nevada - Xã Đàn, 243 P. Xã Đàn, Nam Đồng, Đống Đa, Hà Nội, Vietnam","lat":21.0166227,"lon":105.8313252,"add":"243 P. Xã Đàn","ward":"Nam Đồng","dist":"Đống Đa","province":"Hà Nội, Vietnam","ward2":"Xã Ninh Sơn","dist2":"Huyện Việt Yên","province2":"Tỉnh Bắc Giang"}
{"id":"0x31350d7a67413809:0x86b92be54462870c","tel":null,"spa":"Xông hơi - Massage Hồng Anh","name":"742P+VP3 Xông hơi - Massage Hồng Anh, My Điền, Hoàng Ninh, Việt Yên, Bắc Giang, Vietnam","name2":"742P+VP3 Xông hơi - Massage Hồng Anh, My Điền, Hoàng Ninh, Việt Yên, Bắc Giang, Vietnam","lat":21.252144299999998,"lon":106.1367863,"add":"742P+VP3, My Điền","ward":"Hoàng Ninh","dist":"Việt Yên","province":"Bắc Giang, Vietnam","ward2":"Xã Ninh Sơn","dist2":"Huyện Việt Yên","province2":"Tỉnh Bắc Giang"}
{"id":"0x31350fc75c6e1757:0x935fecad64b461b6","tel":"+84 962 258 661","spa":"Spa Phương Bắc","name":"Spa Phương Bắc, Xóm 5 thôn yên viên xã vân hà huyện việt yên, Bắc Giang, 26166, Vietnam","name2":"Spa Phương Bắc, Xóm 5 thôn yên viên xã vân hà huyện việt yên, Bắc Giang, 26166, Vietnam","lat":21.207282499999998,"lon":106.039104,"add":"Xóm 5 thôn yên viên xã vân hà huyện việt yên","ward":"Bắc Giang","dist":"26166","province":"Vietnam","ward2":"Xã Ninh Sơn","dist2":"Huyện Việt Yên","province2":"Tỉnh Bắc Giang"}
{"id":"0x313507c33a8f2563:0x2667d1b97ab5a2b1","tel":null,"spa":"Venus Spa","name":"Venus Spa, Đông Ngàn, Từ Sơn, Bắc Ninh, Vietnam","name2":"Venus Spa, Đông Ngàn, Từ Sơn, Bắc Ninh, Vietnam","lat":21.116890599999998,"lon":105.9574478,"add":"Đông Ngàn","ward":"Từ Sơn","dist":"Bắc Ninh","province":"Vietnam","ward2":"Xã Ninh Sơn","dist2":"Huyện Việt Yên","province2":"Tỉnh Bắc Giang"}
{"id":"0x31350d0bf7e63b8f:0xc1da52ffaf9bc593","tel":"+84 942 908 702","spa":"Spa Linh Nhi","name":"Spa Linh Nhi, ngã 3, Việt Yên, Bắc Giang 23000, Vietnam","name2":"Spa Linh Nhi, ngã 3, Việt Yên, Bắc Giang 23000, Vietnam","lat":21.253333899999998,"lon":106.1519331,"add":"ngã 3","ward":"Việt Yên","dist":"Bắc Giang 23000","province":"Vietnam","ward2":"Xã Ninh Sơn","dist2":"Huyện Việt Yên","province2":"Tỉnh Bắc Giang"}
{"id":"0x3135abadee910159:0xa099100d7a30ef22","tel":"+84 962 778 866","spa":"Thẩm mỹ viện uy tín ở Hà Nội","name":"Thẩm mỹ viện uy tín ở Hà Nội, 212 P. Kim Mã, Kim Mã, Ba Đình, Hà Nội, Vietnam","name2":"Thẩm mỹ viện uy tín ở Hà Nội, 212 P. Kim Mã, Kim Mã, Ba Đình, Hà Nội, Vietnam","lat":21.0318415,"lon":105.8245893,"add":"212 P. Kim Mã","ward":"Kim Mã","dist":"Ba Đình","province":"Hà Nội, Vietnam","ward2":"Xã Ninh Sơn","dist2":"Huyện Việt Yên","province2":"Tỉnh Bắc Giang"}
{"id":"0x31350f227b28f955:0x80651e571c94a7fa","tel":null,"spa":"SPA Hồng Thắm","name":"7362+R74 SPA Hồng Thắm, Trung Sơn, Việt Yên, Bắc Giang, Vietnam","name2":"7362+R74 SPA Hồng Thắm, Trung Sơn, Việt Yên, Bắc Giang, Vietnam","lat":21.262017399999998,"lon":106.05070889999999,"add":"7362+R74","ward":"Trung Sơn","dist":"Việt Yên","province":"Bắc Giang, Vietnam","ward2":"Xã Ninh Sơn","dist2":"Huyện Việt Yên","province2":"Tỉnh Bắc Giang"}
{"id":"0x31350db8f76f4035:0x12f20719ad478385","tel":"+84 879 684 112","spa":"Hạnh Spa - Gội Đầu Dưỡng Sinh","name":"Hạnh Spa - Gội Đầu Dưỡng Sinh, Trung Đồng, Việt Yên, Bắc Giang, Vietnam","name2":"Hạnh Spa - Gội Đầu Dưỡng Sinh, Trung Đồng, Việt Yên, Bắc Giang, Vietnam","lat":21.2252521,"lon":106.12623789999999,"add":"Trung Đồng","ward":"Việt Yên","dist":"Bắc Giang","province":"Vietnam","ward2":"Xã Ninh Sơn","dist2":"Huyện Việt Yên","province2":"Tỉnh Bắc Giang"}
{"id":"0x3135ab192ee16621:0xe0b14d647522cec4","tel":null,"spa":"Ngoc Ha Beauty Care","name":"Ngoc Ha Beauty Care, 146, Đống Đa, Hà Nội, Vietnam","name2":"Ngoc Ha Beauty Care, 146, Đống Đa, Hà Nội, Vietnam","lat":21.017316299999997,"lon":105.8365164,"add":"146","ward":"Đống Đa","dist":"Hà Nội","province":"Vietnam","ward2":"Xã Ninh Sơn","dist2":"Huyện Việt Yên","province2":"Tỉnh Bắc Giang"}
{"id":"0x3135ab9c32b72015:0xbdd4dd13abe7c11a","tel":"+84 24 2266 8855","spa":"Men Spa Emperor","name":"Men Spa Emperor, 26 P. Phan Văn Trị, Quốc Tử Giám, Đống Đa, Hà Nội, Vietnam","name2":"Men Spa Emperor, 26 P. Phan Văn Trị, Quốc Tử Giám, Đống Đa, Hà Nội, Vietnam","lat":21.025800099999998,"lon":105.832,"add":"26 P. Phan Văn Trị","ward":"Quốc Tử Giám","dist":"Đống Đa","province":"Hà Nội, Vietnam","ward2":"Xã Ninh Sơn","dist2":"Huyện Việt Yên","province2":"Tỉnh Bắc Giang"}
{"id":"0x313454ac14926969:0xaa59abcd365b8f2f","tel":"+84 24 6681 7963","spa":"Seoul Massage","name":"Seoul Massage, Số 9, Đội 8, Thôn Đình Thôn, Xã Mỹ Đình, Huyện Từ Liêm, Mỹ Đình, Hà Nội, Vietnam","name2":"Seoul Massage, Số 9, Đội 8, Thôn Đình Thôn, Xã Mỹ Đình, Huyện Từ Liêm, Mỹ Đình, Hà Nội, Vietnam","lat":21.021708,"lon":105.7778361,"add":"Số 9, Đội 8, Thôn Đình Thôn, Xã Mỹ Đình, Huyện Từ Liêm","ward":"Mỹ Đình","dist":"Hà Nội","province":"Vietnam","ward2":"Xã Ninh Sơn","dist2":"Huyện Việt Yên","province2":"Tỉnh Bắc Giang"}
{"id":"0x3135ab83deff25fb:0x5324b6e962dfe93c","tel":"+84 855 505 588","spa":"Bloom Spa - Spa Nhật Bản","name":"Bloom Spa - Spa Nhật Bản, 352 P. Xã Đàn, Phương Liên, Đống Đa, Hà Nội, Vietnam","name2":"Bloom Spa - Spa Nhật Bản, 352 P. Xã Đàn, Phương Liên, Đống Đa, Hà Nội, Vietnam","lat":21.0142593,"lon":105.8344364,"add":"352 P. Xã Đàn","ward":"Phương Liên","dist":"Đống Đa","province":"Hà Nội, Vietnam","ward2":"Xã Ninh Sơn","dist2":"Huyện Việt Yên","province2":"Tỉnh Bắc Giang"}
{"id":"0x3135ab6b380fc639:0x671f8b4d2f1d0e19","tel":null,"spa":"Massage Sauna Đại Thế Giới","name":"Massage Sauna Đại Thế Giới, Cống Vị, Ba Đình, Hà Nội, Vietnam","name2":"Massage Sauna Đại Thế Giới, Cống Vị, Ba Đình, Hà Nội, Vietnam","lat":21.0337529,"lon":105.8098754,"add":"Cống Vị","ward":"Ba Đình","dist":"Hà Nội","province":"Vietnam","ward2":"Xã Ninh Sơn","dist2":"Huyện Việt Yên","province2":"Tỉnh Bắc Giang"}
{"id":"0x3135ab8242d77faf:0x867078ad82c5fac8","tel":"+84 918 068 888","spa":"Thẩm mỹ quốc tế Khaan","name":"Thẩm mỹ quốc tế Khaan, 261 P. Xã Đàn, Nam Đồng, Đống Đa, Hà Nội 10000, Vietnam","name2":"Thẩm mỹ quốc tế Khaan, 261 P. Xã Đàn, Nam Đồng, Đống Đa, Hà Nội 10000, Vietnam","lat":21.0171569,"lon":105.83062629999999,"add":"261 P. Xã Đàn","ward":"Nam Đồng","dist":"Đống Đa","province":"Hà Nội 10000, Vietnam","ward2":"Xã Ninh Sơn","dist2":"Huyện Việt Yên","province2":"Tỉnh Bắc Giang"}
{"id":"0x313506599b419001:0x9c35f58f1836ce8e","tel":null,"spa":"Kamai Spa","name":"Kamai Spa, Kim Thiều, Từ Sơn, Bắc Ninh, Vietnam","name2":"Kamai Spa, Kim Thiều, Từ Sơn, Bắc Ninh, Vietnam","lat":21.153163199999998,"lon":105.9280466,"add":"Kim Thiều","ward":"Từ Sơn","dist":"Bắc Ninh","province":"Vietnam","ward2":"Xã Ninh Sơn","dist2":"Huyện Việt Yên","province2":"Tỉnh Bắc Giang"}
{"id":"0x3135b3bd61ff6ac9:0x7d5127dc988d6b9c","tel":"+84 964 231 328","spa":"HB Spa - Thường Tín (Dưỡng Sinh & Thủ Đạo Thang)","name":"HB Spa - Thường Tín (Dưỡng Sinh & Thủ Đạo Thang), Khu đất dịch vụ, xã Văn Bình, Thường Tín, Hà Nội, Hanoi City, Hà Nội 10000, Vietnam","name2":"HB Spa - Thường Tín (Dưỡng Sinh & Thủ Đạo Thang), Khu đất dịch vụ, xã Văn Bình, Thường Tín, Hà Nội, Hanoi City, Hà Nội 10000, Vietnam","lat":20.871045,"lon":105.86652099999999,"add":"Khu đất dịch vụ, xã Văn Bình, Thường Tín, Hà Nội","ward":"Hanoi City","dist":"Hà Nội 10000","province":"Vietnam","ward2":"Xã Ninh Sơn","dist2":"Huyện Việt Yên","province2":"Tỉnh Bắc Giang"}
{"id":"0x3135ab8aedeb5cc7:0xf0a2aa7608147280","tel":"+84 966 008 888","spa":"Salons Bich Nguyet","name":"Salons Bich Nguyet, 28 P. Triệu Việt Vương, Bùi Thị Xuân, Hai Bà Trưng, Hà Nội, Vietnam","name2":"Salons Bich Nguyet, 28 P. Triệu Việt Vương, Bùi Thị Xuân, Hai Bà Trưng, Hà Nội, Vietnam","lat":21.017744099999998,"lon":105.8502994,"add":"28 P. Triệu Việt Vương","ward":"Bùi Thị Xuân","dist":"Hai Bà Trưng","province":"Hà Nội, Vietnam","ward2":"Xã Ninh Sơn","dist2":"Huyện Việt Yên","province2":"Tỉnh Bắc Giang"}
{"id":"0x3135ab83e4098b37:0xb1b8897775e1ce60","tel":"+84 1900 8046","spa":"Vạn Phúc Care","name":"Vạn Phúc Care, 21A Đ. Nguyễn Khang, Trung Hoà, Cầu Giấy, Hà Nội 100000, Vietnam","name2":"Vạn Phúc Care, 21A Đ. Nguyễn Khang, Trung Hoà, Cầu Giấy, Hà Nội 100000, Vietnam","lat":21.0158248,"lon":105.8034831,"add":"21A Đ. Nguyễn Khang","ward":"Trung Hoà","dist":"Cầu Giấy","province":"Hà Nội 100000, Vietnam","ward2":"Xã Ninh Sơn","dist2":"Huyện Việt Yên","province2":"Tỉnh Bắc Giang"}
{"id":"0x313671ca3f19d3d9:0xad1e6653a637c970","tel":"+84 973 380 463","spa":"Queeny Beauty Center - nối mi, nail, phun xăm thẩm mỹ","name":"Queeny Beauty Center - nối mi, nail, phun xăm thẩm mỹ, liền kề, ngõ 158 P. Nguyễn Sơn, Ngọc Lâm, Long Biên, Hà Nội 100000, Vietnam","name2":"Queeny Beauty Center - nối mi, nail, phun xăm thẩm mỹ, liền kề, ngõ 158 P. Nguyễn Sơn, Ngọc Lâm, Long Biên, Hà Nội 100000, Vietnam","lat":21.0463316,"lon":105.8790551,"add":"liền kề, ngõ 158 P. Nguyễn Sơn","ward":"Ngọc Lâm","dist":"Long Biên","province":"Hà Nội 100000, Vietnam","ward2":"Xã Ninh Sơn","dist2":"Huyện Việt Yên","province2":"Tỉnh Bắc Giang"}
{"id":"0x3135ab3a4d4f93c3:0x43d8ac6d08f2c1ac","tel":"+84 24 3838 4888","spa":"Cẩm Tú hair salon","name":"Cẩm Tú hair salon, 105 B7 P. Tô Hiệu, Nghĩa Đô, Cầu Giấy, Hà Nội, Vietnam","name2":"Cẩm Tú hair salon, 105 B7 P. Tô Hiệu, Nghĩa Đô, Cầu Giấy, Hà Nội, Vietnam","lat":21.043688799999998,"lon":105.796762,"add":"105 B7 P. Tô Hiệu","ward":"Nghĩa Đô","dist":"Cầu Giấy","province":"Hà Nội, Vietnam","ward2":"Xã Ninh Sơn","dist2":"Huyện Việt Yên","province2":"Tỉnh Bắc Giang"}
{"id":"0x31350de84fc3599d:0xcdd3b6c926cb0286","tel":"+84 849 229 992","spa":"THẨM MỸ THU HIỀN","name":"THẨM MỸ THU HIỀN, My Điền, Việt Yên, Bắc Giang 26172, Vietnam","name2":"THẨM MỸ THU HIỀN, My Điền, Việt Yên, Bắc Giang 26172, Vietnam","lat":21.252000799999998,"lon":106.1322441,"add":"My Điền","ward":"Việt Yên","dist":"Bắc Giang 26172","province":"Vietnam","ward2":"Xã Ninh Sơn","dist2":"Huyện Việt Yên","province2":"Tỉnh Bắc Giang"}
{"id":"0x3135abc3b71f54e3:0x32cefe4ed795929d","tel":null,"spa":"Beauty Clinic","name":"Beauty Clinic, 120 P. Xã Đàn, Phương Liên, Đống Đa, Hà Nội 100000, Vietnam","name2":"Beauty Clinic, 120 P. Xã Đàn, Phương Liên, Đống Đa, Hà Nội 100000, Vietnam","lat":21.0091643,"lon":105.8389821,"add":"120 P. Xã Đàn","ward":"Phương Liên","dist":"Đống Đa","province":"Hà Nội 100000, Vietnam","ward2":"Xã Ninh Sơn","dist2":"Huyện Việt Yên","province2":"Tỉnh Bắc Giang"}
{"id":"0x3135ad1249c4cbaf:0xfd50804a537a3c11","tel":"+84 911 987 272","spa":"Massage Kimochi","name":"Massage Kimochi, Ng. 116 P. Nhân Hòa, Nhân Chính, Thanh Xuân, Hà Nội 100000, Vietnam","name2":"Massage Kimochi, Ng. 116 P. Nhân Hòa, Nhân Chính, Thanh Xuân, Hà Nội 100000, Vietnam","lat":21.0042923,"lon":105.8069891,"add":"Ng. 116 P. Nhân Hòa","ward":"Nhân Chính","dist":"Thanh Xuân","province":"Hà Nội 100000, Vietnam","ward2":"Xã Ninh Sơn","dist2":"Huyện Việt Yên","province2":"Tỉnh Bắc Giang"}
{"id":"0x3135ab6cecd4ed9d:0xaa0bbd53d1491c7a","tel":"+84 24 3333 1000","spa":"Lotte Hotel Hanoi","name":"Lotte Hotel Hanoi, 54 P. Liễu Giai, Cống Vị, Ba Đình, Hà Nội 100000, Vietnam","name2":"Lotte Hotel Hanoi, 54 P. Liễu Giai, Cống Vị, Ba Đình, Hà Nội 100000, Vietnam","lat":21.031876099999998,"lon":105.81230319999999,"add":"54 P. Liễu Giai","ward":"Cống Vị","dist":"Ba Đình","province":"Hà Nội 100000, Vietnam","ward2":"Xã Ninh Sơn","dist2":"Huyện Việt Yên","province2":"Tỉnh Bắc Giang"}
{"id":"0x3135abc7f44c8f87:0x34b097bba3214ea3","tel":"+84 978 333 804","spa":"Xoa bóp bấm huyệt Hải Đăng","name":"Xoa bóp bấm huyệt Hải Đăng, 7 ngõ 9 Hương Viên, Đồng Nhân, Hai Bà Trưng, Hà Nội 10000, Vietnam","name2":"Xoa bóp bấm huyệt Hải Đăng, 7 ngõ 9 Hương Viên, Đồng Nhân, Hai Bà Trưng, Hà Nội 10000, Vietnam","lat":21.0129864,"lon":105.85623749999999,"add":"7 ngõ 9 Hương Viên","ward":"Đồng Nhân","dist":"Hai Bà Trưng","province":"Hà Nội 10000, Vietnam","ward2":"Xã Ninh Sơn","dist2":"Huyện Việt Yên","province2":"Tỉnh Bắc Giang"}
{"id":"0x313597762d1b1c99:0x2d223e783325d1ef","tel":"+84 985 688 661","spa":"Beauty with DrH","name":"Beauty with DrH, 35 Ng. 15 P. Phương Mai, Phương Đình, Đống Đa, Hà Nội, Vietnam","name2":"Beauty with DrH, 35 Ng. 15 P. Phương Mai, Phương Đình, Đống Đa, Hà Nội, Vietnam","lat":21.001951,"lon":105.8381017,"add":"35 Ng. 15 P. Phương Mai","ward":"Phương Đình","dist":"Đống Đa","province":"Hà Nội, Vietnam","ward2":"Xã Ninh Sơn","dist2":"Huyện Việt Yên","province2":"Tỉnh Bắc Giang"}
{"id":"0x3135abdeda40d7b3:0x80d21a927f6d3b16","tel":"+84 829 458 888","spa":"Viện thẩm mỹ Quốc tế Jinhae","name":"Viện thẩm mỹ Quốc tế Jinhae, 425 Đ. Nguyễn Khang, Yên Hoà, Cầu Giấy, Hà Nội, Vietnam","name2":"Viện thẩm mỹ Quốc tế Jinhae, 425 Đ. Nguyễn Khang, Yên Hoà, Cầu Giấy, Hà Nội, Vietnam","lat":21.028044899999998,"lon":105.7989312,"add":"425 Đ. Nguyễn Khang","ward":"Yên Hoà","dist":"Cầu Giấy","province":"Hà Nội, Vietnam","ward2":"Xã Ninh Sơn","dist2":"Huyện Việt Yên","province2":"Tỉnh Bắc Giang"}
{"id":"0x3135ab5ccf6bed6d:0x71ba4be2bfca027e","tel":"+84 24 3773 3479","spa":"Thẩm Mỹ Viện Hoài Anh","name":"Thẩm Mỹ Viện Hoài Anh, 201 P. Chùa Láng, Láng Thượng, Hanoi, Láng Thượng Đống Đa Hanoi City 100000, Vietnam","name2":"Thẩm Mỹ Viện Hoài Anh, 201 P. Chùa Láng, Láng Thượng, Hanoi, Láng Thượng Đống Đa Hanoi City 100000, Vietnam","lat":21.0227143,"lon":105.800838,"add":"201 P. Chùa Láng","ward":"Láng Thượng","dist":"Hanoi","province":"Láng Thượng Đống Đa Hanoi City 100000, Vietnam","ward2":"Xã Ninh Sơn","dist2":"Huyện Việt Yên","province2":"Tỉnh Bắc Giang"}
{"id":"0x313454cc65814843:0xaded260bf95fb06c","tel":"+84 936 091 666","spa":"Tuấn Kiệt Group","name":"Tuấn Kiệt Group, 19 P. Phạm Thận Duật, Mai Dịch, Cầu Giấy, Hà Nội 100000, Vietnam","name2":"Tuấn Kiệt Group, 19 P. Phạm Thận Duật, Mai Dịch, Cầu Giấy, Hà Nội 100000, Vietnam","lat":21.044196799999998,"lon":105.7784167,"add":"19 P. Phạm Thận Duật","ward":"Mai Dịch","dist":"Cầu Giấy","province":"Hà Nội 100000, Vietnam","ward2":"Xã Ninh Sơn","dist2":"Huyện Việt Yên","province2":"Tỉnh Bắc Giang"}
{"id":"0x3134557d24e54ac9:0xdd6d14b166c69491","tel":null,"spa":"Venus Spa","name":"Venus Spa, Xã, 50A Ng. 322 Đ. Mỹ Đình, Nhân Mỹ, Từ Liêm, Hà Nội, Vietnam","name2":"Venus Spa, Xã, 50A Ng. 322 Đ. Mỹ Đình, Nhân Mỹ, Từ Liêm, Hà Nội, Vietnam","lat":21.0230535,"lon":105.7731144,"add":"Xã, 50A Ng. 322 Đ. Mỹ Đình","ward":"Nhân Mỹ","dist":"Từ Liêm","province":"Hà Nội, Vietnam","ward2":"Xã Ninh Sơn","dist2":"Huyện Việt Yên","province2":"Tỉnh Bắc Giang"}
{"id":"0x31351c93ccf203dd:0x33d806d251f5ceae","tel":"+84 989 174 476","spa":"Thiên Lý Spa","name":"8V84+MXJ Thiên Lý Spa, Tân Phúc, Xã Hồng Kỳ, Huyện Sóc Sơn, Thành Phố Hà Nội, Huyện Sóc Sơn, Hồng Kỳ, Sóc Sơn, Hà Nội, Vietnam","name2":"8V84+MXJ Thiên Lý Spa, Tân Phúc, Xã Hồng Kỳ, Huyện Sóc Sơn, Thành Phố Hà Nội, Huyện Sóc Sơn, Hồng Kỳ, Sóc Sơn, Hà Nội, Vietnam","lat":21.31671,"lon":105.8574,"add":"8V84+MXJ, Tân Phúc, Xã Hồng Kỳ, Huyện Sóc Sơn, Thành Phố Hà Nội, Huyện Sóc Sơn","ward":"Hồng Kỳ","dist":"Sóc Sơn","province":"Hà Nội, Vietnam","ward2":"Xã Ninh Sơn","dist2":"Huyện Việt Yên","province2":"Tỉnh Bắc Giang"}
{"id":"0x3135ac7363db3d0d:0xa7016e5b07f18de3","tel":"+84 988 625 860","spa":"Shop Lip Nail Chuyên Phụ Kiện Nail - Mi","name":"Shop Lip Nail Chuyên Phụ Kiện Nail - Mi, 89 P. Bạch Mai, Thanh Nhàn, Hai Bà Trưng, Hà Nội, Vietnam","name2":"Shop Lip Nail Chuyên Phụ Kiện Nail - Mi, 89 P. Bạch Mai, Thanh Nhàn, Hai Bà Trưng, Hà Nội, Vietnam","lat":21.0072702,"lon":105.8514457,"add":"89 P. Bạch Mai","ward":"Thanh Nhàn","dist":"Hai Bà Trưng","province":"Hà Nội, Vietnam","ward2":"Xã Ninh Sơn","dist2":"Huyện Việt Yên","province2":"Tỉnh Bắc Giang"}
{"id":"0x3135ab4b823eab17:0xa360c5e0ccb5e226","tel":"+84 978 919 593","spa":"Hair Salon Anh Đào","name":"Hair Salon Anh Đào, 39 Ng. 66 P. Dịch Vọng Hậu, Dịch Vọng, Cầu Giấy, Hà Nội, Vietnam","name2":"Hair Salon Anh Đào, 39 Ng. 66 P. Dịch Vọng Hậu, Dịch Vọng, Cầu Giấy, Hà Nội, Vietnam","lat":21.0314733,"lon":105.7851173,"add":"39 Ng. 66 P. Dịch Vọng Hậu","ward":"Dịch Vọng","dist":"Cầu Giấy","province":"Hà Nội, Vietnam","ward2":"Xã Ninh Sơn","dist2":"Huyện Việt Yên","province2":"Tỉnh Bắc Giang"}
{"id":"0x3135ab9fee702c89:0xe44a07710ccc0ff1","tel":"+84 24 3736 6339","spa":"Công Ty Tnhh Dịch Vụ Chăm Sóc Sức Khỏe Cộng Đồng","name":"Công Ty Tnhh Dịch Vụ Chăm Sóc Sức Khỏe Cộng Đồng, 68 Ngõ 2 Giảng Võ, Kim Mã, Đống Đa, Hà Nội, Vietnam","name2":"Công Ty Tnhh Dịch Vụ Chăm Sóc Sức Khỏe Cộng Đồng, 68 Ngõ 2 Giảng Võ, Kim Mã, Đống Đa, Hà Nội, Vietnam","lat":21.031920799999998,"lon":105.82887819999999,"add":"68 Ngõ 2 Giảng Võ","ward":"Kim Mã","dist":"Đống Đa","province":"Hà Nội, Vietnam","ward2":"Xã Ninh Sơn","dist2":"Huyện Việt Yên","province2":"Tỉnh Bắc Giang"}
{"id":"0x3135ac0f5dd059a5:0x74ba9e7700b80a0c","tel":"+84 972 369 842","spa":"Doctor Spa bác sĩ Kiệm 559 Kim Ngưu","name":"Doctor Spa bác sĩ Kiệm 559 Kim Ngưu, 87 Ng. 559 P. Kim Ngưu, Vĩnh Tuy, Hai Bà Trưng, Hà Nội, Vietnam","name2":"Doctor Spa bác sĩ Kiệm 559 Kim Ngưu, 87 Ng. 559 P. Kim Ngưu, Vĩnh Tuy, Hai Bà Trưng, Hà Nội, Vietnam","lat":20.9994505,"lon":105.8644388,"add":"87 Ng. 559 P. Kim Ngưu","ward":"Vĩnh Tuy","dist":"Hai Bà Trưng","province":"Hà Nội, Vietnam","ward2":"Xã Ninh Sơn","dist2":"Huyện Việt Yên","province2":"Tỉnh Bắc Giang"}
{"id":"0x3135a78012586741:0xee5338563f2f1071","tel":"+84 326 607 366","spa":"Spa Huế Nguyễn","name":"Spa Huế Nguyễn, Làng Thanh Bình - Xã, Xuân Lâm, Thuận Thành, Bắc Ninh, Vietnam","name2":"Spa Huế Nguyễn, Làng Thanh Bình - Xã, Xuân Lâm, Thuận Thành, Bắc Ninh, Vietnam","lat":21.0234098,"lon":106.0186875,"add":"Làng Thanh Bình - Xã","ward":"Xuân Lâm","dist":"Thuận Thành","province":"Bắc Ninh, Vietnam","ward2":"Xã Ninh Sơn","dist2":"Huyện Việt Yên","province2":"Tỉnh Bắc Giang"}
{"id":"0x31350d02921a6c59:0x3680bd218f4f40dd","tel":"+84 846 316 558","spa":"spa kiều ngân","name":"64HH+VFW spa kiều ngân, Vân Trung, Việt Yên, Bắc Giang, Vietnam","name2":"64HH+VFW spa kiều ngân, Vân Trung, Việt Yên, Bắc Giang, Vietnam","lat":21.2297337,"lon":106.1286901,"add":"64HH+VFW","ward":"Vân Trung","dist":"Việt Yên","province":"Bắc Giang, Vietnam","ward2":"Xã Ninh Sơn","dist2":"Huyện Việt Yên","province2":"Tỉnh Bắc Giang"}
{"id":"0x3135a3a25ffae0ff:0x2abea28086b943f2","tel":"+84 984 158 790","spa":"Huyền Beauty Spa","name":"Huyền Beauty Spa, Đường Galilê - Xã, Tráng Liệt, Bình Giang, Hải Dương, Vietnam","name2":"Huyền Beauty Spa, Đường Galilê - Xã, Tráng Liệt, Bình Giang, Hải Dương, Vietnam","lat":20.901980899999998,"lon":106.14502329999999,"add":"Đường Galilê - Xã","ward":"Tráng Liệt","dist":"Bình Giang","province":"Hải Dương, Vietnam","ward2":"Xã Ninh Sơn","dist2":"Huyện Việt Yên","province2":"Tỉnh Bắc Giang"}
{"id":"0x2f3cfdabf7af5b47:0x618fafffbe52276a","tel":"+84 866 485 321","spa":"Spa mộc","name":null,"name2":null,"lat":15.793925199999999,"lon":105.91025889999999}
{"id":"0x3135ab4c2ac99503:0x8b16415674bcfb83","tel":null,"spa":"Sativa beauty","name":"2R6P+CHM Sativa beauty, Ng. 6 P. Phạm Ngọc Thạch, Phương Liên, Đống Đa, Hà Nội, Vietnam","name2":"2R6P+CHM Sativa beauty, Ng. 6 P. Phạm Ngọc Thạch, Phương Liên, Đống Đa, Hà Nội, Vietnam","lat":21.011091699999998,"lon":105.8364258,"add":"2R6P+CHM, Ng. 6 P. Phạm Ngọc Thạch","ward":"Phương Liên","dist":"Đống Đa","province":"Hà Nội, Vietnam","ward2":"Xã Ninh Sơn","dist2":"Huyện Việt Yên","province2":"Tỉnh Bắc Giang"}
{"id":"0x3135aba802abceed:0xf3427ab21c7a8b8f","tel":"+84 911 019 989","spa":"Bảo Hà Spa - Nhượng quyền spa mẹ bầu sau sinh","name":"Bảo Hà Spa - Nhượng quyền spa mẹ bầu sau sinh, 452 P. Xã Đàn, Nam Đồng, Đống Đa, Hà Nội 115000, Vietnam","name2":"Bảo Hà Spa - Nhượng quyền spa mẹ bầu sau sinh, 452 P. Xã Đàn, Nam Đồng, Đống Đa, Hà Nội 115000, Vietnam","lat":21.0162749,"lon":105.832596,"add":"452 P. Xã Đàn","ward":"Nam Đồng","dist":"Đống Đa","province":"Hà Nội 115000, Vietnam","ward2":"Xã Ninh Sơn","dist2":"Huyện Việt Yên","province2":"Tỉnh Bắc Giang"}
{"id":"0x3135abd83c8b1f5b:0x7f6f22ee494c731e","tel":"+84 868 321 321","spa":"Viện Thẩm Mỹ SIAM Thailand","name":"Viện Thẩm Mỹ SIAM Thailand, 59 P. Vũ Thạnh, Chợ Dừa, Đống Đa, Hà Nội 100000, Vietnam","name2":"Viện Thẩm Mỹ SIAM Thailand, 59 P. Vũ Thạnh, Chợ Dừa, Đống Đa, Hà Nội 100000, Vietnam","lat":21.0266628,"lon":105.82643549999999,"add":"59 P. Vũ Thạnh","ward":"Chợ Dừa","dist":"Đống Đa","province":"Hà Nội 100000, Vietnam","ward2":"Xã Ninh Sơn","dist2":"Huyện Việt Yên","province2":"Tỉnh Bắc Giang"}
{"id":"0x31350dc383f6cda9:0x39105a675025a667","tel":null,"spa":"Ninh Sơn","name":"Ninh Sơn, Việt Yên District, Bac Giang, Vietnam","name2":"Ninh Sơn, Việt Yên District, Bac Giang, Vietnam","lat":21.2317087,"lon":106.0787142,"add":"Việt Yên District","ward":"Bac Giang","dist":"Vietnam","ward2":"Xã Ninh Sơn","dist2":"Huyện Việt Yên","province2":"Tỉnh Bắc Giang"}
{"id":"0x3135ad1d08448fa1:0x6fcf241ba353d35b","tel":"+84 967 628 556","spa":"Điêu Khắc Lông Mày Vân Anh Artist","name":"Điêu Khắc Lông Mày Vân Anh Artist, Tòa CT3, Khu đô thị Xa La, Hà Đông, Hà Nội, Vietnam","name2":"Điêu Khắc Lông Mày Vân Anh Artist, Tòa CT3, Khu đô thị Xa La, Hà Đông, Hà Nội, Vietnam","lat":20.9617961,"lon":105.7944526,"add":"Tòa CT3","ward":"Khu đô thị Xa La","dist":"Hà Đông","province":"Hà Nội, Vietnam","ward2":"Xã Ninh Sơn","dist2":"Huyện Việt Yên","province2":"Tỉnh Bắc Giang"}
{"id":"0x3134fd31573bb705:0x1fb03822ccffeb46","tel":"+84 968 121 101","spa":"Spa Thanh Dung","name":"Spa Thanh Dung, Đ. Liên Thôn - Xã Minh Trí, Minh Trí, Sóc Sơn, Hà Nội, Vietnam","name2":"Spa Thanh Dung, Đ. Liên Thôn - Xã Minh Trí, Minh Trí, Sóc Sơn, Hà Nội, Vietnam","lat":21.262493,"lon":105.75030989999999,"add":"Đ. Liên Thôn - Xã Minh Trí","ward":"Minh Trí","dist":"Sóc Sơn","province":"Hà Nội, Vietnam","ward2":"Xã Ninh Sơn","dist2":"Huyện Việt Yên","province2":"Tỉnh Bắc Giang"}
{"id":"0x3135abdb0de4e491:0x1594475730513c8f","tel":null,"spa":"Eva Vip Massage - Massage Eva 197 Xã Đàn, massage vip khu vực Đống Đa","name":"Eva Vip Massage - Massage Eva 197 Xã Đàn, massage vip khu vực Đống Đa, 197 P. Xã Đàn, Nam Đồng, Đống Đa, Hà Nội, Vietnam","name2":"Eva Vip Massage - Massage Eva 197 Xã Đàn, massage vip khu vực Đống Đa, 197 P. Xã Đàn, Nam Đồng, Đống Đa, Hà Nội, Vietnam","lat":21.015527499999997,"lon":105.8325966,"add":"197 P. Xã Đàn","ward":"Nam Đồng","dist":"Đống Đa","province":"Hà Nội, Vietnam","ward2":"Xã Ninh Sơn","dist2":"Huyện Việt Yên","province2":"Tỉnh Bắc Giang"}
{"id":"0x3135ab17556d4bd7:0x6ad5e296573d2aa2","tel":"+84 972 229 398","spa":"SPA Nga Beauty","name":"SPA Nga Beauty, 195 P. Kim Hoa, Phương Liên, Đống Đa, Hà Nội 10000, Vietnam","name2":"SPA Nga Beauty, 195 P. Kim Hoa, Phương Liên, Đống Đa, Hà Nội 10000, Vietnam","lat":21.0113493,"lon":105.8373994,"add":"195 P. Kim Hoa","ward":"Phương Liên","dist":"Đống Đa","province":"Hà Nội 10000, Vietnam","ward2":"Xã Ninh Sơn","dist2":"Huyện Việt Yên","province2":"Tỉnh Bắc Giang"}
{"id":"0x3135ab8cf3ec1639:0x71a857daa1647e1a","tel":"+84 24 3822 5979","spa":"Ann Spa","name":"Ann Spa, 40 P. Tuệ Tĩnh, Bùi Thị Xuân, Hai Bà Trưng, Hà Nội, Vietnam","name2":"Ann Spa, 40 P. Tuệ Tĩnh, Bùi Thị Xuân, Hai Bà Trưng, Hà Nội, Vietnam","lat":21.0152623,"lon":105.8510568,"add":"40 P. Tuệ Tĩnh","ward":"Bùi Thị Xuân","dist":"Hai Bà Trưng","province":"Hà Nội, Vietnam","ward2":"Xã Ninh Sơn","dist2":"Huyện Việt Yên","province2":"Tỉnh Bắc Giang"}
{"id":"0x31350dbee4047ad9:0xd40ca6bf40e3cfcc","tel":"+84 979 758 990","spa":"Nhà nghỉ new star. Kcn quang châu Việt yên bắc giang","name":"Nhà nghỉ new star. Kcn quang châu Việt yên bắc giang, Quang Châu, Việt Yên, Bắc Giang, Vietnam","name2":"Nhà nghỉ new star. Kcn quang châu Việt yên bắc giang, Quang Châu, Việt Yên, Bắc Giang, Vietnam","lat":21.222163,"lon":106.1062876,"add":"Quang Châu","ward":"Việt Yên","dist":"Bắc Giang","province":"Vietnam","ward2":"Xã Ninh Sơn","dist2":"Huyện Việt Yên","province2":"Tỉnh Bắc Giang"}
{"id":"0x3135ab09edc53a05:0x6244c3bbce804a0e","tel":"+84 966 188 939","spa":"Thẩm Mỹ Viện Tây Á","name":"Thẩm Mỹ Viện Tây Á, 21/81 Phố P. Linh Lang, Cống Vị, Ba Đình, Hà Nội 10000, Vietnam","name2":"Thẩm Mỹ Viện Tây Á, 21/81 Phố P. Linh Lang, Cống Vị, Ba Đình, Hà Nội 10000, Vietnam","lat":21.0333817,"lon":105.81036309999999,"add":"21/81 Phố P. Linh Lang","ward":"Cống Vị","dist":"Ba Đình","province":"Hà Nội 10000, Vietnam","ward2":"Xã Ninh Sơn","dist2":"Huyện Việt Yên","province2":"Tỉnh Bắc Giang"}
{"id":"0x313513f81cd9a95d:0xa60830b3eda151ce","tel":"+84 567 987 988","spa":"Xong hoi massage","name":"Xong hoi massage, Hùng lãm, Hồng Thái, Việt Yên, Bắc Giang, Vietnam","name2":"Xong hoi massage, Hùng lãm, Hồng Thái, Việt Yên, Bắc Giang, Vietnam","lat":21.2660002,"lon":106.1184883,"add":"Hùng lãm","ward":"Hồng Thái","dist":"Việt Yên","province":"Bắc Giang, Vietnam","ward2":"Xã Ninh Sơn","dist2":"Huyện Việt Yên","province2":"Tỉnh Bắc Giang"}
{"id":"0x3135ab12f08f2ec9:0x7c7bc144d36a245e","tel":"+84 937 706 666","spa":"Thẩm Mỹ Viện Uy Tín Hà Nội - Mega Gangnam","name":"Thẩm Mỹ Viện Uy Tín Hà Nội - Mega Gangnam, 454 P. Xã Đàn, Nam Đồng, Đống Đa, Hà Nội 100000, Vietnam","name2":"Thẩm Mỹ Viện Uy Tín Hà Nội - Mega Gangnam, 454 P. Xã Đàn, Nam Đồng, Đống Đa, Hà Nội 100000, Vietnam","lat":21.0163787,"lon":105.83253239999999,"add":"454 P. Xã Đàn","ward":"Nam Đồng","dist":"Đống Đa","province":"Hà Nội 100000, Vietnam","ward2":"Xã Ninh Sơn","dist2":"Huyện Việt Yên","province2":"Tỉnh Bắc Giang"}
{"id":"0x3135ab83cff4417f:0x9cbe32f415b0e6fc","tel":"+84 949 967 319","spa":"Aesthetic Clinic Medi tech Venus","name":"Aesthetic Clinic Medi tech Venus, 44 P.Trung Phụng, Phương Liên, Đống Đa, Hà Nội, Vietnam","name2":"Aesthetic Clinic Medi tech Venus, 44 P.Trung Phụng, Phương Liên, Đống Đa, Hà Nội, Vietnam","lat":21.015202,"lon":105.8349162,"add":"44 P.Trung Phụng","ward":"Phương Liên","dist":"Đống Đa","province":"Hà Nội, Vietnam","ward2":"Xã Ninh Sơn","dist2":"Huyện Việt Yên","province2":"Tỉnh Bắc Giang"}
{"id":"0x31350da97caf823d:0x58f3fa82a799e1f2","tel":"+84 966 845 990","spa":"NEW STAR MOTEL","name":"64F4+2P7 NEW STAR MOTEL, Núi Hiểu, Việt Yên, Bắc Giang, Vietnam","name2":"64F4+2P7 NEW STAR MOTEL, Núi Hiểu, Việt Yên, Bắc Giang, Vietnam","lat":21.2225345,"lon":106.1067818,"add":"64F4+2P7","ward":"Núi Hiểu","dist":"Việt Yên","province":"Bắc Giang, Vietnam","ward2":"Xã Ninh Sơn","dist2":"Huyện Việt Yên","province2":"Tỉnh Bắc Giang"}
{"id":"0x3134fb068b738ed5:0xa85e41d6dfcaa868","tel":null,"spa":"Khu công nghiệp Khai Quang","name":"Khu công nghiệp Khai Quang, Nguyễn Tất Thành, Khai Quang, Vĩnh Yên, Vĩnh Phúc, Vietnam","name2":"Khu công nghiệp Khai Quang, Nguyễn Tất Thành, Khai Quang, Vĩnh Yên, Vĩnh Phúc, Vietnam","lat":21.302906999999998,"lon":105.6276388,"add":"Nguyễn Tất Thành","ward":"Khai Quang","dist":"Vĩnh Yên","province":"Vĩnh Phúc, Vietnam","ward2":"Xã Ninh Sơn","dist2":"Huyện Việt Yên","province2":"Tỉnh Bắc Giang"}
{"id":"0x3135131282402db7:0xb28c365c165b52d","tel":null,"spa":"Đình trám","name":"747F+6V5 Đình trám, Unnamed Road, Việt Yên, Bắc Giang, Vietnam","name2":"747F+6V5 Đình trám, Unnamed Road, Việt Yên, Bắc Giang, Vietnam","lat":21.263016,"lon":106.12474189999999,"add":"747F+6V5","ward":"Unnamed Road","dist":"Việt Yên","province":"Bắc Giang, Vietnam","ward2":"Xã Ninh Sơn","dist2":"Huyện Việt Yên","province2":"Tỉnh Bắc Giang"}
{"id":"0x31350d21d8fa6869:0xa69188871dea8f01","tel":null,"spa":"Khu công nghiệp quang châu xã quang châu huyện việt yên tỉnh bắc giang","name":"64C5+CH3 Khu công nghiệp quang châu xã quang châu huyện việt yên tỉnh bắc giang, Núi Hiểu, Việt Yên, Bắc Giang, Vietnam","name2":"64C5+CH3 Khu công nghiệp quang châu xã quang châu huyện việt yên tỉnh bắc giang, Núi Hiểu, Việt Yên, Bắc Giang, Vietnam","lat":21.220859,"lon":106.1089485,"add":"64C5+CH3","ward":"Núi Hiểu","dist":"Việt Yên","province":"Bắc Giang, Vietnam","ward2":"Xã Ninh Sơn","dist2":"Huyện Việt Yên","province2":"Tỉnh Bắc Giang"}
{"id":"0x3135ab75f9ba9739:0x550fecd7ab3ec417","tel":"+84 962 828 242","spa":"Kún Miu Pet Shop","name":"Kún Miu Pet Shop, 129 P. An Trạch, Chợ Dừa, Đống Đa, Hà Nội 100000, Vietnam","name2":"Kún Miu Pet Shop, 129 P. An Trạch, Chợ Dừa, Đống Đa, Hà Nội 100000, Vietnam","lat":21.0273246,"lon":105.82879369999999,"add":"129 P. An Trạch","ward":"Chợ Dừa","dist":"Đống Đa","province":"Hà Nội 100000, Vietnam","ward2":"Xã Ninh Sơn","dist2":"Huyện Việt Yên","province2":"Tỉnh Bắc Giang"}
{"id":"0x3135ac87064e4c17:0xff1a9072781beb44","tel":"+84 868 889 099","spa":"Thanh Hiền Luxury Spa","name":"Thanh Hiền Luxury Spa, 39 P. Thái Thịnh, Ngã Tư Sở, Đống Đa, Hà Nội, Vietnam","name2":"Thanh Hiền Luxury Spa, 39 P. Thái Thịnh, Ngã Tư Sở, Đống Đa, Hà Nội, Vietnam","lat":21.0072492,"lon":105.8209694,"add":"39 P. Thái Thịnh","ward":"Ngã Tư Sở","dist":"Đống Đa","province":"Hà Nội, Vietnam","ward2":"Xã Ninh Sơn","dist2":"Huyện Việt Yên","province2":"Tỉnh Bắc Giang"}
{"id":"0x3135ab8ed018df37:0xf6238820046cba57","tel":"+84 987 379 882","spa":"Green Spa 194 Xã Đàn 2 - Chăm sóc da, Nail, Mi, Gội dưỡng sinh","name":"Green Spa 194 Xã Đàn 2 - Chăm sóc da, Nail, Mi, Gội dưỡng sinh, 194 Ng. Xã Đàn 2, Nam Đồng, Đống Đa, Hà Nội, Vietnam","name2":"Green Spa 194 Xã Đàn 2 - Chăm sóc da, Nail, Mi, Gội dưỡng sinh, 194 Ng. Xã Đàn 2, Nam Đồng, Đống Đa, Hà Nội, Vietnam","lat":21.0130277,"lon":105.83212309999999,"add":"194 Ng. Xã Đàn 2","ward":"Nam Đồng","dist":"Đống Đa","province":"Hà Nội, Vietnam","ward2":"Xã Ninh Sơn","dist2":"Huyện Việt Yên","province2":"Tỉnh Bắc Giang"}
{"id":"0x313453feab3649bd:0x83176a3b6a41e834","tel":"+84 976 797 466","spa":"Thẩm Mỹ Viện Quốc Tế Mialala - Hà Đông","name":"Thẩm Mỹ Viện Quốc Tế Mialala - Hà Đông, 20 P. Nguyễn Viết Xuân, P. Quang Trung, Hà Đông, Hà Nội 100000, Vietnam","name2":"Thẩm Mỹ Viện Quốc Tế Mialala - Hà Đông, 20 P. Nguyễn Viết Xuân, P. Quang Trung, Hà Đông, Hà Nội 100000, Vietnam","lat":20.971399899999998,"lon":105.77219219999999,"add":"20 P. Nguyễn Viết Xuân","ward":"P. Quang Trung","dist":"Hà Đông","province":"Hà Nội 100000, Vietnam","ward2":"Xã Ninh Sơn","dist2":"Huyện Việt Yên","province2":"Tỉnh Bắc Giang"}
{"id":"0x3134ff4c0a9785b3:0x45c67abfafe5aa0e","tel":"+84 977 966 319","spa":"Thảo Spa Xuka","name":"Thảo Spa Xuka, Khu 9 Thôn Thường Lệ xã Đại Thịnh huyện Mê Linh TP Hà Nội, Vietnam","name2":"Thảo Spa Xuka, Khu 9 Thôn Thường Lệ xã Đại Thịnh huyện Mê Linh TP Hà Nội, Vietnam","lat":21.1751953,"lon":105.7370681,"add":"Khu 9 Thôn Thường Lệ xã Đại Thịnh huyện Mê Linh TP Hà Nội","ward":"Vietnam","ward2":"Xã Ninh Sơn","dist2":"Huyện Việt Yên","province2":"Tỉnh Bắc Giang"}
{"id":"0x3135a5abc33d2b3b:0x70bd610b02a09489","tel":null,"spa":"Spa San San","name":"Spa San San, Đội 4 , Xã, Vĩnh Khúc, Văn Giang, Hưng Yên, Vietnam","name2":"Spa San San, Đội 4 , Xã, Vĩnh Khúc, Văn Giang, Hưng Yên, Vietnam","lat":20.9406933,"lon":106.0047233,"add":"Đội 4 , Xã","ward":"Vĩnh Khúc","dist":"Văn Giang","province":"Hưng Yên, Vietnam","ward2":"Xã Ninh Sơn","dist2":"Huyện Việt Yên","province2":"Tỉnh Bắc Giang"}
{"id":"0x3135ab86dabc02d3:0x531b8142ffc80923","tel":"+84 856 333 999","spa":"Green Field Spa","name":"Green Field Spa, 77 P. Xã Đàn, Phương Liên, Đống Đa, Hà Nội, Vietnam","name2":"Green Field Spa, 77 P. Xã Đàn, Phương Liên, Đống Đa, Hà Nội, Vietnam","lat":21.0123276,"lon":105.8356213,"add":"77 P. Xã Đàn","ward":"Phương Liên","dist":"Đống Đa","province":"Hà Nội, Vietnam","ward2":"Xã Ninh Sơn","dist2":"Huyện Việt Yên","province2":"Tỉnh Bắc Giang"}
{"id":"0x3135ad27c746f877:0xcf06c9e0a859a5f2","tel":"+84 963 575 339","spa":"Huyền Anh Spa","name":"Huyền Anh Spa, Ki Ốt 22, CT5, Thôn Yên Xá, Xã Tân Triều, Huyện Thanh Trì, Thành Phố Hà Nội, Tân Triều, Thanh Trì, Hà Nội 100000, Vietnam","name2":"Huyền Anh Spa, Ki Ốt 22, CT5, Thôn Yên Xá, Xã Tân Triều, Huyện Thanh Trì, Thành Phố Hà Nội, Tân Triều, Thanh Trì, Hà Nội 100000, Vietnam","lat":20.9644661,"lon":105.79519649999999,"add":"Ki Ốt 22, CT5, Thôn Yên Xá, Xã Tân Triều, Huyện Thanh Trì, Thành Phố Hà Nội","ward":"Tân Triều","dist":"Thanh Trì","province":"Hà Nội 100000, Vietnam","ward2":"Xã Ninh Sơn","dist2":"Huyện Việt Yên","province2":"Tỉnh Bắc Giang"}
{"id":"0x313454ba1660f1df:0x41b9524bfd09e856","tel":"+84 913 597 263","spa":"Violet Spa Center","name":"Violet Spa Center, 7 CT2A Mỹ Đình II, Đường Lê Đức Thọ, Xã Mỹ Đình, Huyện Từ Liêm, Mỹ Đình, Hà Nội, Vietnam","name2":"Violet Spa Center, 7 CT2A Mỹ Đình II, Đường Lê Đức Thọ, Xã Mỹ Đình, Huyện Từ Liêm, Mỹ Đình, Hà Nội, Vietnam","lat":21.0315624,"lon":105.7690306,"add":"7 CT2A Mỹ Đình II, Đường Lê Đức Thọ, Xã Mỹ Đình, Huyện Từ Liêm","ward":"Mỹ Đình","dist":"Hà Nội","province":"Vietnam","ward2":"Xã Ninh Sơn","dist2":"Huyện Việt Yên","province2":"Tỉnh Bắc Giang"}
{"id":"0x3135a78a8fec442b:0xa5916cfb1f392ee9","tel":null,"spa":"An Nhiên Spa","name":"An Nhiên Spa, Xóm 3, thôn Lương , xã, Tri Phương, Tiên Du, Bắc Ninh, Vietnam","name2":"An Nhiên Spa, Xóm 3, thôn Lương , xã, Tri Phương, Tiên Du, Bắc Ninh, Vietnam","lat":21.0816438,"lon":106.00653299999999,"add":"Xóm 3, thôn Lương , xã","ward":"Tri Phương","dist":"Tiên Du","province":"Bắc Ninh, Vietnam","ward2":"Xã Ninh Sơn","dist2":"Huyện Việt Yên","province2":"Tỉnh Bắc Giang"}
{"id":"0x3135a9f710000001:0xa40f841737787b35","tel":"+84 973 633 133","spa":"Công Ty TNHH Đầu Tư Và Thương Mại Ngọc Quyên","name":"3VMH+CVP Công Ty TNHH Đầu Tư Và Thương Mại Ngọc Quyên, Thôn Lê Xá, Xã Mai Lâm, Huyện Đông Anh, Thành Phố Hà Nội, Mai Lâm, Đông Anh, Hà Nội, Vietnam","name2":"3VMH+CVP Công Ty TNHH Đầu Tư Và Thương Mại Ngọc Quyên, Thôn Lê Xá, Xã Mai Lâm, Huyện Đông Anh, Thành Phố Hà Nội, Mai Lâm, Đông Anh, Hà Nội, Vietnam","lat":21.0835936,"lon":105.8797032,"add":"3VMH+CVP, Thôn Lê Xá, Xã Mai Lâm, Huyện Đông Anh, Thành Phố Hà Nội","ward":"Mai Lâm","dist":"Đông Anh","province":"Hà Nội, Vietnam","ward2":"Xã Ninh Sơn","dist2":"Huyện Việt Yên","province2":"Tỉnh Bắc Giang"}
{"id":"0x3134543d1e51bd57:0x14218af56a8cdf3a","tel":"+84 944 611 666","spa":"Thanh Lan Spa","name":"2PW2+XJF Thanh Lan Spa, Xóm Rô, Xã Sơn Đồng, Huyện Hoài Đức, Thành Phố Hà Nội, Sơn Đồng, Hoài Đức, Hà Nội 100000, Vietnam","name2":"2PW2+XJF Thanh Lan Spa, Xóm Rô, Xã Sơn Đồng, Huyện Hoài Đức, Thành Phố Hà Nội, Sơn Đồng, Hoài Đức, Hà Nội 100000, Vietnam","lat":21.047425,"lon":105.70154339999999,"add":"2PW2+XJF, Xóm Rô, Xã Sơn Đồng, Huyện Hoài Đức, Thành Phố Hà Nội","ward":"Sơn Đồng","dist":"Hoài Đức","province":"Hà Nội 100000, Vietnam","ward2":"Xã Ninh Sơn","dist2":"Huyện Việt Yên","province2":"Tỉnh Bắc Giang"}
{"id":"0x3135ad9be6c3ce1d:0xe313d5362ddba63d","tel":"+84 393 960 858","spa":"Spa Yến Nhi","name":"Spa Yến Nhi, Cụm 5, Thôn Ích Vịnh, Xã Vĩnh Quỳnh, Huyện Thanh Trì, Thành Phố Hà Nội, Vĩnh Quỳnh, Thanh Trì, Hà Nội 100000, Vietnam","name2":"Spa Yến Nhi, Cụm 5, Thôn Ích Vịnh, Xã Vĩnh Quỳnh, Huyện Thanh Trì, Thành Phố Hà Nội, Vĩnh Quỳnh, Thanh Trì, Hà Nội 100000, Vietnam","lat":20.933053299999997,"lon":105.8360751,"add":"Cụm 5, Thôn Ích Vịnh, Xã Vĩnh Quỳnh, Huyện Thanh Trì, Thành Phố Hà Nội","ward":"Vĩnh Quỳnh","dist":"Thanh Trì","province":"Hà Nội 100000, Vietnam","ward2":"Xã Ninh Sơn","dist2":"Huyện Việt Yên","province2":"Tỉnh Bắc Giang"}
{"id":"0x313513efa8e3e6d9:0x12e87c12139541c6","tel":null,"spa":"Spa Hải Yến","name":"74CG+GWJ Spa Hải Yến, ĐT295B, Hồng Thái, Việt Yên, Bắc Giang, Vietnam","name2":"74CG+GWJ Spa Hải Yến, ĐT295B, Hồng Thái, Việt Yên, Bắc Giang, Vietnam","lat":21.271334,"lon":106.12726699999999,"add":"74CG+GWJ, ĐT295B","ward":"Hồng Thái","dist":"Việt Yên","province":"Bắc Giang, Vietnam","ward2":"Xã Ninh Sơn","dist2":"Huyện Việt Yên","province2":"Tỉnh Bắc Giang"}
{"id":"0x313503d31238405f:0x878de63f8becb188","tel":"+84 966 147 137","spa":"Salon & Spa Zô Zô","name":"6R2J+WCH Salon & Spa Zô Zô, Thôn Thái Phù, Xã Mai Đình, Huyện Sóc Sơn, Thành Phố Hà Nội, Thành Phố Hà Nội, Mai Đình, Sóc Sơn, Hà Nội, Vietnam","name2":"6R2J+WCH Salon & Spa Zô Zô, Thôn Thái Phù, Xã Mai Đình, Huyện Sóc Sơn, Thành Phố Hà Nội, Thành Phố Hà Nội, Mai Đình, Sóc Sơn, Hà Nội, Vietnam","lat":21.202312499999998,"lon":105.831105,"add":"6R2J+WCH, Thôn Thái Phù, Xã Mai Đình, Huyện Sóc Sơn, Thành Phố Hà Nội, Thành Phố Hà Nội","ward":"Mai Đình","dist":"Sóc Sơn","province":"Hà Nội, Vietnam","ward2":"Xã Ninh Sơn","dist2":"Huyện Việt Yên","province2":"Tỉnh Bắc Giang"}
{"id":"0x31351183fe38614b:0xbda641a630cd1b69","tel":"+84 377 387 035","spa":"Spa","name":"Spa, đội 1 phố sỏi xã, Đoan Bái, Hiệp Hòa, Bắc Giang, Vietnam","name2":"Spa, đội 1 phố sỏi xã, Đoan Bái, Hiệp Hòa, Bắc Giang, Vietnam","lat":21.3187532,"lon":105.99384739999999,"add":"đội 1 phố sỏi xã","ward":"Đoan Bái","dist":"Hiệp Hòa","province":"Bắc Giang, Vietnam","ward2":"Xã Ninh Sơn","dist2":"Huyện Việt Yên","province2":"Tỉnh Bắc Giang"}
{"id":"0x313457a13642833b:0xb9d52c7774dfcb83","tel":"+84 915 016 017","spa":"Nguyệt Spa","name":"Nguyệt Spa, Cụm 5, Hòa Thôn, Xã Tam Hiệp, Huyện Phúc Thọ, Thành Phố Hà Nội, Tam Hiệp, Phúc Thọ, Hà Nội 100000, Vietnam","name2":"Nguyệt Spa, Cụm 5, Hòa Thôn, Xã Tam Hiệp, Huyện Phúc Thọ, Thành Phố Hà Nội, Tam Hiệp, Phúc Thọ, Hà Nội 100000, Vietnam","lat":21.0795367,"lon":105.6231754,"add":"Cụm 5, Hòa Thôn, Xã Tam Hiệp, Huyện Phúc Thọ, Thành Phố Hà Nội","ward":"Tam Hiệp","dist":"Phúc Thọ","province":"Hà Nội 100000, Vietnam","ward2":"Xã Ninh Sơn","dist2":"Huyện Việt Yên","province2":"Tỉnh Bắc Giang"}
{"id":"0x3135ab8249a86a8d:0x4e2c0268cc6df160","tel":null,"spa":"Khánh Hương Spa","name":"Khánh Hương Spa, 231 P. Xã Đàn, Nam Đồng, Hoàn Kiếm, Hà Nội 100000, Vietnam","name2":"Khánh Hương Spa, 231 P. Xã Đàn, Nam Đồng, Hoàn Kiếm, Hà Nội 100000, Vietnam","lat":21.016444,"lon":105.83152779999999,"add":"231 P. Xã Đàn","ward":"Nam Đồng","dist":"Hoàn Kiếm","province":"Hà Nội 100000, Vietnam","ward2":"Xã Ninh Sơn","dist2":"Huyện Việt Yên","province2":"Tỉnh Bắc Giang"}
{"id":"0x3134579ff025584f:0x30b646e5afa32ff0","tel":"+84 913 456 391","spa":"Kimz Spa","name":"3JG8+PR8 Kimz Spa, Xã Tam Hiệp, Huyện Phúc Thọ, Thành Phố Hà Nội, Tam Hiệp, Phúc Thọ, Hà Nội 100000, Vietnam","name2":"3JG8+PR8 Kimz Spa, Xã Tam Hiệp, Huyện Phúc Thọ, Thành Phố Hà Nội, Tam Hiệp, Phúc Thọ, Hà Nội 100000, Vietnam","lat":21.0767782,"lon":105.61706269999999,"add":"3JG8+PR8, Xã Tam Hiệp, Huyện Phúc Thọ, Thành Phố Hà Nội","ward":"Tam Hiệp","dist":"Phúc Thọ","province":"Hà Nội 100000, Vietnam","ward2":"Xã Ninh Sơn","dist2":"Huyện Việt Yên","province2":"Tỉnh Bắc Giang"}
{"id":"0x3135a82385fc889f:0xded6c15ddfa594d1","tel":"+84 969 968 886","spa":"Spa Hằng My","name":"Spa Hằng My, Ki Ốt 12B, Nhầ 2 Tầng Baza, Xã Ninh Hiệp, Huyện Gia Lâm, Thành Phố Hà Nội, Thành Phố Hà Nội, Ninh Hiệp, Gia Lâm, Hà Nội, Vietnam","name2":"Spa Hằng My, Ki Ốt 12B, Nhầ 2 Tầng Baza, Xã Ninh Hiệp, Huyện Gia Lâm, Thành Phố Hà Nội, Thành Phố Hà Nội, Ninh Hiệp, Gia Lâm, Hà Nội, Vietnam","lat":21.08352,"lon":105.94099999999999,"add":"Ki Ốt 12B, Nhầ 2 Tầng Baza, Xã Ninh Hiệp, Huyện Gia Lâm, Thành Phố Hà Nội, Thành Phố Hà Nội","ward":"Ninh Hiệp","dist":"Gia Lâm","province":"Hà Nội, Vietnam","ward2":"Xã Ninh Sơn","dist2":"Huyện Việt Yên","province2":"Tỉnh Bắc Giang"}
{"id":"0x3135ad27c7550665:0xce8146e0e1cc41bd","tel":"+84 936 749 290","spa":"Linh Ngân Spa","name":"XQ7W+R42 Linh Ngân Spa, Xã Tân Triều, Huyện Thanh Trì, Thành Phố Hà Nội, Tân Triều, Thanh Trì, Hà Nội 100000, Vietnam","name2":"XQ7W+R42 Linh Ngân Spa, Xã Tân Triều, Huyện Thanh Trì, Thành Phố Hà Nội, Tân Triều, Thanh Trì, Hà Nội 100000, Vietnam","lat":20.964513,"lon":105.795251,"add":"XQ7W+R42, Xã Tân Triều, Huyện Thanh Trì, Thành Phố Hà Nội","ward":"Tân Triều","dist":"Thanh Trì","province":"Hà Nội 100000, Vietnam","ward2":"Xã Ninh Sơn","dist2":"Huyện Việt Yên","province2":"Tỉnh Bắc Giang"}
{"id":"0x31350d80f10b34a1:0x88ee7545c31efc14","tel":"+84 981 518 188","spa":"Mai Spa 1","name":"Mai Spa 1, Unnamed Road, Vân Trung, Việt Yên, Bắc Giang, Vietnam","name2":"Mai Spa 1, Unnamed Road, Vân Trung, Việt Yên, Bắc Giang, Vietnam","lat":21.2234983,"lon":106.1224969,"add":"Unnamed Road","ward":"Vân Trung","dist":"Việt Yên","province":"Bắc Giang, Vietnam","ward2":"Xã Vân Trung","dist2":"Huyện Việt Yên","province2":"Tỉnh Bắc Giang"}
{"id":"0x3135ab8b6578a4bb:0x4d99f35dd037684","tel":"+84 349 656 565","spa":"Tô Châu Massage","name":"Tô Châu Massage, 11 P. Nguyễn Như Uyên, Yên Hoà, Cầu Giấy, Hà Nội, Vietnam","name2":"Tô Châu Massage, 11 P. Nguyễn Như Uyên, Yên Hoà, Cầu Giấy, Hà Nội, Vietnam","lat":21.0199927,"lon":105.7879241,"add":"11 P. Nguyễn Như Uyên","ward":"Yên Hoà","dist":"Cầu Giấy","province":"Hà Nội, Vietnam","ward2":"Xã Vân Trung","dist2":"Huyện Việt Yên","province2":"Tỉnh Bắc Giang"}
{"id":"0x3135abee9667e809:0x4c598717db3b17de","tel":null,"spa":"Sen Vàng Spa & Massage","name":"Sen Vàng Spa & Massage, 666A Đ. Lạc Long Quân, Nhật Tân, Tây Hồ, Hà Nội 124065, Vietnam","name2":"Sen Vàng Spa & Massage, 666A Đ. Lạc Long Quân, Nhật Tân, Tây Hồ, Hà Nội 124065, Vietnam","lat":21.078337899999998,"lon":105.815995,"add":"666A Đ. Lạc Long Quân","ward":"Nhật Tân","dist":"Tây Hồ","province":"Hà Nội 124065, Vietnam","ward2":"Xã Vân Trung","dist2":"Huyện Việt Yên","province2":"Tỉnh Bắc Giang"}
{"id":"0x31350df8557721e7:0xb571773668e72d7f","tel":"+84 378 610 358","spa":"Spa Đông Y Sơn Cước - Dưỡng Sinh Đông Y Trị Liệu-Cơ Sở 9","name":"Spa Đông Y Sơn Cước - Dưỡng Sinh Đông Y Trị Liệu-Cơ Sở 9, Yên Ninh, Việt Yên, Bắc Giang, Vietnam","name2":"Spa Đông Y Sơn Cước - Dưỡng Sinh Đông Y Trị Liệu-Cơ Sở 9, Yên Ninh, Việt Yên, Bắc Giang, Vietnam","lat":21.2394909,"lon":106.101331,"add":"Yên Ninh","ward":"Việt Yên","dist":"Bắc Giang","province":"Vietnam","ward2":"Xã Vân Trung","dist2":"Huyện Việt Yên","province2":"Tỉnh Bắc Giang"}
{"id":"0x31350d7e30acd12f:0x1bb0ec623833d697","tel":"+84 975 625 551","spa":"Trinh trinh spa","name":"64FC+8H6 Trinh trinh spa, Unnamed Road, Vân Trung, Việt Yên, Bắc Giang, Vietnam","name2":"64FC+8H6 Trinh trinh spa, Unnamed Road, Vân Trung, Việt Yên, Bắc Giang, Vietnam","lat":21.2232838,"lon":106.12138019999999,"add":"64FC+8H6, Unnamed Road","ward":"Vân Trung","dist":"Việt Yên","province":"Bắc Giang, Vietnam","ward2":"Xã Vân Trung","dist2":"Huyện Việt Yên","province2":"Tỉnh Bắc Giang"}
{"id":"0x31350d13f2ee3b99:0x63fb85250e9b92e8","tel":"+84 967 001 486","spa":"Dưỡng Tâm Spa BG","name":"Dưỡng Tâm Spa BG, QL37, Hoàng Ninh, Việt Yên, Bắc Giang, Vietnam","name2":"Dưỡng Tâm Spa BG, QL37, Hoàng Ninh, Việt Yên, Bắc Giang, Vietnam","lat":21.257526799999997,"lon":106.1197533,"add":"QL37","ward":"Hoàng Ninh","dist":"Việt Yên","province":"Bắc Giang, Vietnam","ward2":"Xã Vân Trung","dist2":"Huyện Việt Yên","province2":"Tỉnh Bắc Giang"}
{"id":"0x3135aca30377a44b:0xc2ce3f3fe016cc82","tel":"+84 24 3853 3999","spa":"Huong Sen Healthcare Center","name":"Huong Sen Healthcare Center, Cổng số 5, Làng sinh viên Hacinco, Thanh Xuân, 10000, Vietnam","name2":"Huong Sen Healthcare Center, Cổng số 5, Làng sinh viên Hacinco, Thanh Xuân, 10000, Vietnam","lat":21.0022385,"lon":105.80262429999999,"add":"Cổng số 5","ward":"Làng sinh viên Hacinco","dist":"Thanh Xuân","province":"10000, Vietnam","ward2":"Xã Vân Trung","dist2":"Huyện Việt Yên","province2":"Tỉnh Bắc Giang"}
{"id":"0x31350d3c99a10975:0x91cfaa04051513cd","tel":"+84 818 826 747","spa":"SỨC KHOẺ VIỆT","name":"SỨC KHOẺ VIỆT, ĐT295B, Khu đô thị Đình Trám, Việt Yên, Bắc Giang, Vietnam","name2":"SỨC KHOẺ VIỆT, ĐT295B, Khu đô thị Đình Trám, Việt Yên, Bắc Giang, Vietnam","lat":21.258257399999998,"lon":106.11173219999999,"add":"ĐT295B","ward":"Khu đô thị Đình Trám","dist":"Việt Yên","province":"Bắc Giang, Vietnam","ward2":"Xã Vân Trung","dist2":"Huyện Việt Yên","province2":"Tỉnh Bắc Giang"}
{"id":"0x31350dea5d1fe173:0x7dbdba34745ff3e","tel":"+84 786 286 668","spa":"Vip Beauty Spa","name":"Vip Beauty Spa, KĐT Sen Hồ, Việt Yên, Bắc Giang, Vietnam","name2":"Vip Beauty Spa, KĐT Sen Hồ, Việt Yên, Bắc Giang, Vietnam","lat":21.2580317,"lon":106.1178249,"add":"KĐT Sen Hồ","ward":"Việt Yên","dist":"Bắc Giang","province":"Vietnam","ward2":"Xã Vân Trung","dist2":"Huyện Việt Yên","province2":"Tỉnh Bắc Giang"}
{"id":"0x3135abe55c2571dd:0x9c03f2a55df91320","tel":"+84 385 001 222","spa":"Win Spa","name":"Win Spa, 397 Phạm Văn Đồng, Xuân Đỉnh, Từ Liêm, Hà Nội, Vietnam","name2":"Win Spa, 397 Phạm Văn Đồng, Xuân Đỉnh, Từ Liêm, Hà Nội, Vietnam","lat":21.0696671,"lon":105.7856547,"add":"397 Phạm Văn Đồng","ward":"Xuân Đỉnh","dist":"Từ Liêm","province":"Hà Nội, Vietnam","ward2":"Xã Vân Trung","dist2":"Huyện Việt Yên","province2":"Tỉnh Bắc Giang"}
{"id":"0x3135ab11c52f8a33:0x37ce8348fede02c","tel":"+84 937 115 000","spa":"Hoàng Relax","name":"Hoàng Relax, 214 P. Nguyễn Văn Tuyết, Trung Liệt, Đống Đa, Hà Nội, Vietnam","name2":"Hoàng Relax, 214 P. Nguyễn Văn Tuyết, Trung Liệt, Đống Đa, Hà Nội, Vietnam","lat":21.011321499999998,"lon":105.818615,"add":"214 P. Nguyễn Văn Tuyết","ward":"Trung Liệt","dist":"Đống Đa","province":"Hà Nội, Vietnam","ward2":"Xã Vân Trung","dist2":"Huyện Việt Yên","province2":"Tỉnh Bắc Giang"}
{"id":"0x31350d314416da77:0x233f974a552db0e7","tel":"+84 829 221 885","spa":"Massage trị liệu Hoa Lê","name":"Massage trị liệu Hoa Lê, Chung cư Đông, Dương Phường, Kinh Bắc, Bắc Ninh, 220000, Vietnam","name2":"Massage trị liệu Hoa Lê, Chung cư Đông, Dương Phường, Kinh Bắc, Bắc Ninh, 220000, Vietnam","lat":21.1942971,"lon":106.06859449999999,"add":"Chung cư Đông, Dương Phường","ward":"Kinh Bắc","dist":"Bắc Ninh","province":"220000, Vietnam","ward2":"Xã Vân Trung","dist2":"Huyện Việt Yên","province2":"Tỉnh Bắc Giang"}
{"id":"0x3135adf3329cda09:0x2c75a5f573c0d9cc","tel":"+84 858 355 656","spa":"Oma - THE SPA. Traditional","name":"Oma - THE SPA. Traditional, Mặt sau tòa nhà Golden Palace, 54 Đ. Lê Văn Lương, Nhân Chính, Thanh Xuân, Hà Nội 100000, Vietnam","name2":"Oma - THE SPA. Traditional, Mặt sau tòa nhà Golden Palace, 54 Đ. Lê Văn Lương, Nhân Chính, Thanh Xuân, Hà Nội 100000, Vietnam","lat":21.0046258,"lon":105.8020688,"add":"Mặt sau tòa nhà Golden Palace, 54 Đ. Lê Văn Lương","ward":"Nhân Chính","dist":"Thanh Xuân","province":"Hà Nội 100000, Vietnam","ward2":"Xã Vân Trung","dist2":"Huyện Việt Yên","province2":"Tỉnh Bắc Giang"}
{"id":"0x3135abf5b80330d3:0x577ebe474c830de7","tel":"+84 945 426 556","spa":"ASANA MASSAGE - Best Foot & Body Massage in Hanoi","name":"ASANA MASSAGE - Best Foot & Body Massage in Hanoi, 345 Trần Khát Chân, Thanh Nhàn, Hai Bà Trưng, Hà Nội, Vietnam","name2":"ASANA MASSAGE - Best Foot & Body Massage in Hanoi, 345 Trần Khát Chân, Thanh Nhàn, Hai Bà Trưng, Hà Nội, Vietnam","lat":21.008795799999998,"lon":105.8568268,"add":"345 Trần Khát Chân","ward":"Thanh Nhàn","dist":"Hai Bà Trưng","province":"Hà Nội, Vietnam","ward2":"Xã Vân Trung","dist2":"Huyện Việt Yên","province2":"Tỉnh Bắc Giang"}
{"id":"0x31356d74c107a0a3:0x67cbf9643faba3fa","tel":"+84 948 314 967","spa":"HB Spa - Bắc Giang (Dưỡng Sinh & Thủ Đạo Thang)","name":"HB Spa - Bắc Giang (Dưỡng Sinh & Thủ Đạo Thang), 744 Lê Lợi, Dĩnh Kế, Bắc Giang, 26000, Vietnam","name2":"HB Spa - Bắc Giang (Dưỡng Sinh & Thủ Đạo Thang), 744 Lê Lợi, Dĩnh Kế, Bắc Giang, 26000, Vietnam","lat":21.277173599999998,"lon":106.2102256,"add":"744 Lê Lợi","ward":"Dĩnh Kế","dist":"Bắc Giang","province":"26000, Vietnam","ward2":"Xã Vân Trung","dist2":"Huyện Việt Yên","province2":"Tỉnh Bắc Giang"}
{"id":"0x31350dfe795d50e7:0xffd2fc1b39728d16","tel":"+84 879 536 888","spa":"Mộc Spa - Xông hơi - massage","name":"Mộc Spa - Xông hơi - massage, My Điền 2, Thôn My Điền 1, Việt Yên, Bắc Giang, Vietnam","name2":"Mộc Spa - Xông hơi - massage, My Điền 2, Thôn My Điền 1, Việt Yên, Bắc Giang, Vietnam","lat":21.251869199999998,"lon":106.139832,"add":"My Điền 2","ward":"Thôn My Điền 1","dist":"Việt Yên","province":"Bắc Giang, Vietnam","ward2":"Xã Vân Trung","dist2":"Huyện Việt Yên","province2":"Tỉnh Bắc Giang"}
{"id":"0x31350fc75c6e1757:0x935fecad64b461b6","tel":"+84 962 258 661","spa":"Spa Phương Bắc","name":"Spa Phương Bắc, Xóm 5 thôn yên viên xã vân hà huyện việt yên, Bắc Giang, 26166, Vietnam","name2":"Spa Phương Bắc, Xóm 5 thôn yên viên xã vân hà huyện việt yên, Bắc Giang, 26166, Vietnam","lat":21.207282499999998,"lon":106.039104,"add":"Xóm 5 thôn yên viên xã vân hà huyện việt yên","ward":"Bắc Giang","dist":"26166","province":"Vietnam","ward2":"Xã Vân Trung","dist2":"Huyện Việt Yên","province2":"Tỉnh Bắc Giang"}
{"id":"0x31350da69b8e23a7:0xb7facfc8c90c94b5","tel":"+84 349 677 095","spa":"Spa Nguyễn hương ly","name":"Spa Nguyễn hương ly, Vân Cốc, Việt Yên, Bắc Giang, Vietnam","name2":"Spa Nguyễn hương ly, Vân Cốc, Việt Yên, Bắc Giang, Vietnam","lat":21.2356633,"lon":106.1346164,"add":"Vân Cốc","ward":"Việt Yên","dist":"Bắc Giang","province":"Vietnam","ward2":"Xã Vân Trung","dist2":"Huyện Việt Yên","province2":"Tỉnh Bắc Giang"}
{"id":"0x313513d632551351:0xe9f034c1ada588a6","tel":"+84 328 425 111","spa":"Spa Dưỡng Sinh Đông Y Worldlink","name":"Spa Dưỡng Sinh Đông Y Worldlink, Khu dân cư Quảng trường, Việt Yên, Bắc Giang 20000, Vietnam","name2":"Spa Dưỡng Sinh Đông Y Worldlink, Khu dân cư Quảng trường, Việt Yên, Bắc Giang 20000, Vietnam","lat":21.2724327,"lon":106.094258,"add":"Khu dân cư Quảng trường","ward":"Việt Yên","dist":"Bắc Giang 20000","province":"Vietnam","ward2":"Xã Vân Trung","dist2":"Huyện Việt Yên","province2":"Tỉnh Bắc Giang"}
{"id":"0x31350d10449a12d5:0xfd58cfc530c8262b","tel":"+84 347 958 692","spa":"VI HẬU Spa","name":"64QG+JFV VI HẬU Spa, Vân Trung, Việt Yên, Bắc Giang, Vietnam","name2":"64QG+JFV VI HẬU Spa, Vân Trung, Việt Yên, Bắc Giang, Vietnam","lat":21.239082,"lon":106.1262514,"add":"64QG+JFV","ward":"Vân Trung","dist":"Việt Yên","province":"Bắc Giang, Vietnam","ward2":"Xã Vân Trung","dist2":"Huyện Việt Yên","province2":"Tỉnh Bắc Giang"}
{"id":"0x31350c411fb76677:0x930ff83cdc307487","tel":"+84 903 263 968","spa":"Vietcare Bắc Ninh - Chăm sóc sau sinh Top 1 Việt Nam","name":"Vietcare Bắc Ninh - Chăm sóc sau sinh Top 1 Việt Nam, 19 Nguyễn Gia Thiều, Suối Hoa, Bắc Ninh, 22000, Vietnam","name2":"Vietcare Bắc Ninh - Chăm sóc sau sinh Top 1 Việt Nam, 19 Nguyễn Gia Thiều, Suối Hoa, Bắc Ninh, 22000, Vietnam","lat":21.1878204,"lon":106.07564239999999,"add":"19 Nguyễn Gia Thiều","ward":"Suối Hoa","dist":"Bắc Ninh","province":"22000, Vietnam","ward2":"Xã Vân Trung","dist2":"Huyện Việt Yên","province2":"Tỉnh Bắc Giang"}
{"id":"0x313573c1cf1d0b57:0x1a2ff479b22aa64","tel":"+84 392 882 533","spa":"春夏秋冬養生館","name":"Vietnam, Bắc Giang, Yên Dũng, Nội Hoàng, xóm Nội, 春夏秋冬養生館","name2":"Vietnam, Bắc Giang, Yên Dũng, Nội Hoàng, xóm Nội, 春夏秋冬養生館","lat":21.2407146,"lon":106.165278,"add":"Vietnam","ward":"Bắc Giang","dist":"Yên Dũng","province":"Nội Hoàng, xóm Nội","ward2":"Xã Vân Trung","dist2":"Huyện Việt Yên","province2":"Tỉnh Bắc Giang"}
{"id":"0x31350d217105bde5:0x9d330782e0ba03e5","tel":"+84 379 712 888","spa":"Spa soan susu nâng tầm sắc đẹp","name":"64QG+VC4 Spa soan susu nâng tầm sắc đẹp, Vân Cốc, Việt Yên, Bắc Giang, Vietnam","name2":"64QG+VC4 Spa soan susu nâng tầm sắc đẹp, Vân Cốc, Việt Yên, Bắc Giang, Vietnam","lat":21.2396296,"lon":106.1260843,"add":"64QG+VC4","ward":"Vân Cốc","dist":"Việt Yên","province":"Bắc Giang, Vietnam","ward2":"Xã Vân Trung","dist2":"Huyện Việt Yên","province2":"Tỉnh Bắc Giang"}
{"id":"0x31350c1b0e4279bb:0xe59c1daeededfe5d","tel":"+84 1900 1920","spa":"Bac Ninh Thu Cuc Clinics","name":"Bac Ninh Thu Cuc Clinics, 115 Nguyễn Gia Thiều, Suối Hoa, Bắc Ninh, 790000, Vietnam","name2":"Bac Ninh Thu Cuc Clinics, 115 Nguyễn Gia Thiều, Suối Hoa, Bắc Ninh, 790000, Vietnam","lat":21.1846368,"lon":106.0710165,"add":"115 Nguyễn Gia Thiều","ward":"Suối Hoa","dist":"Bắc Ninh","province":"790000, Vietnam","ward2":"Xã Vân Trung","dist2":"Huyện Việt Yên","province2":"Tỉnh Bắc Giang"}
{"id":"0x313513fb4d2eca17:0x69c27e22591b4680","tel":null,"spa":"Thanh Vân Spa","name":"73JP+FPJ Thanh Vân Spa, QL37, Bích Sơn, Việt Yên, Bắc Giang, Vietnam","name2":"73JP+FPJ Thanh Vân Spa, QL37, Bích Sơn, Việt Yên, Bắc Giang, Vietnam","lat":21.2812751,"lon":106.0867871,"add":"73JP+FPJ, QL37","ward":"Bích Sơn","dist":"Việt Yên","province":"Bắc Giang, Vietnam","ward2":"Xã Vân Trung","dist2":"Huyện Việt Yên","province2":"Tỉnh Bắc Giang"}
{"id":"0x3135aca30377a44b:0xc2ce3f3fe016cc82","tel":"+84 24 3853 3999","spa":"Huong Sen Healthcare Center","name":"Huong Sen Healthcare Center, Cổng số 5, Làng sinh viên Hacinco, Thanh Xuân, 10000, Vietnam","name2":"Huong Sen Healthcare Center, Cổng số 5, Làng sinh viên Hacinco, Thanh Xuân, 10000, Vietnam","lat":21.0022385,"lon":105.80262429999999,"add":"Cổng số 5","ward":"Làng sinh viên Hacinco","dist":"Thanh Xuân","province":"10000, Vietnam","ward2":"Xã Vân Trung","dist2":"Huyện Việt Yên","province2":"Tỉnh Bắc Giang"}
{"id":"0x31350da7752cd501:0x47549dfc99b90036","tel":null,"spa":"Queen Spa","name":"64QG+FMM Queen Spa, Vân Cốc, Việt Yên, Bắc Giang, Vietnam","name2":"64QG+FMM Queen Spa, Vân Cốc, Việt Yên, Bắc Giang, Vietnam","lat":21.2387187,"lon":106.1266734,"add":"64QG+FMM","ward":"Vân Cốc","dist":"Việt Yên","province":"Bắc Giang, Vietnam","ward2":"Xã Vân Trung","dist2":"Huyện Việt Yên","province2":"Tỉnh Bắc Giang"}
{"id":"0x313513f24ddd5593:0x11d95c0cbd4fda71","tel":"+84 982 615 991","spa":"Spa thu hường","name":"73HQ+X73 Spa thu hường, Hoàng Mai, Việt Yên, Bắc Giang, Vietnam","name2":"73HQ+X73 Spa thu hường, Hoàng Mai, Việt Yên, Bắc Giang, Vietnam","lat":21.279895,"lon":106.088161,"add":"73HQ+X73","ward":"Hoàng Mai","dist":"Việt Yên","province":"Bắc Giang, Vietnam","ward2":"Xã Vân Trung","dist2":"Huyện Việt Yên","province2":"Tỉnh Bắc Giang"}
{"id":"0x31350db479ca1eb3:0xb2942f8c4dbb910d","tel":"+84 888 334 222","spa":"Spa The Moon","name":"Spa The Moon, Số 3 Đ. Phúc Sơn, P. Đáp Cầu, Bắc Ninh, Vietnam","name2":"Spa The Moon, Số 3 Đ. Phúc Sơn, P. Đáp Cầu, Bắc Ninh, Vietnam","lat":21.1908584,"lon":106.0757517,"add":"Số 3 Đ. Phúc Sơn","ward":"P. Đáp Cầu","dist":"Bắc Ninh","province":"Vietnam","ward2":"Xã Vân Trung","dist2":"Huyện Việt Yên","province2":"Tỉnh Bắc Giang"}
{"id":"0x313573a4ade7db6b:0x2e54f03efa25aff6","tel":"+84 332 120 376","spa":"Nhật Hậu Beauty & Spa","name":"Nhật Hậu Beauty & Spa, thôn Yên Thịnh, Yên Dũng, Bắc Giang 26221, Vietnam","name2":"Nhật Hậu Beauty & Spa, thôn Yên Thịnh, Yên Dũng, Bắc Giang 26221, Vietnam","lat":21.200609,"lon":106.1607792,"add":"thôn Yên Thịnh","ward":"Yên Dũng","dist":"Bắc Giang 26221","province":"Vietnam","ward2":"Xã Vân Trung","dist2":"Huyện Việt Yên","province2":"Tỉnh Bắc Giang"}
{"id":"0x31350df05e0c9615:0x60fc5bbf1e17e43","tel":"+84 329 902 003","spa":"Thanh Hoa Beauty Spa","name":"Thanh Hoa Beauty Spa, Vân Cốc, Việt Yên, Bắc Giang 230000, Vietnam","name2":"Thanh Hoa Beauty Spa, Vân Cốc, Việt Yên, Bắc Giang 230000, Vietnam","lat":21.2407437,"lon":106.1250845,"add":"Vân Cốc","ward":"Việt Yên","dist":"Bắc Giang 230000","province":"Vietnam","ward2":"Xã Vân Trung","dist2":"Huyện Việt Yên","province2":"Tỉnh Bắc Giang"}
{"id":"0x3135139eec7be28d:0x6ac1e0c842bf3e2d","tel":"+84 967 936 693","spa":"Thúy Hường Spa","name":"Thúy Hường Spa, QL37, Bích Sơn, Việt Yên, Bắc Giang, Vietnam","name2":"Thúy Hường Spa, QL37, Bích Sơn, Việt Yên, Bắc Giang, Vietnam","lat":21.2808404,"lon":106.0881613,"add":"QL37","ward":"Bích Sơn","dist":"Việt Yên","province":"Bắc Giang, Vietnam","ward2":"Xã Vân Trung","dist2":"Huyện Việt Yên","province2":"Tỉnh Bắc Giang"}
{"id":"0x3135ab9591c64a35:0x7bf2c95f2ed3bf65","tel":"+84 24 3826 6060","spa":"Midori Spa Hanoi","name":"Midori Spa Hanoi, 60 Ng. Huyện, Hàng Trống, Hoàn Kiếm, Hà Nội, Vietnam","name2":"Midori Spa Hanoi, 60 Ng. Huyện, Hàng Trống, Hoàn Kiếm, Hà Nội, Vietnam","lat":21.0293025,"lon":105.84809109999999,"add":"60 Ng. Huyện","ward":"Hàng Trống","dist":"Hoàn Kiếm","province":"Hà Nội, Vietnam","ward2":"Xã Vân Trung","dist2":"Huyện Việt Yên","province2":"Tỉnh Bắc Giang"}
{"id":"0x416c07600adb89d9:0x7742d650abbb74c6","tel":"+84 377 005 303","spa":"Nguyễn Phượng Spa","name":"Nguyễn Phượng Spa, Tam Tầng, Việt Yên, Bắc Giang, Vietnam","name2":"Nguyễn Phượng Spa, Tam Tầng, Việt Yên, Bắc Giang, Vietnam","lat":21.2197381,"lon":106.101655,"add":"Tam Tầng","ward":"Việt Yên","dist":"Bắc Giang","province":"Vietnam","ward2":"Xã Vân Trung","dist2":"Huyện Việt Yên","province2":"Tỉnh Bắc Giang"}
{"id":"0x31350d4bd85d79f3:0x67d16f02eb9bb88","tel":"+84 376 964 326","spa":"Nhung Hairi Salon&Spa","name":"Nhung Hairi Salon&Spa, 4 My Điền, Thôn My Điền 1, Việt Yên, Bắc Giang, Vietnam","name2":"Nhung Hairi Salon&Spa, 4 My Điền, Thôn My Điền 1, Việt Yên, Bắc Giang, Vietnam","lat":21.2523183,"lon":106.13350489999999,"add":"4 My Điền","ward":"Thôn My Điền 1","dist":"Việt Yên","province":"Bắc Giang, Vietnam","ward2":"Xã Vân Trung","dist2":"Huyện Việt Yên","province2":"Tỉnh Bắc Giang"}
{"id":"0x31350d96f7445725:0x4e8e6cdb3b3be81e","tel":"+84 366 555 683","spa":"Eva Beauty and Nail","name":"64PJ+C84 Eva Beauty and Nail, Vân Cốc, Việt Yên, Bắc Giang, Vietnam","name2":"64PJ+C84 Eva Beauty and Nail, Vân Cốc, Việt Yên, Bắc Giang, Vietnam","lat":21.2360009,"lon":106.1308237,"add":"64PJ+C84","ward":"Vân Cốc","dist":"Việt Yên","province":"Bắc Giang, Vietnam","ward2":"Xã Vân Trung","dist2":"Huyện Việt Yên","province2":"Tỉnh Bắc Giang"}
{"id":"0x313573c0e136a3a1:0xfb9f599539247d16","tel":"+84 377 813 952","spa":"Spa thanh hiền","name":"752H+F2P Spa thanh hiền, Đào Toàn Bân, Song Khê, Yên Dũng, Bắc Giang, Vietnam","name2":"752H+F2P Spa thanh hiền, Đào Toàn Bân, Song Khê, Yên Dũng, Bắc Giang, Vietnam","lat":21.2512197,"lon":106.17756899999999,"add":"752H+F2P, Đào Toàn Bân","ward":"Song Khê","dist":"Yên Dũng","province":"Bắc Giang, Vietnam","ward2":"Xã Vân Trung","dist2":"Huyện Việt Yên","province2":"Tỉnh Bắc Giang"}
{"id":"0x31350d50779880d1:0x7e0eaa9f723aff12","tel":null,"spa":"thuỷ spa my điền khu công nghiệp đình trám","name":"743J+6H6 thuỷ spa my điền khu công nghiệp đình trám, Thôn My Điền 1, Việt Yên, Bắc Giang, Vietnam","name2":"743J+6H6 thuỷ spa my điền khu công nghiệp đình trám, Thôn My Điền 1, Việt Yên, Bắc Giang, Vietnam","lat":21.2530497,"lon":106.1314025,"add":"743J+6H6","ward":"Thôn My Điền 1","dist":"Việt Yên","province":"Bắc Giang, Vietnam","ward2":"Xã Vân Trung","dist2":"Huyện Việt Yên","province2":"Tỉnh Bắc Giang"}
{"id":"0x313513ccfba0fd11:0xb893139afb81fdf6","tel":"+84 961 673 961","spa":"Spa Hana","name":"74F2+GM9 Spa Hana, Unnamed Road, TT. Bích Động, Việt Yên, Bắc Giang, Vietnam","name2":"74F2+GM9 Spa Hana, Unnamed Road, TT. Bích Động, Việt Yên, Bắc Giang, Vietnam","lat":21.2737788,"lon":106.1017227,"add":"74F2+GM9, Unnamed Road","ward":"TT. Bích Động","dist":"Việt Yên","province":"Bắc Giang, Vietnam","ward2":"Xã Vân Trung","dist2":"Huyện Việt Yên","province2":"Tỉnh Bắc Giang"}
{"id":"0x31350d0bf7e63b8f:0xc1da52ffaf9bc593","tel":"+84 942 908 702","spa":"Spa Linh Nhi","name":"Spa Linh Nhi, ngã 3, Việt Yên, Bắc Giang 23000, Vietnam","name2":"Spa Linh Nhi, ngã 3, Việt Yên, Bắc Giang 23000, Vietnam","lat":21.253333899999998,"lon":106.1519331,"add":"ngã 3","ward":"Việt Yên","dist":"Bắc Giang 23000","province":"Vietnam","ward2":"Xã Vân Trung","dist2":"Huyện Việt Yên","province2":"Tỉnh Bắc Giang"}
{"id":"0x31350d8c936af1b3:0x9569dc4b984298d","tel":"+84 824 969 888","spa":"Mai spa & Beauty","name":"743H+CWG Mai spa & Beauty, My Điền, Thôn My Điền 1, Việt Yên, Bắc Giang, Vietnam","name2":"743H+CWG Mai spa & Beauty, My Điền, Thôn My Điền 1, Việt Yên, Bắc Giang, Vietnam","lat":21.253567099999998,"lon":106.12981719999999,"add":"743H+CWG, My Điền","ward":"Thôn My Điền 1","dist":"Việt Yên","province":"Bắc Giang, Vietnam","ward2":"Xã Vân Trung","dist2":"Huyện Việt Yên","province2":"Tỉnh Bắc Giang"}
{"id":"0x31350db83e680cf5:0x3c0047fbe108673c","tel":"+84 392 986 336","spa":"Mười Thơ Beauty","name":"Mười Thơ Beauty, Khu đất mới, Núi Hiểu, Việt Yên, Bắc Giang, Vietnam","name2":"Mười Thơ Beauty, Khu đất mới, Núi Hiểu, Việt Yên, Bắc Giang, Vietnam","lat":21.2246338,"lon":106.10776729999999,"add":"Khu đất mới","ward":"Núi Hiểu","dist":"Việt Yên","province":"Bắc Giang, Vietnam","ward2":"Xã Vân Trung","dist2":"Huyện Việt Yên","province2":"Tỉnh Bắc Giang"}
{"id":"0x313573c60c8ff867:0xebef219cfacbca6b","tel":"+84 988 388 564","spa":"Spa Thanh tú","name":"Spa Thanh tú, thôn Song Khê 2, Xóm bãi chùa, Yên Dũng, Bắc Giang 230000, Vietnam","name2":"Spa Thanh tú, thôn Song Khê 2, Xóm bãi chùa, Yên Dũng, Bắc Giang 230000, Vietnam","lat":21.2516969,"lon":106.17306889999999,"add":"thôn Song Khê 2","ward":"Xóm bãi chùa","dist":"Yên Dũng","province":"Bắc Giang 230000, Vietnam","ward2":"Xã Vân Trung","dist2":"Huyện Việt Yên","province2":"Tỉnh Bắc Giang"}
{"id":"0x313513ed61855417:0x52e7363f5d567181","tel":"+84 868 933 684","spa":"Hai Anh Beauty","name":"Hai Anh Beauty, Ngã tư yên sơn, Việt Yên, Bắc Giang, Vietnam","name2":"Hai Anh Beauty, Ngã tư yên sơn, Việt Yên, Bắc Giang, Vietnam","lat":21.292553899999998,"lon":106.13871329999999,"add":"Ngã tư yên sơn","ward":"Việt Yên","dist":"Bắc Giang","province":"Vietnam","ward2":"Xã Vân Trung","dist2":"Huyện Việt Yên","province2":"Tỉnh Bắc Giang"}
{"id":"0x31350c032b80a28f:0x576656e8ec907d2f","tel":"+84 968 525 133","spa":"Hằng Mộc Academy & Spa","name":"Hằng Mộc Academy & Spa, 83 Lê Đức Thọ, Kinh Bắc, Bắc Ninh, 790000, Vietnam","name2":"Hằng Mộc Academy & Spa, 83 Lê Đức Thọ, Kinh Bắc, Bắc Ninh, 790000, Vietnam","lat":21.1928135,"lon":106.0707891,"add":"83 Lê Đức Thọ","ward":"Kinh Bắc","dist":"Bắc Ninh","province":"790000, Vietnam","ward2":"Xã Vân Trung","dist2":"Huyện Việt Yên","province2":"Tỉnh Bắc Giang"}
{"id":"0x31350d09349aabc1:0x5e9eb5ccf33e94bf","tel":"+84 962 000 768","spa":"Daisy Center - Trung tâm chăm sóc sức khỏe cộng đồng","name":"Daisy Center - Trung tâm chăm sóc sức khỏe cộng đồng, Phố Phúc, Bắc Ninh 16000, Vietnam","name2":"Daisy Center - Trung tâm chăm sóc sức khỏe cộng đồng, Phố Phúc, Bắc Ninh 16000, Vietnam","lat":21.1925342,"lon":106.07388549999999,"add":"Phố Phúc","ward":"Bắc Ninh 16000","dist":"Vietnam","ward2":"Xã Vân Trung","dist2":"Huyện Việt Yên","province2":"Tỉnh Bắc Giang"}
{"id":"0x31350d54fa4f33e3:0x1ba1e3764ab5c0cd","tel":"+84 398 398 296","spa":"Byeolan Spa-trị liệu đau nhức&mỹ phẩm HQ","name":"Vietnam, Bắc Ninh, Thị Cầu, Khu 5, Hoàng Quốc Việt, Byeolan Spa-trị liệu đau nhức&mỹ phẩm HQ","name2":"Vietnam, Bắc Ninh, Thị Cầu, Khu 5, Hoàng Quốc Việt, Byeolan Spa-trị liệu đau nhức&mỹ phẩm HQ","lat":21.1972488,"lon":106.093406,"add":"Vietnam","ward":"Bắc Ninh","dist":"Thị Cầu, Khu 5","province":"Hoàng Quốc Việt","ward2":"Xã Vân Trung","dist2":"Huyện Việt Yên","province2":"Tỉnh Bắc Giang"}
{"id":"0x31350d0e594c5ec1:0x159eebe0bf5c9049","tel":null,"spa":"Viện Thẩm Mỹ Phương Đông","name":"Viện Thẩm Mỹ Phương Đông, 16 Nguyễn Cao, P.Tiền An, Bắc Ninh, Vietnam","name2":"Viện Thẩm Mỹ Phương Đông, 16 Nguyễn Cao, P.Tiền An, Bắc Ninh, Vietnam","lat":21.1795472,"lon":106.06599709999999,"add":"16 Nguyễn Cao","ward":"P.Tiền An","dist":"Bắc Ninh","province":"Vietnam","ward2":"Xã Vân Trung","dist2":"Huyện Việt Yên","province2":"Tỉnh Bắc Giang"}
{"id":"0x31350d39f1320da3:0x8af2e8b46ec32063","tel":null,"spa":"Khánh vân spa","name":"64PJ+C84 Khánh vân spa, Vân Cốc, Việt Yên, Bắc Giang, Vietnam","name2":"64PJ+C84 Khánh vân spa, Vân Cốc, Việt Yên, Bắc Giang, Vietnam","lat":21.2360009,"lon":106.1308237,"add":"64PJ+C84","ward":"Vân Cốc","dist":"Việt Yên","province":"Bắc Giang, Vietnam","ward2":"Xã Vân Trung","dist2":"Huyện Việt Yên","province2":"Tỉnh Bắc Giang"}
{"id":"0x31350db875f1cf87:0x908c67df30e34286","tel":"+84 964 541 003","spa":"Hoàng tiêu spa","name":"64C5+WR5 Hoàng tiêu spa, Núi Hiểu, Việt Yên, Bắc Giang, Vietnam","name2":"64C5+WR5 Hoàng tiêu spa, Núi Hiểu, Việt Yên, Bắc Giang, Vietnam","lat":21.2222518,"lon":106.1096185,"add":"64C5+WR5","ward":"Núi Hiểu","dist":"Việt Yên","province":"Bắc Giang, Vietnam","ward2":"Xã Vân Trung","dist2":"Huyện Việt Yên","province2":"Tỉnh Bắc Giang"}
{"id":"0x31350dece7f6e693:0x9ac93ef426b851e","tel":null,"spa":"Hằng Spa","name":"744J+253 Hằng Spa, My Điền, TT. Nếnh, Việt Yên, Bắc Giang, Vietnam","name2":"744J+253 Hằng Spa, My Điền, TT. Nếnh, Việt Yên, Bắc Giang, Vietnam","lat":21.255012699999998,"lon":106.1304285,"add":"744J+253, My Điền","ward":"TT. Nếnh","dist":"Việt Yên","province":"Bắc Giang, Vietnam","ward2":"Xã Vân Trung","dist2":"Huyện Việt Yên","province2":"Tỉnh Bắc Giang"}
{"id":"0x31350dae5eba56c9:0xc101f59cfa6f2e8b","tel":null,"spa":"Sen Spa","name":"Sen Spa, My Điển 2, Việt Yên, Bắc Giang, Vietnam","name2":"Sen Spa, My Điển 2, Việt Yên, Bắc Giang, Vietnam","lat":21.2530634,"lon":106.13128599999999,"add":"My Điển 2","ward":"Việt Yên","dist":"Bắc Giang","province":"Vietnam","ward2":"Xã Vân Trung","dist2":"Huyện Việt Yên","province2":"Tỉnh Bắc Giang"}
{"id":"0x31350db8f76f4035:0x12f20719ad478385","tel":"+84 879 684 112","spa":"Hạnh Spa - Gội Đầu Dưỡng Sinh","name":"Hạnh Spa - Gội Đầu Dưỡng Sinh, Trung Đồng, Việt Yên, Bắc Giang, Vietnam","name2":"Hạnh Spa - Gội Đầu Dưỡng Sinh, Trung Đồng, Việt Yên, Bắc Giang, Vietnam","lat":21.2252521,"lon":106.12623789999999,"add":"Trung Đồng","ward":"Việt Yên","dist":"Bắc Giang","province":"Vietnam","ward2":"Xã Vân Trung","dist2":"Huyện Việt Yên","province2":"Tỉnh Bắc Giang"}
{"id":"0x31350d9675122e93:0x1fa3f82d3db92700","tel":null,"spa":"TMT SPA","name":"64PJ+C84 TMT SPA, Vân Cốc, Việt Yên, Bắc Giang, Vietnam","name2":"64PJ+C84 TMT SPA, Vân Cốc, Việt Yên, Bắc Giang, Vietnam","lat":21.2360009,"lon":106.1308237,"add":"64PJ+C84","ward":"Vân Cốc","dist":"Việt Yên","province":"Bắc Giang, Vietnam","ward2":"Xã Vân Trung","dist2":"Huyện Việt Yên","province2":"Tỉnh Bắc Giang"}
{"id":"0x31350dada91410f7:0x7fbb3f5f4eae6a23","tel":"+84 325 115 589","spa":"Trung tâm chăm sóc mẹ và bé Mommy Care Center","name":"Trung tâm chăm sóc mẹ và bé Mommy Care Center, Đ. Lạc Long Quân, P. Đáp Cầu, Bắc Ninh, Vietnam","name2":"Trung tâm chăm sóc mẹ và bé Mommy Care Center, Đ. Lạc Long Quân, P. Đáp Cầu, Bắc Ninh, Vietnam","lat":21.191848399999998,"lon":106.0727794,"add":"Đ. Lạc Long Quân","ward":"P. Đáp Cầu","dist":"Bắc Ninh","province":"Vietnam","ward2":"Xã Vân Trung","dist2":"Huyện Việt Yên","province2":"Tỉnh Bắc Giang"}
{"id":"0x31350d4ce7887557:0x9d15b8183267427d","tel":null,"spa":"Phoenix Spa","name":"632R+2H2 Phoenix Spa, Unnamed Road, P. Đáp Cầu, Bắc Ninh, Vietnam","name2":"632R+2H2 Phoenix Spa, Unnamed Road, P. Đáp Cầu, Bắc Ninh, Vietnam","lat":21.2000141,"lon":106.0914,"add":"632R+2H2, Unnamed Road","ward":"P. Đáp Cầu","dist":"Bắc Ninh","province":"Vietnam","ward2":"Xã Vân Trung","dist2":"Huyện Việt Yên","province2":"Tỉnh Bắc Giang"}
{"id":"0x31350f227b28f955:0x80651e571c94a7fa","tel":null,"spa":"SPA Hồng Thắm","name":"7362+R74 SPA Hồng Thắm, Trung Sơn, Việt Yên, Bắc Giang, Vietnam","name2":"7362+R74 SPA Hồng Thắm, Trung Sơn, Việt Yên, Bắc Giang, Vietnam","lat":21.262017399999998,"lon":106.05070889999999,"add":"7362+R74","ward":"Trung Sơn","dist":"Việt Yên","province":"Bắc Giang, Vietnam","ward2":"Xã Vân Trung","dist2":"Huyện Việt Yên","province2":"Tỉnh Bắc Giang"}
{"id":"0x31350d0f8d07c39f:0x5ae614be2b30c921","tel":"+84 982 615 991","spa":"Thu hường spa","name":"64X6+XWQ Thu hường spa, Hoàng Mai, Việt Yên, Bắc Giang, Vietnam","name2":"64X6+XWQ Thu hường spa, Hoàng Mai, Việt Yên, Bắc Giang, Vietnam","lat":21.2499547,"lon":106.1123581,"add":"64X6+XWQ","ward":"Hoàng Mai","dist":"Việt Yên","province":"Bắc Giang, Vietnam","ward2":"Xã Vân Trung","dist2":"Huyện Việt Yên","province2":"Tỉnh Bắc Giang"}
{"id":"0x31350d40e728ce29:0xd8fd7e87b840c61b","tel":null,"spa":"Spa Trang Anh","name":"Spa Trang Anh, 3 Đường Sen Hồ, Hoàng Ninh, Việt Yên, Bắc Giang, Vietnam","name2":"Spa Trang Anh, 3 Đường Sen Hồ, Hoàng Ninh, Việt Yên, Bắc Giang, Vietnam","lat":21.239675,"lon":106.0998477,"add":"3 Đường Sen Hồ","ward":"Hoàng Ninh","dist":"Việt Yên","province":"Bắc Giang, Vietnam","ward2":"Xã Vân Trung","dist2":"Huyện Việt Yên","province2":"Tỉnh Bắc Giang"}
{"id":"0x31350d3967cfd23b:0x6547af9f86994ea5","tel":"+84 335 517 593","spa":"Sen Spa- Dưỡng Sinh Trị Liệu","name":"Sen Spa- Dưỡng Sinh Trị Liệu, My điền 2, Việt Yên, Bắc Giang, Vietnam","name2":"Sen Spa- Dưỡng Sinh Trị Liệu, My điền 2, Việt Yên, Bắc Giang, Vietnam","lat":21.2515589,"lon":106.1368787,"add":"My điền 2","ward":"Việt Yên","dist":"Bắc Giang","province":"Vietnam","ward2":"Xã Vân Trung","dist2":"Huyện Việt Yên","province2":"Tỉnh Bắc Giang"}
{"id":"0x31350d797fa29c8b:0x5c610986e9c6f6ab","tel":null,"spa":"Spa Hiền Đỗ","name":"64C3+6QR Spa Hiền Đỗ, Quang Châu, Việt Yên, Bắc Giang, Vietnam","name2":"64C3+6QR Spa Hiền Đỗ, Quang Châu, Việt Yên, Bắc Giang, Vietnam","lat":21.220627099999998,"lon":106.1044798,"add":"64C3+6QR","ward":"Quang Châu","dist":"Việt Yên","province":"Bắc Giang, Vietnam","ward2":"Xã Vân Trung","dist2":"Huyện Việt Yên","province2":"Tỉnh Bắc Giang"}
{"id":"0x31350d725332f13b:0x25fd80ee38776f2f","tel":null,"spa":"Thu Huyền Spa","name":"64C5+C7J Thu Huyền Spa, Núi Hiểu, Việt Yên, Bắc Giang, Vietnam","name2":"64C5+C7J Thu Huyền Spa, Núi Hiểu, Việt Yên, Bắc Giang, Vietnam","lat":21.221077599999997,"lon":106.1081409,"add":"64C5+C7J","ward":"Núi Hiểu","dist":"Việt Yên","province":"Bắc Giang, Vietnam","ward2":"Xã Vân Trung","dist2":"Huyện Việt Yên","province2":"Tỉnh Bắc Giang"}
{"id":"0x31350d0631eaabe5:0x2cd4a532f726e314","tel":"+84 985 479 947","spa":"Như Hằng beauty spa","name":"Như Hằng beauty spa, Xóm 4 My điền 1 thị trấn Nếnh, Việt Yên, Bắc Giang, Vietnam","name2":"Như Hằng beauty spa, Xóm 4 My điền 1 thị trấn Nếnh, Việt Yên, Bắc Giang, Vietnam","lat":21.252051899999998,"lon":106.1322057,"add":"Xóm 4 My điền 1 thị trấn Nếnh","ward":"Việt Yên","dist":"Bắc Giang","province":"Vietnam","ward2":"Xã Vân Trung","dist2":"Huyện Việt Yên","province2":"Tỉnh Bắc Giang"}
{"id":"0x3134534e7cab6a5b:0x10da4171cfa2bb47","tel":"+84 222 3903 382","spa":"VÂN ANH BEAUTY SPA","name":"VÂN ANH BEAUTY SPA, Phương Liễu, Quế Võ, Bắc Ninh, Vietnam","name2":"VÂN ANH BEAUTY SPA, Phương Liễu, Quế Võ, Bắc Ninh, Vietnam","lat":21.173768,"lon":106.10916859999999,"add":"Phương Liễu","ward":"Quế Võ","dist":"Bắc Ninh","province":"Vietnam","ward2":"Xã Vân Trung","dist2":"Huyện Việt Yên","province2":"Tỉnh Bắc Giang"}
{"id":"0x313454b745e43e6f:0xc493aa3abddf67c0","tel":"+84 896 673 388","spa":"Tiệm Massage 73","name":"Tiệm Massage 73, 73A P. Nguyễn Hoàng, Mỹ Đình, Từ Liêm, Hà Nội, Vietnam","name2":"Tiệm Massage 73, 73A P. Nguyễn Hoàng, Mỹ Đình, Từ Liêm, Hà Nội, Vietnam","lat":21.0329128,"lon":105.7712274,"add":"73A P. Nguyễn Hoàng","ward":"Mỹ Đình","dist":"Từ Liêm","province":"Hà Nội, Vietnam","ward2":"Xã Vân Trung","dist2":"Huyện Việt Yên","province2":"Tỉnh Bắc Giang"}
{"id":"0x31350d89f87c6555:0x6377b9cff3f8f9dd","tel":"+84 964 353 763","spa":"Spa & Phun Xăm Thẩm Mỹ - The Sun","name":"Spa & Phun Xăm Thẩm Mỹ - The Sun, Đường Không Tên, Hoàng Ninh, Việt Yên, Bắc Giang 230000, Vietnam","name2":"Spa & Phun Xăm Thẩm Mỹ - The Sun, Đường Không Tên, Hoàng Ninh, Việt Yên, Bắc Giang 230000, Vietnam","lat":21.2536736,"lon":106.1285908,"add":"Đường Không Tên","ward":"Hoàng Ninh","dist":"Việt Yên","province":"Bắc Giang 230000, Vietnam","ward2":"Xã Vân Trung","dist2":"Huyện Việt Yên","province2":"Tỉnh Bắc Giang"}
{"id":"0x31350ddf5d59e54f:0xf0f7e80405ea9067","tel":"+84 815 898 683","spa":"Minh Huệ PMU & Acadermy","name":"Minh Huệ PMU & Acadermy, Cống Chui Mi Điền 2, thị trấn Nếnh, Việt Yên, Bắc Giang, Vietnam","name2":"Minh Huệ PMU & Acadermy, Cống Chui Mi Điền 2, thị trấn Nếnh, Việt Yên, Bắc Giang, Vietnam","lat":21.2506277,"lon":106.13406189999999,"add":"Cống Chui Mi Điền 2, thị trấn Nếnh","ward":"Việt Yên","dist":"Bắc Giang","province":"Vietnam","ward2":"Xã Vân Trung","dist2":"Huyện Việt Yên","province2":"Tỉnh Bắc Giang"}
{"id":"0x31350d2de0dec38d:0x9b2d9a150752b1de","tel":"+84 389 774 789","spa":"Ngọc Lan Spa Bắc Giang","name":"Ngọc Lan Spa Bắc Giang, My điền 2, Bắc Giang, Vietnam","name2":"Ngọc Lan Spa Bắc Giang, My điền 2, Bắc Giang, Vietnam","lat":21.2404266,"lon":106.10811029999999,"add":"My điền 2","ward":"Bắc Giang","dist":"Vietnam","ward2":"Xã Vân Trung","dist2":"Huyện Việt Yên","province2":"Tỉnh Bắc Giang"}
{"id":"0x31350d7a67413809:0x86b92be54462870c","tel":null,"spa":"Xông hơi - Massage Hồng Anh","name":"742P+VP3 Xông hơi - Massage Hồng Anh, My Điền, Hoàng Ninh, Việt Yên, Bắc Giang, Vietnam","name2":"742P+VP3 Xông hơi - Massage Hồng Anh, My Điền, Hoàng Ninh, Việt Yên, Bắc Giang, Vietnam","lat":21.252144299999998,"lon":106.1367863,"add":"742P+VP3, My Điền","ward":"Hoàng Ninh","dist":"Việt Yên","province":"Bắc Giang, Vietnam","ward2":"Xã Vân Trung","dist2":"Huyện Việt Yên","province2":"Tỉnh Bắc Giang"}
{"id":"0x31351393dbea6d13:0x40e6c099fcb7b9e","tel":null,"spa":"Belle Spa - Trung chăm sóc sức khỏe và làm đẹp công nghệ Bios life USA","name":"Belle Spa - Trung chăm sóc sức khỏe và làm đẹp công nghệ Bios life USA, 534 Thân Nhân Trung, TT. Bích Động, Việt Yên, Bắc Giang, Vietnam","name2":"Belle Spa - Trung chăm sóc sức khỏe và làm đẹp công nghệ Bios life USA, 534 Thân Nhân Trung, TT. Bích Động, Việt Yên, Bắc Giang, Vietnam","lat":21.275451399999998,"lon":106.0976537,"add":"534 Thân Nhân Trung","ward":"TT. Bích Động","dist":"Việt Yên","province":"Bắc Giang, Vietnam","ward2":"Xã Vân Trung","dist2":"Huyện Việt Yên","province2":"Tỉnh Bắc Giang"}
{"id":"0x31350d8746d41d47:0x87adc8edd6f6ae8f","tel":"+84 367 811 222","spa":"Phun Xăm & Spa Tố Uyên","name":"64MH+8WR Phun Xăm & Spa Tố Uyên, Vân Cốc, Việt Yên, Bắc Giang, Vietnam","name2":"64MH+8WR Phun Xăm & Spa Tố Uyên, Vân Cốc, Việt Yên, Bắc Giang, Vietnam","lat":21.233371599999998,"lon":106.129768,"add":"64MH+8WR","ward":"Vân Cốc","dist":"Việt Yên","province":"Bắc Giang, Vietnam","ward2":"Xã Vân Trung","dist2":"Huyện Việt Yên","province2":"Tỉnh Bắc Giang"}
{"id":"0x31350dc645323a2f:0x79566644bb9d3eda","tel":null,"spa":"MAI PHUONG THUY NAILS & SPA","name":"743P+VW9 MAI PHUONG THUY NAILS & SPA, Hoàng Ninh, Việt Yên, Bắc Giang, Vietnam","name2":"743P+VW9 MAI PHUONG THUY NAILS & SPA, Hoàng Ninh, Việt Yên, Bắc Giang, Vietnam","lat":21.2546133,"lon":106.1373449,"add":"743P+VW9","ward":"Hoàng Ninh","dist":"Việt Yên","province":"Bắc Giang, Vietnam","ward2":"Xã Vân Trung","dist2":"Huyện Việt Yên","province2":"Tỉnh Bắc Giang"}
{"id":"0x31350fafc79be5ef:0xc7363a482bc371d0","tel":"+84 862 771 689","spa":"KAY SPA-BẮC NINH","name":"KAY SPA-BẮC NINH, Đ. Thiên Đức, Khúc Xuyên, Bắc Ninh, Vietnam","name2":"KAY SPA-BẮC NINH, Đ. Thiên Đức, Khúc Xuyên, Bắc Ninh, Vietnam","lat":21.189633399999998,"lon":106.0543568,"add":"Đ. Thiên Đức","ward":"Khúc Xuyên","dist":"Bắc Ninh","province":"Vietnam","ward2":"Xã Vân Trung","dist2":"Huyện Việt Yên","province2":"Tỉnh Bắc Giang"}
{"id":"0x313513846edb247b:0x757a830ca3a6d1ed","tel":"+84 968 491 630","spa":"Phương Beauty","name":"74Q3+5WJ Phương Beauty, Tổ dân phố 3, Việt Yên, Bắc Giang, Vietnam","name2":"74Q3+5WJ Phương Beauty, Tổ dân phố 3, Việt Yên, Bắc Giang, Vietnam","lat":21.287972099999998,"lon":106.1047516,"add":"74Q3+5WJ","ward":"Tổ dân phố 3","dist":"Việt Yên","province":"Bắc Giang, Vietnam","ward2":"Xã Vân Trung","dist2":"Huyện Việt Yên","province2":"Tỉnh Bắc Giang"}
{"id":"0x31350dc6ce98f745:0xe9f7e3d4f9eff6d6","tel":"+84 978 723 738","spa":"Hằng Spa","name":"Hằng Spa, Thôn Sy, Yên Dũng, Bắc Giang 237510, Vietnam","name2":"Hằng Spa, Thôn Sy, Yên Dũng, Bắc Giang 237510, Vietnam","lat":21.2332501,"lon":106.15254619999999,"add":"Thôn Sy","ward":"Yên Dũng","dist":"Bắc Giang 237510","province":"Vietnam","ward2":"Xã Vân Trung","dist2":"Huyện Việt Yên","province2":"Tỉnh Bắc Giang"}
{"id":"0x31350d69e9a51dd3:0xe683881067efcc01","tel":"+84 913 845 569","spa":"Triệt Lông Vĩnh Viễn Uy Tín Hàng Đầu Quế Võ Bắc Ninh - hana beauty","name":"Triệt Lông Vĩnh Viễn Uy Tín Hàng Đầu Quế Võ Bắc Ninh - hana beauty, Tòa Hana Beauty, Làn 3 Đ. Phương Cầu, Phương Liễu, Quế Võ, Bắc Ninh 16000, Vietnam","name2":"Triệt Lông Vĩnh Viễn Uy Tín Hàng Đầu Quế Võ Bắc Ninh - hana beauty, Tòa Hana Beauty, Làn 3 Đ. Phương Cầu, Phương Liễu, Quế Võ, Bắc Ninh 16000, Vietnam","lat":21.170729899999998,"lon":106.1051248,"add":"Tòa Hana Beauty, Làn 3 Đ. Phương Cầu","ward":"Phương Liễu","dist":"Quế Võ","province":"Bắc Ninh 16000, Vietnam","ward2":"Xã Vân Trung","dist2":"Huyện Việt Yên","province2":"Tỉnh Bắc Giang"}
{"id":"0x3135adf3329cda09:0x2c75a5f573c0d9cc","tel":"+84 858 355 656","spa":"Oma - THE SPA. Traditional","name":"Oma - THE SPA. Traditional, Mặt sau tòa nhà Golden Palace, 54 Đ. Lê Văn Lương, Nhân Chính, Thanh Xuân, Hà Nội 100000, Vietnam","name2":"Oma - THE SPA. Traditional, Mặt sau tòa nhà Golden Palace, 54 Đ. Lê Văn Lương, Nhân Chính, Thanh Xuân, Hà Nội 100000, Vietnam","lat":21.0046258,"lon":105.8020688,"add":"Mặt sau tòa nhà Golden Palace, 54 Đ. Lê Văn Lương","ward":"Nhân Chính","dist":"Thanh Xuân","province":"Hà Nội 100000, Vietnam","ward2":"Xã Vân Trung","dist2":"Huyện Việt Yên","province2":"Tỉnh Bắc Giang"}
{"id":"0x3135731acb9d4a79:0xa9b185af032a8cb1","tel":"+84 373 801 947","spa":"Spa Ngọc Ngô","name":"Spa Ngọc Ngô, Unnamed Road, Yên Lư, Yên Dũng, Bắc Giang, Vietnam","name2":"Spa Ngọc Ngô, Unnamed Road, Yên Lư, Yên Dũng, Bắc Giang, Vietnam","lat":21.201804199999998,"lon":106.1603341,"add":"Unnamed Road","ward":"Yên Lư","dist":"Yên Dũng","province":"Bắc Giang, Vietnam","ward2":"Xã Vân Trung","dist2":"Huyện Việt Yên","province2":"Tỉnh Bắc Giang"}
{"id":"0x31350dc20a54cddd:0xd4838c82b9b82f81","tel":"+84 961 597 826","spa":"Spa Hương Giang","name":"Spa Hương Giang, Đường Sen Hồ, Quảng Minh, Việt Yên, Bắc Giang, Vietnam","name2":"Spa Hương Giang, Đường Sen Hồ, Quảng Minh, Việt Yên, Bắc Giang, Vietnam","lat":21.238422399999997,"lon":106.0902205,"add":"Đường Sen Hồ","ward":"Quảng Minh","dist":"Việt Yên","province":"Bắc Giang, Vietnam","ward2":"Xã Vân Trung","dist2":"Huyện Việt Yên","province2":"Tỉnh Bắc Giang"}
{"id":"0x31350d1dc3da8ca3:0x63543db802bbec16","tel":null,"spa":"Hảo hảo spa","name":"743H+RF4 Hảo hảo spa, Unnamed Road, Việt Yên, Bắc Giang, Vietnam","name2":"743H+RF4 Hảo hảo spa, Unnamed Road, Việt Yên, Bắc Giang, Vietnam","lat":21.254514099999998,"lon":106.128703,"add":"743H+RF4","ward":"Unnamed Road","dist":"Việt Yên","province":"Bắc Giang, Vietnam","ward2":"Xã Vân Trung","dist2":"Huyện Việt Yên","province2":"Tỉnh Bắc Giang"}
{"id":"0x31350d09c44efdbf:0x80bbc27014aba1bd","tel":null,"spa":"Spa LINH OANH","name":"6492+VRM Spa LINH OANH, xóm Chùa, Việt Yên, Bắc Giang, Vietnam","name2":"6492+VRM Spa LINH OANH, xóm Chùa, Việt Yên, Bắc Giang, Vietnam","lat":21.2226756,"lon":106.1242055,"add":"6492+VRM","ward":"xóm Chùa","dist":"Việt Yên","province":"Bắc Giang, Vietnam","ward2":"Xã Vân Trung","dist2":"Huyện Việt Yên","province2":"Tỉnh Bắc Giang"}
{"id":"0x31350d05d1da7f49:0xa754b39b7d0b6868","tel":"+84 359 971 976","spa":"Spa Thanh nhàn","name":"Spa Thanh nhàn, Chợ, Quang Biểu, Việt Yên, Bắc Giang, Vietnam","name2":"Spa Thanh nhàn, Chợ, Quang Biểu, Việt Yên, Bắc Giang, Vietnam","lat":21.2042853,"lon":106.1204638,"add":"Chợ","ward":"Quang Biểu","dist":"Việt Yên","province":"Bắc Giang, Vietnam","ward2":"Xã Vân Trung","dist2":"Huyện Việt Yên","province2":"Tỉnh Bắc Giang"}
{"id":"0x313512655ffa8b75:0x5ef67605f4cbef0b","tel":"+84 987 962 898","spa":"Spa Vinh Hoa","name":"73FX+RP8 Spa Vinh Hoa, Nguyên Hồng, Việt Yên, Bắc Giang, Vietnam","name2":"73FX+RP8 Spa Vinh Hoa, Nguyên Hồng, Việt Yên, Bắc Giang, Vietnam","lat":21.2745474,"lon":106.0993354,"add":"73FX+RP8","ward":"Nguyên Hồng","dist":"Việt Yên","province":"Bắc Giang, Vietnam","ward2":"Xã Vân Trung","dist2":"Huyện Việt Yên","province2":"Tỉnh Bắc Giang"}
{"id":"0x31350d504561c899:0xfbca187042a19279","tel":"+84 385 879 855","spa":"Hoàng Mỹ Hiền Spa-Beauty-Phun Xăm Thẩm Mỹ","name":"Hoàng Mỹ Hiền Spa-Beauty-Phun Xăm Thẩm Mỹ, khu đất mới núi hiểu quang châu việt yên, bắc giang, Bắc Giang, Vietnam","name2":"Hoàng Mỹ Hiền Spa-Beauty-Phun Xăm Thẩm Mỹ, khu đất mới núi hiểu quang châu việt yên, bắc giang, Bắc Giang, Vietnam","lat":21.223891899999998,"lon":106.1083445,"add":"khu đất mới núi hiểu quang châu việt yên","ward":"bắc giang","dist":"Bắc Giang","province":"Vietnam","ward2":"Xã Vân Trung","dist2":"Huyện Việt Yên","province2":"Tỉnh Bắc Giang"}
{"id":"0x31350d300d1c1599:0xcc5f24d17ed8be7e","tel":"+84 356 168 521","spa":"spa OANH TŨN beauty center","name":"64FF+3MG spa OANH TŨN beauty center, Trung Đồng, Việt Yên, Bắc Giang, Vietnam","name2":"64FF+3MG spa OANH TŨN beauty center, Trung Đồng, Việt Yên, Bắc Giang, Vietnam","lat":21.2226896,"lon":106.1241967,"add":"64FF+3MG","ward":"Trung Đồng","dist":"Việt Yên","province":"Bắc Giang, Vietnam","ward2":"Xã Vân Trung","dist2":"Huyện Việt Yên","province2":"Tỉnh Bắc Giang"}
{"id":"0x31350d81cab55e75:0xdd39a1a68a029e58","tel":"+84 979 409 530","spa":"Spa Việt Trung","name":"65R3+5P5 Spa Việt Trung, Xóm Chiền, Yên Dũng, Bắc Giang, Vietnam","name2":"65R3+5P5 Spa Việt Trung, Xóm Chiền, Yên Dũng, Bắc Giang, Vietnam","lat":21.2403661,"lon":106.15434769999999,"add":"65R3+5P5","ward":"Xóm Chiền","dist":"Yên Dũng","province":"Bắc Giang, Vietnam","ward2":"Xã Vân Trung","dist2":"Huyện Việt Yên","province2":"Tỉnh Bắc Giang"}
{"id":"0x31350dee6f5b0e35:0x7e172a39dc4dd0a7","tel":null,"spa":"Spa THANH LUẬN","name":"64CQ+W4Q Spa THANH LUẬN, Vân Trung, Việt Yên, Bắc Giang, Vietnam","name2":"64CQ+W4Q Spa THANH LUẬN, Vân Trung, Việt Yên, Bắc Giang, Vietnam","lat":21.2223094,"lon":106.13789039999999,"add":"64CQ+W4Q","ward":"Vân Trung","dist":"Việt Yên","province":"Bắc Giang, Vietnam","ward2":"Xã Vân Trung","dist2":"Huyện Việt Yên","province2":"Tỉnh Bắc Giang"}
{"id":"0x31350db2bedf8ad9:0x1294c6c7e92261f7","tel":null,"spa":"Spa Hà Linh","name":"638X+J62 Spa Hà Linh, ĐT295B, Quang Châu, Việt Yên, Bắc Giang, Vietnam","name2":"638X+J62 Spa Hà Linh, ĐT295B, Quang Châu, Việt Yên, Bắc Giang, Vietnam","lat":21.2165247,"lon":106.0980055,"add":"638X+J62, ĐT295B","ward":"Quang Châu","dist":"Việt Yên","province":"Bắc Giang, Vietnam","ward2":"Xã Vân Trung","dist2":"Huyện Việt Yên","province2":"Tỉnh Bắc Giang"}
{"id":"0x31350ba6b2b49923:0x901dd1dca0967ebf","tel":"+84 949 933 788","spa":"Minh Anh Beauty and Clinic","name":"544P+6HV Minh Anh Beauty and Clinic, Thôn Mao Dộc, Quế Võ, Bắc Ninh 16815, Vietnam","name2":"544P+6HV Minh Anh Beauty and Clinic, Thôn Mao Dộc, Quế Võ, Bắc Ninh 16815, Vietnam","lat":21.155603,"lon":106.13642349999999,"add":"544P+6HV","ward":"Thôn Mao Dộc","dist":"Quế Võ","province":"Bắc Ninh 16815, Vietnam","ward2":"Xã Vân Trung","dist2":"Huyện Việt Yên","province2":"Tỉnh Bắc Giang"}
{"id":"0x31350de84fc3599d:0xcdd3b6c926cb0286","tel":"+84 849 229 992","spa":"THẨM MỸ THU HIỀN","name":"THẨM MỸ THU HIỀN, My Điền, Việt Yên, Bắc Giang 26172, Vietnam","name2":"THẨM MỸ THU HIỀN, My Điền, Việt Yên, Bắc Giang 26172, Vietnam","lat":21.252000799999998,"lon":106.1322441,"add":"My Điền","ward":"Việt Yên","dist":"Bắc Giang 26172","province":"Vietnam","ward2":"Xã Vân Trung","dist2":"Huyện Việt Yên","province2":"Tỉnh Bắc Giang"}
{"id":"0x31350dc35dc5ad6d:0xce2881023514137d","tel":null,"spa":"Lucky Beauty Spa","name":"64FC+739 Lucky Beauty Spa, Vân Trung, Việt Yên, Bắc Giang, Vietnam","name2":"64FC+739 Lucky Beauty Spa, Vân Trung, Việt Yên, Bắc Giang, Vietnam","lat":21.223088999999998,"lon":106.12002199999999,"add":"64FC+739","ward":"Vân Trung","dist":"Việt Yên","province":"Bắc Giang, Vietnam","ward2":"Xã Vân Trung","dist2":"Huyện Việt Yên","province2":"Tỉnh Bắc Giang"}
{"id":"0x31350b4328565025:0xdce5f1966efe319d","tel":null,"spa":"H2 Spa & Academy","name":"543Q+636 H2 Spa & Academy, Unnamed, Road, Quế Võ, Bắc Ninh, Vietnam","name2":"543Q+636 H2 Spa & Academy, Unnamed, Road, Quế Võ, Bắc Ninh, Vietnam","lat":21.1530319,"lon":106.13764809999999,"add":"543Q+636, Unnamed","ward":"Road","dist":"Quế Võ","province":"Bắc Ninh, Vietnam","ward2":"Xã Vân Trung","dist2":"Huyện Việt Yên","province2":"Tỉnh Bắc Giang"}
{"id":"0x31350d1ee764b033:0xf948d08642be091","tel":null,"spa":"Nail.Mi.Spa Ngọc Quỳnh","name":"Nail.Mi.Spa Ngọc Quỳnh, Vân Cốc, Việt Yên, Bắc Giang, Vietnam","name2":"Nail.Mi.Spa Ngọc Quỳnh, Vân Cốc, Việt Yên, Bắc Giang, Vietnam","lat":21.239565199999998,"lon":106.125986,"add":"Vân Cốc","ward":"Việt Yên","dist":"Bắc Giang","province":"Vietnam","ward2":"Xã Vân Trung","dist2":"Huyện Việt Yên","province2":"Tỉnh Bắc Giang"}
{"id":"0x31350d649241fec3:0x19f3b9880badd6b1","tel":null,"spa":"Spa Phương Ánh","name":"548R+7PC Spa Phương Ánh, P. Hà Liễu, Hà Liễu, Quế Võ, Bắc Ninh, Vietnam","name2":"548R+7PC Spa Phương Ánh, P. Hà Liễu, Hà Liễu, Quế Võ, Bắc Ninh, Vietnam","lat":21.1656764,"lon":106.1417704,"add":"548R+7PC, P. Hà Liễu","ward":"Hà Liễu","dist":"Quế Võ","province":"Bắc Ninh, Vietnam","ward2":"Xã Vân Trung","dist2":"Huyện Việt Yên","province2":"Tỉnh Bắc Giang"}
{"id":"0x31350dd14f9c4e47:0x2d0cb4d5792ce41e","tel":"+84 385 974 168","spa":"Spa thoa hana phun xăm thẩm Mỹ","name":"64RG+6MM Spa thoa hana phun xăm thẩm Mỹ, P. Cong, Vân Trung, Việt Yên, Bắc Giang, Vietnam","name2":"64RG+6MM Spa thoa hana phun xăm thẩm Mỹ, P. Cong, Vân Trung, Việt Yên, Bắc Giang, Vietnam","lat":21.2405993,"lon":106.12666619999999,"add":"64RG+6MM, P. Cong","ward":"Vân Trung","dist":"Việt Yên","province":"Bắc Giang, Vietnam","ward2":"Xã Vân Trung","dist2":"Huyện Việt Yên","province2":"Tỉnh Bắc Giang"}
{"id":"0x31350d4ccec4bab3:0x803092f08f938e6","tel":null,"spa":"Cúc kunn beauty","name":"65R4+2M3 Cúc kunn beauty, Xóm Chiền, Yên Dũng, Bắc Giang, Vietnam","name2":"65R4+2M3 Cúc kunn beauty, Xóm Chiền, Yên Dũng, Bắc Giang, Vietnam","lat":21.240016999999998,"lon":106.15666019999999,"add":"65R4+2M3","ward":"Xóm Chiền","dist":"Yên Dũng","province":"Bắc Giang, Vietnam","ward2":"Xã Vân Trung","dist2":"Huyện Việt Yên","province2":"Tỉnh Bắc Giang"}
{"id":"0x31350d97db4acda5:0xc8c17c24abcde1f0","tel":"+84 934 458 389","spa":"QUYÊN SPA chuyên chăm sóc da & gội đầu","name":"QUYÊN SPA chuyên chăm sóc da & gội đầu, 82 Đấu Mã, P. Thị Cầu, Bắc Ninh, Vietnam","name2":"QUYÊN SPA chuyên chăm sóc da & gội đầu, 82 Đấu Mã, P. Thị Cầu, Bắc Ninh, Vietnam","lat":21.1901433,"lon":106.0861662,"add":"82 Đấu Mã","ward":"P. Thị Cầu","dist":"Bắc Ninh","province":"Vietnam","ward2":"Xã Vân Trung","dist2":"Huyện Việt Yên","province2":"Tỉnh Bắc Giang"}
{"id":"0x31350dc824ed6d73:0x90c78ec17e65cead","tel":null,"spa":"Núi Hiểu, Quang Châu","name":"64G4+6X Núi Hiểu, Quang Châu, Quang Châu, Việt Yên, Bắc Giang, Vietnam","name2":"64G4+6X Núi Hiểu, Quang Châu, Quang Châu, Việt Yên, Bắc Giang, Vietnam","lat":21.2256567,"lon":106.1074829,"add":"64G4+6X","ward":"Quang Châu","dist":"Việt Yên","province":"Bắc Giang, Vietnam","ward2":"Xã Vân Trung","dist2":"Huyện Việt Yên","province2":"Tỉnh Bắc Giang"}
{"id":"0x31350c06fe94fa1f:0x2d1f47bdf64bc66a","tel":"+84 969 388 988","spa":"Mai Anh Spa","name":"53FF+V27 Mai Anh Spa, Nguyễn Đăng Đạo, Đại Phúc, Bắc Ninh, Vietnam","name2":"53FF+V27 Mai Anh Spa, Nguyễn Đăng Đạo, Đại Phúc, Bắc Ninh, Vietnam","lat":21.1746645,"lon":106.07255789999999,"add":"53FF+V27, Nguyễn Đăng Đạo","ward":"Đại Phúc","dist":"Bắc Ninh","province":"Vietnam","ward2":"Xã Vân Trung","dist2":"Huyện Việt Yên","province2":"Tỉnh Bắc Giang"}
{"id":"0x31350d0f99818ebb:0xdc8e9f767c9fa3cb","tel":"+84 977 991 759","spa":"Nhất Linh World - My Điền Bắc Giang","name":"Nhất Linh World - My Điền Bắc Giang, Cống chui My Điền, Bắc Giang 661045, Vietnam","name2":"Nhất Linh World - My Điền Bắc Giang, Cống chui My Điền, Bắc Giang 661045, Vietnam","lat":21.2508794,"lon":106.1344749,"add":"Cống chui My Điền","ward":"Bắc Giang 661045","dist":"Vietnam","ward2":"Xã Vân Trung","dist2":"Huyện Việt Yên","province2":"Tỉnh Bắc Giang"}
{"id":"0x31350d4278594661:0x2ed3bd6e04ee78f1","tel":"+84 964 448 398","spa":"Hải Yến Spa","name":"53RF+W37 Hải Yến Spa, Đ. Lạc Long Quân, P. Đáp Cầu, Bắc Ninh, Vietnam","name2":"53RF+W37 Hải Yến Spa, Đ. Lạc Long Quân, P. Đáp Cầu, Bắc Ninh, Vietnam","lat":21.1922754,"lon":106.07267739999999,"add":"53RF+W37, Đ. Lạc Long Quân","ward":"P. Đáp Cầu","dist":"Bắc Ninh","province":"Vietnam","ward2":"Xã Vân Trung","dist2":"Huyện Việt Yên","province2":"Tỉnh Bắc Giang"}
{"id":"0x31350de755364edf:0x56782ad576e49949","tel":null,"spa":"Phượng Spa","name":"Phượng Spa, Ngã 3 ,Xóm 4, Thôn My Điền 1, Việt Yên, Bắc Giang, Vietnam","name2":"Phượng Spa, Ngã 3 ,Xóm 4, Thôn My Điền 1, Việt Yên, Bắc Giang, Vietnam","lat":21.2506037,"lon":106.1343563,"add":"Ngã 3 ,Xóm 4","ward":"Thôn My Điền 1","dist":"Việt Yên","province":"Bắc Giang, Vietnam","ward2":"Xã Vân Trung","dist2":"Huyện Việt Yên","province2":"Tỉnh Bắc Giang"}
{"id":"0x31350db42111b363:0x314b0a516523f397","tel":"+84 354 328 399","spa":"Spa Thúy Vân","name":"6492+VPG Spa Thúy Vân, ĐT295B, Quang Châu, Việt Yên, Bắc Giang, Vietnam","name2":"6492+VPG Spa Thúy Vân, ĐT295B, Quang Châu, Việt Yên, Bắc Giang, Vietnam","lat":21.219687999999998,"lon":106.10181419999999,"add":"6492+VPG, ĐT295B","ward":"Quang Châu","dist":"Việt Yên","province":"Bắc Giang, Vietnam","ward2":"Xã Vân Trung","dist2":"Huyện Việt Yên","province2":"Tỉnh Bắc Giang"}
{"id":"0x31350da6dee93cd1:0x7e0811d7ac447d4e","tel":null,"spa":"Spa Bảo Anh","name":"Spa Bảo Anh, 17-3 Đường Sen Hồ, Hoàng Ninh, Việt Yên, Bắc Giang, Vietnam","name2":"Spa Bảo Anh, 17-3 Đường Sen Hồ, Hoàng Ninh, Việt Yên, Bắc Giang, Vietnam","lat":21.2397198,"lon":106.09951339999999,"add":"17-3 Đường Sen Hồ","ward":"Hoàng Ninh","dist":"Việt Yên","province":"Bắc Giang, Vietnam","ward2":"Xã Vân Trung","dist2":"Huyện Việt Yên","province2":"Tỉnh Bắc Giang"}
