{"id":"0x316e0d0c1f786d3d:0x493e2bc2edb84217","tel":null,"spa":"Spa Yến Vũ","name":"6645+48W Spa Yến Vũ, Quang Trung, TT. Ea Drăng, Ea H'Leo, Đắk Lắk, Vietnam","name2":"6645+48W Spa Yến Vũ, Quang Trung, TT. Ea Drăng, Ea H'Leo, Đắk Lắk, Vietnam","lat":13.205370199999999,"lon":108.20831369999999,"add":"6645+48W, Quang Trung","ward":"TT. Ea Drăng","dist":"Ea H'Leo","province":"Đắk Lắk, Vietnam","ward2":"Xã Ea Wy","dist2":"Huyện Ea H'leo","province2":"Tỉnh Đắk Lắk"}
{"id":"0x316e0d3223147d5f:0x5188fcb3fdd4b7d6","tel":"+84 967 070 809","spa":"An Nhiên Spa - Massage bấm huyệt","name":"An Nhiên Spa - Massage bấm huyệt, 44 Trần Quốc Toản, TT. Ea Drăng, Ea H'Leo, Đắk Lắk, Vietnam","name2":"An Nhiên Spa - Massage bấm huyệt, 44 Trần Quốc Toản, TT. Ea Drăng, Ea H'Leo, Đắk Lắk, Vietnam","lat":13.2019887,"lon":108.2108239,"add":"44 Trần Quốc Toản","ward":"TT. Ea Drăng","dist":"Ea H'Leo","province":"Đắk Lắk, Vietnam","ward2":"Xã Ea Wy","dist2":"Huyện Ea H'leo","province2":"Tỉnh Đắk Lắk"}
{"id":"0x316e0d888d907b39:0x3f19c23917b648d","tel":"+84 854 017 817","spa":"Quỳnh Hương Spa&Beauty","name":"Quỳnh Hương Spa&Beauty, 08 Lý Tự Trọng, TT. Ea Drăng, Ea H'Leo, Đắk Lắk, Vietnam","name2":"Quỳnh Hương Spa&Beauty, 08 Lý Tự Trọng, TT. Ea Drăng, Ea H'Leo, Đắk Lắk, Vietnam","lat":13.2060917,"lon":108.21259789999999,"add":"08 Lý Tự Trọng","ward":"TT. Ea Drăng","dist":"Ea H'Leo","province":"Đắk Lắk, Vietnam","ward2":"Xã Ea Wy","dist2":"Huyện Ea H'leo","province2":"Tỉnh Đắk Lắk"}
{"id":"0x316e0d6d4dd0770f:0xfcbb19f3b9afd1ee","tel":null,"spa":"Massage Hải Âu","name":"6657+XPQ Massage Hải Âu, Ama Khê, TT. Ea Drăng, Ea H'Leo, Đắk Lắk, Vietnam","name2":"6657+XPQ Massage Hải Âu, Ama Khê, TT. Ea Drăng, Ea H'Leo, Đắk Lắk, Vietnam","lat":13.209957099999999,"lon":108.21436059999999,"add":"6657+XPQ, Ama Khê","ward":"TT. Ea Drăng","dist":"Ea H'Leo","province":"Đắk Lắk, Vietnam","ward2":"Xã Ea Wy","dist2":"Huyện Ea H'leo","province2":"Tỉnh Đắk Lắk"}
{"id":"0x316e0d4f71780021:0xa84d86cce0423fcd","tel":"+84 984 961 496","spa":"Spa Cô Mị","name":"Spa Cô Mị, 527 Giải Phóng, TT. Ea Drăng, Ea H'Leo, Đắk Lắk, Vietnam","name2":"Spa Cô Mị, 527 Giải Phóng, TT. Ea Drăng, Ea H'Leo, Đắk Lắk, Vietnam","lat":13.2083961,"lon":108.2077382,"add":"527 Giải Phóng","ward":"TT. Ea Drăng","dist":"Ea H'Leo","province":"Đắk Lắk, Vietnam","ward2":"Xã Ea Wy","dist2":"Huyện Ea H'leo","province2":"Tỉnh Đắk Lắk"}
{"id":"0x316e0dfe6ce57be9:0x446b981a23d6d535","tel":null,"spa":"Spa Thuý Nga","name":"Spa Thuý Nga, 26 Quang Trung, Tổ Dân Phố 8, Ea H'Leo, Đắk Lắk, Vietnam","name2":"Spa Thuý Nga, 26 Quang Trung, Tổ Dân Phố 8, Ea H'Leo, Đắk Lắk, Vietnam","lat":13.205327599999999,"lon":108.2079593,"add":"26 Quang Trung","ward":"Tổ Dân Phố 8","dist":"Ea H'Leo","province":"Đắk Lắk, Vietnam","ward2":"Xã Ea Wy","dist2":"Huyện Ea H'leo","province2":"Tỉnh Đắk Lắk"}
{"id":"0x316e0d0cff431edd:0xf2c34c8808048270","tel":"+84 944 635 779","spa":"Spa Thúy Nga","name":"6646+J9W Spa Thúy Nga, Nơ Trang Lơng, TT. Ea Drăng, Ea H'Leo, Đắk Lắk, Vietnam","name2":"6646+J9W Spa Thúy Nga, Nơ Trang Lơng, TT. Ea Drăng, Ea H'Leo, Đắk Lắk, Vietnam","lat":13.2066121,"lon":108.2109424,"add":"6646+J9W, Nơ Trang Lơng","ward":"TT. Ea Drăng","dist":"Ea H'Leo","province":"Đắk Lắk, Vietnam","ward2":"Xã Ea Wy","dist2":"Huyện Ea H'leo","province2":"Tỉnh Đắk Lắk"}
{"id":"0x316e0de46ebc694b:0x636aef21382fed3c","tel":null,"spa":"Hope Spa","name":"Hope Spa, 14 Nơ Trang Lơng, TT. Ea Drăng, Ea H'Leo, Đắk Lắk, Vietnam","name2":"Hope Spa, 14 Nơ Trang Lơng, TT. Ea Drăng, Ea H'Leo, Đắk Lắk, Vietnam","lat":13.207633999999999,"lon":108.20868999999999,"add":"14 Nơ Trang Lơng","ward":"TT. Ea Drăng","dist":"Ea H'Leo","province":"Đắk Lắk, Vietnam","ward2":"Xã Ea Wy","dist2":"Huyện Ea H'leo","province2":"Tỉnh Đắk Lắk"}
{"id":"0x316e0d0dade91681:0x6e12d524589c8d80","tel":null,"spa":"Spa Út Nga","name":"Spa Út Nga, 39 Nơ Trang Lơng, TT. Ea Drăng, Ea H'Leo, Đắk Lắk, Vietnam","name2":"Spa Út Nga, 39 Nơ Trang Lơng, TT. Ea Drăng, Ea H'Leo, Đắk Lắk, Vietnam","lat":13.2069757,"lon":108.2104251,"add":"39 Nơ Trang Lơng","ward":"TT. Ea Drăng","dist":"Ea H'Leo","province":"Đắk Lắk, Vietnam","ward2":"Xã Ea Wy","dist2":"Huyện Ea H'leo","province2":"Tỉnh Đắk Lắk"}
{"id":"0x3171f7d86da2dc43:0x834b3cdbe2f3821e","tel":"+84 262 3837 979","spa":"Spa Vệ Nữ - Venus","name":"Spa Vệ Nữ - Venus, 09 Chế Lan Viên, Tân Lợi, Thành phố Buôn Ma Thuột, Đắk Lắk, Vietnam","name2":"Spa Vệ Nữ - Venus, 09 Chế Lan Viên, Tân Lợi, Thành phố Buôn Ma Thuột, Đắk Lắk, Vietnam","lat":12.6917903,"lon":108.04884,"add":"09 Chế Lan Viên","ward":"Tân Lợi","dist":"Thành phố Buôn Ma Thuột","province":"Đắk Lắk, Vietnam","ward2":"Xã Ea Wy","dist2":"Huyện Ea H'leo","province2":"Tỉnh Đắk Lắk"}
{"id":"0x316e0d4c19044c9d:0x15b2e643aca05df7","tel":"+84 976 979 335","spa":"TATTOO & SPA","name":"6645+59J TATTOO & SPA, Quang Trung, TT. Ea Drăng, Ea H'Leo, Đắk Lắk, Vietnam","name2":"6645+59J TATTOO & SPA, Quang Trung, TT. Ea Drăng, Ea H'Leo, Đắk Lắk, Vietnam","lat":13.205456499999999,"lon":108.208379,"add":"6645+59J, Quang Trung","ward":"TT. Ea Drăng","dist":"Ea H'Leo","province":"Đắk Lắk, Vietnam","ward2":"Xã Ea Wy","dist2":"Huyện Ea H'leo","province2":"Tỉnh Đắk Lắk"}
{"id":"0x316e0b53004703f7:0xc7279400094a5724","tel":null,"spa":"Spa & Yoga","name":"6367+G8H Spa & Yoga, Unnamed, Road, Ea H'Leo, Đắk Lắk, Vietnam","name2":"6367+G8H Spa & Yoga, Unnamed, Road, Ea H'Leo, Đắk Lắk, Vietnam","lat":13.211317999999999,"lon":108.06335519999999,"add":"6367+G8H, Unnamed","ward":"Road","dist":"Ea H'Leo","province":"Đắk Lắk, Vietnam","ward2":"Xã Ea Wy","dist2":"Huyện Ea H'leo","province2":"Tỉnh Đắk Lắk"}
{"id":"0x316e733684059df7:0x91be4f48cd5b651e","tel":null,"spa":"Spa Phương Ngọc","name":"8543+92X Spa Phương Ngọc, Ea H'leo, Ea H'Leo, Đắk Lắk, Vietnam","name2":"8543+92X Spa Phương Ngọc, Ea H'leo, Ea H'Leo, Đắk Lắk, Vietnam","lat":13.305987799999999,"lon":108.15262369999999,"add":"8543+92X","ward":"Ea H'leo","dist":"Ea H'Leo","province":"Đắk Lắk, Vietnam","ward2":"Xã Ea Wy","dist2":"Huyện Ea H'leo","province2":"Tỉnh Đắk Lắk"}
{"id":"0x316e0d405d34f3bf:0x5ed301f67da746df","tel":"+84 911 556 783","spa":"Bela spa","name":"Bela spa, 20 Quang Trung, TT. Ea Drăng, Ea H'Leo, Đắk Lắk, Vietnam","name2":"Bela spa, 20 Quang Trung, TT. Ea Drăng, Ea H'Leo, Đắk Lắk, Vietnam","lat":13.2066619,"lon":108.2088155,"add":"20 Quang Trung","ward":"TT. Ea Drăng","dist":"Ea H'Leo","province":"Đắk Lắk, Vietnam","ward2":"Xã Ea Wy","dist2":"Huyện Ea H'leo","province2":"Tỉnh Đắk Lắk"}
{"id":"0x316e0d080dfc4031:0x7534875c60dba522","tel":"+84 973 831 865","spa":"Spa Thanh Thúy","name":"56X3+X4Q Spa Thanh Thúy, Đường số 4, TT. Ea Drăng, Ea H'Leo, Đắk Lắk 630000, Vietnam","name2":"56X3+X4Q Spa Thanh Thúy, Đường số 4, TT. Ea Drăng, Ea H'Leo, Đắk Lắk 630000, Vietnam","lat":13.199969399999999,"lon":108.202872,"add":"56X3+X4Q, Đường số 4","ward":"TT. Ea Drăng","dist":"Ea H'Leo","province":"Đắk Lắk 630000, Vietnam","ward2":"Xã Ea Wy","dist2":"Huyện Ea H'leo","province2":"Tỉnh Đắk Lắk"}
{"id":"0x316e0d22d03fe0d9:0x660625ae2fe1ae3a","tel":"+84 839 008 779","spa":"Spa Bích Trâm","name":"Spa Bích Trâm, 72 Nguyễn Chí Thanh, TT. Ea Drăng, Ea H'Leo, Đắk Lắk, Vietnam","name2":"Spa Bích Trâm, 72 Nguyễn Chí Thanh, TT. Ea Drăng, Ea H'Leo, Đắk Lắk, Vietnam","lat":13.2100864,"lon":108.21109709999999,"add":"72 Nguyễn Chí Thanh","ward":"TT. Ea Drăng","dist":"Ea H'Leo","province":"Đắk Lắk, Vietnam","ward2":"Xã Ea Wy","dist2":"Huyện Ea H'leo","province2":"Tỉnh Đắk Lắk"}
{"id":"0x316e0d0cab28c675:0xed714c92feec9f4","tel":"+84 948 312 078","spa":"Nấm Spa","name":"6637+GH6 Nấm Spa, Nơ Trang Lơng, TT. Ea Drăng, Ea H'Leo, Đắk Lắk, Vietnam","name2":"6637+GH6 Nấm Spa, Nơ Trang Lơng, TT. Ea Drăng, Ea H'Leo, Đắk Lắk, Vietnam","lat":13.2037936,"lon":108.2138902,"add":"6637+GH6, Nơ Trang Lơng","ward":"TT. Ea Drăng","dist":"Ea H'Leo","province":"Đắk Lắk, Vietnam","ward2":"Xã Ea Wy","dist2":"Huyện Ea H'leo","province2":"Tỉnh Đắk Lắk"}
{"id":"0x316e0dd2475c4a39:0xae69f8e5a3e16b1d","tel":null,"spa":"Mỹ Hà Yoga - Massage Vật Lý Trị Liệu","name":"Mỹ Hà Yoga - Massage Vật Lý Trị Liệu, 66 Lý Tự Trọng Huyện Ea H'leo Dak Lak Province, 630000, Vietnam","name2":"Mỹ Hà Yoga - Massage Vật Lý Trị Liệu, 66 Lý Tự Trọng Huyện Ea H'leo Dak Lak Province, 630000, Vietnam","lat":13.2095857,"lon":108.21188509999999,"add":"66 Lý Tự Trọng Huyện Ea H'leo Dak Lak Province","ward":"630000","dist":"Vietnam","ward2":"Xã Ea Wy","dist2":"Huyện Ea H'leo","province2":"Tỉnh Đắk Lắk"}
{"id":"0x316e0d4c8bc7192f:0x9b7338e0a97bf5f4","tel":"+84 976 859 596","spa":"Spa Quỳnh Anh","name":"Spa Quỳnh Anh, 25 Nơ Trang Lơng, TT. Ea Drăng, Ea H'Leo, Đắk Lắk, Vietnam","name2":"Spa Quỳnh Anh, 25 Nơ Trang Lơng, TT. Ea Drăng, Ea H'Leo, Đắk Lắk, Vietnam","lat":13.206612999999999,"lon":108.2106238,"add":"25 Nơ Trang Lơng","ward":"TT. Ea Drăng","dist":"Ea H'Leo","province":"Đắk Lắk, Vietnam","ward2":"Xã Ea Wy","dist2":"Huyện Ea H'leo","province2":"Tỉnh Đắk Lắk"}
{"id":"0x316e0d09b0387b7f:0x45790189704f6bb4","tel":null,"spa":"Spa Bé Anh","name":"6624+78C Spa Bé Anh, Lê Thị Hồng Gấm, TT. Ea Drăng, Ea H'Leo, Đắk Lắk, Vietnam","name2":"6624+78C Spa Bé Anh, Lê Thị Hồng Gấm, TT. Ea Drăng, Ea H'Leo, Đắk Lắk, Vietnam","lat":13.200699199999999,"lon":108.20575199999999,"add":"6624+78C, Lê Thị Hồng Gấm","ward":"TT. Ea Drăng","dist":"Ea H'Leo","province":"Đắk Lắk, Vietnam","ward2":"Xã Ea Wy","dist2":"Huyện Ea H'leo","province2":"Tỉnh Đắk Lắk"}
{"id":"0x316e71ad6a51b2d1:0x76f7a5ad6f1bbbe4","tel":"+84 977 465 123","spa":"Trà sữa PINKY - HuongTran SPA","name":"9553+J4M Trà sữa PINKY - HuongTran SPA, QL14, Ea H'leo, Ea H'Leo, Đắk Lắk, Vietnam","name2":"9553+J4M Trà sữa PINKY - HuongTran SPA, QL14, Ea H'leo, Ea H'Leo, Đắk Lắk, Vietnam","lat":13.359078799999999,"lon":108.15278649999999,"add":"9553+J4M, QL14","ward":"Ea H'leo","dist":"Ea H'Leo","province":"Đắk Lắk, Vietnam","ward2":"Xã Ea Wy","dist2":"Huyện Ea H'leo","province2":"Tỉnh Đắk Lắk"}
{"id":"0x316e7191c31a8811:0x1f1b2ebe51436082","tel":null,"spa":"Spa lê nga","name":"9562+F75 Spa lê nga, QL14, Ea H'leo, Ea H'Leo, Đắk Lắk, Vietnam","name2":"9562+F75 Spa lê nga, QL14, Ea H'leo, Ea H'Leo, Đắk Lắk, Vietnam","lat":13.3610831,"lon":108.1505969,"add":"9562+F75, QL14","ward":"Ea H'leo","dist":"Ea H'Leo","province":"Đắk Lắk, Vietnam","ward2":"Xã Ea Wy","dist2":"Huyện Ea H'leo","province2":"Tỉnh Đắk Lắk"}
{"id":"0x316e0d0c24ce43d5:0x551ca4687be36bff","tel":"+84 977 083 289","spa":"Hanh Spa","name":"Hanh Spa, 3, Tran Phu Street, Ea Drang Town, TT. Ea Drăng, Ea H'Leo, Đắk Lắk, Vietnam","name2":"Hanh Spa, 3, Tran Phu Street, Ea Drang Town, TT. Ea Drăng, Ea H'Leo, Đắk Lắk, Vietnam","lat":13.205855,"lon":108.2088089,"add":"3, Tran Phu Street, Ea Drang Town","ward":"TT. Ea Drăng","dist":"Ea H'Leo","province":"Đắk Lắk, Vietnam","ward2":"Xã Ea Wy","dist2":"Huyện Ea H'leo","province2":"Tỉnh Đắk Lắk"}
{"id":"0x316e0ffd89d2a8ff:0x17b47bfc4628f4e6","tel":null,"spa":"Spa Minh Thùy","name":"46PF+GMF Spa Minh Thùy, QL14, Ea Nam, Ea H'Leo, Đắk Lắk, Vietnam","name2":"46PF+GMF Spa Minh Thùy, QL14, Ea Nam, Ea H'Leo, Đắk Lắk, Vietnam","lat":13.1363036,"lon":108.2241573,"add":"46PF+GMF, QL14","ward":"Ea Nam","dist":"Ea H'Leo","province":"Đắk Lắk, Vietnam","ward2":"Xã Ea Wy","dist2":"Huyện Ea H'leo","province2":"Tỉnh Đắk Lắk"}
{"id":"0x316e0d095ceff879:0xf6b19bbce2650422","tel":null,"spa":"Spa Uyên Uyên","name":"6634+5XM Spa Uyên Uyên, Nguyễn Chí Thanh, TT. Ea Drăng, Ea H'Leo, Đắk Lắk, Vietnam","name2":"6634+5XM Spa Uyên Uyên, Nguyễn Chí Thanh, TT. Ea Drăng, Ea H'Leo, Đắk Lắk, Vietnam","lat":13.2029663,"lon":108.20742949999999,"add":"6634+5XM, Nguyễn Chí Thanh","ward":"TT. Ea Drăng","dist":"Ea H'Leo","province":"Đắk Lắk, Vietnam","ward2":"Xã Ea Wy","dist2":"Huyện Ea H'leo","province2":"Tỉnh Đắk Lắk"}
{"id":"0x316e0d6302bb98e5:0xb51a00fbf658bee8","tel":null,"spa":"Spa Phương Liên","name":"Spa Phương Liên, 01 Lý Thường Kiệt, TT. Ea Drăng, Ea H'Leo, Đắk Lắk, Vietnam","name2":"Spa Phương Liên, 01 Lý Thường Kiệt, TT. Ea Drăng, Ea H'Leo, Đắk Lắk, Vietnam","lat":13.2032829,"lon":108.2083955,"add":"01 Lý Thường Kiệt","ward":"TT. Ea Drăng","dist":"Ea H'Leo","province":"Đắk Lắk, Vietnam","ward2":"Xã Ea Wy","dist2":"Huyện Ea H'leo","province2":"Tỉnh Đắk Lắk"}
{"id":"0x316e0d3223147d5f:0x5188fcb3fdd4b7d6","tel":"+84 967 070 809","spa":"An Nhiên Spa - Massage bấm huyệt","name":"An Nhiên Spa - Massage bấm huyệt, 44 Trần Quốc Toản, TT. Ea Drăng, Ea H'Leo, Đắk Lắk, Vietnam","name2":"An Nhiên Spa - Massage bấm huyệt, 44 Trần Quốc Toản, TT. Ea Drăng, Ea H'Leo, Đắk Lắk, Vietnam","lat":13.2019887,"lon":108.2108239,"add":"44 Trần Quốc Toản","ward":"TT. Ea Drăng","dist":"Ea H'Leo","province":"Đắk Lắk, Vietnam","ward2":"Xã Cư A Mung","dist2":"Huyện Ea H'leo","province2":"Tỉnh Đắk Lắk"}
{"id":"0x316e0d888d907b39:0x3f19c23917b648d","tel":"+84 854 017 817","spa":"Quỳnh Hương Spa&Beauty","name":"Quỳnh Hương Spa&Beauty, 08 Lý Tự Trọng, TT. Ea Drăng, Ea H'Leo, Đắk Lắk, Vietnam","name2":"Quỳnh Hương Spa&Beauty, 08 Lý Tự Trọng, TT. Ea Drăng, Ea H'Leo, Đắk Lắk, Vietnam","lat":13.2060917,"lon":108.21259789999999,"add":"08 Lý Tự Trọng","ward":"TT. Ea Drăng","dist":"Ea H'Leo","province":"Đắk Lắk, Vietnam","ward2":"Xã Cư A Mung","dist2":"Huyện Ea H'leo","province2":"Tỉnh Đắk Lắk"}
{"id":"0x31721d2d9384951d:0x1953c2b345eb4fed","tel":"+84 379 773 517","spa":"Gà Spa Buôn Ma Thuột","name":"Gà Spa Buôn Ma Thuột, 6 Huy Cận, Thắng Lợi, Thành phố Buôn Ma Thuột, Đắk Lắk 630000, Vietnam","name2":"Gà Spa Buôn Ma Thuột, 6 Huy Cận, Thắng Lợi, Thành phố Buôn Ma Thuột, Đắk Lắk 630000, Vietnam","lat":12.681956399999999,"lon":108.0416381,"add":"6 Huy Cận","ward":"Thắng Lợi","dist":"Thành phố Buôn Ma Thuột","province":"Đắk Lắk 630000, Vietnam","ward2":"Xã Cư A Mung","dist2":"Huyện Ea H'leo","province2":"Tỉnh Đắk Lắk"}
{"id":"0x316e0d4f71780021:0xa84d86cce0423fcd","tel":"+84 984 961 496","spa":"Spa Cô Mị","name":"Spa Cô Mị, 527 Giải Phóng, TT. Ea Drăng, Ea H'Leo, Đắk Lắk, Vietnam","name2":"Spa Cô Mị, 527 Giải Phóng, TT. Ea Drăng, Ea H'Leo, Đắk Lắk, Vietnam","lat":13.2083961,"lon":108.2077382,"add":"527 Giải Phóng","ward":"TT. Ea Drăng","dist":"Ea H'Leo","province":"Đắk Lắk, Vietnam","ward2":"Xã Cư A Mung","dist2":"Huyện Ea H'leo","province2":"Tỉnh Đắk Lắk"}
{"id":"0x316e0d0c1f786d3d:0x493e2bc2edb84217","tel":null,"spa":"Spa Yến Vũ","name":"6645+48W Spa Yến Vũ, Quang Trung, TT. Ea Drăng, Ea H'Leo, Đắk Lắk, Vietnam","name2":"6645+48W Spa Yến Vũ, Quang Trung, TT. Ea Drăng, Ea H'Leo, Đắk Lắk, Vietnam","lat":13.205370199999999,"lon":108.20831369999999,"add":"6645+48W, Quang Trung","ward":"TT. Ea Drăng","dist":"Ea H'Leo","province":"Đắk Lắk, Vietnam","ward2":"Xã Cư A Mung","dist2":"Huyện Ea H'leo","province2":"Tỉnh Đắk Lắk"}
{"id":"0x316e0d6d4dd0770f:0xfcbb19f3b9afd1ee","tel":null,"spa":"Massage Hải Âu","name":"6657+XPQ Massage Hải Âu, Ama Khê, TT. Ea Drăng, Ea H'Leo, Đắk Lắk, Vietnam","name2":"6657+XPQ Massage Hải Âu, Ama Khê, TT. Ea Drăng, Ea H'Leo, Đắk Lắk, Vietnam","lat":13.209957099999999,"lon":108.21436059999999,"add":"6657+XPQ, Ama Khê","ward":"TT. Ea Drăng","dist":"Ea H'Leo","province":"Đắk Lắk, Vietnam","ward2":"Xã Cư A Mung","dist2":"Huyện Ea H'leo","province2":"Tỉnh Đắk Lắk"}
{"id":"0x316dfba2853a5e99:0xc1ccb9aca81cd2cf","tel":"+84 989 444 147","spa":"An Nhiên Spa","name":"An Nhiên Spa, 1 Lý Thường Kiệt, Ea Súp, Đắk Lắk, Vietnam","name2":"An Nhiên Spa, 1 Lý Thường Kiệt, Ea Súp, Đắk Lắk, Vietnam","lat":13.0720052,"lon":107.88505579999999,"add":"1 Lý Thường Kiệt","ward":"Ea Súp","dist":"Đắk Lắk","province":"Vietnam","ward2":"Xã Cư A Mung","dist2":"Huyện Ea H'leo","province2":"Tỉnh Đắk Lắk"}
{"id":"0x316e0d0cab28c675:0xed714c92feec9f4","tel":"+84 948 312 078","spa":"Nấm Spa","name":"6637+GH6 Nấm Spa, Nơ Trang Lơng, TT. Ea Drăng, Ea H'Leo, Đắk Lắk, Vietnam","name2":"6637+GH6 Nấm Spa, Nơ Trang Lơng, TT. Ea Drăng, Ea H'Leo, Đắk Lắk, Vietnam","lat":13.2037936,"lon":108.2138902,"add":"6637+GH6, Nơ Trang Lơng","ward":"TT. Ea Drăng","dist":"Ea H'Leo","province":"Đắk Lắk, Vietnam","ward2":"Xã Cư A Mung","dist2":"Huyện Ea H'leo","province2":"Tỉnh Đắk Lắk"}
{"id":"0x316e0d0cff431edd:0xf2c34c8808048270","tel":"+84 944 635 779","spa":"Spa Thúy Nga","name":"6646+J9W Spa Thúy Nga, Nơ Trang Lơng, TT. Ea Drăng, Ea H'Leo, Đắk Lắk, Vietnam","name2":"6646+J9W Spa Thúy Nga, Nơ Trang Lơng, TT. Ea Drăng, Ea H'Leo, Đắk Lắk, Vietnam","lat":13.2066121,"lon":108.2109424,"add":"6646+J9W, Nơ Trang Lơng","ward":"TT. Ea Drăng","dist":"Ea H'Leo","province":"Đắk Lắk, Vietnam","ward2":"Xã Cư A Mung","dist2":"Huyện Ea H'leo","province2":"Tỉnh Đắk Lắk"}
{"id":"0x316e0dfe6ce57be9:0x446b981a23d6d535","tel":null,"spa":"Spa Thuý Nga","name":"Spa Thuý Nga, 26 Quang Trung, Tổ Dân Phố 8, Ea H'Leo, Đắk Lắk, Vietnam","name2":"Spa Thuý Nga, 26 Quang Trung, Tổ Dân Phố 8, Ea H'Leo, Đắk Lắk, Vietnam","lat":13.205327599999999,"lon":108.2079593,"add":"26 Quang Trung","ward":"Tổ Dân Phố 8","dist":"Ea H'Leo","province":"Đắk Lắk, Vietnam","ward2":"Xã Cư A Mung","dist2":"Huyện Ea H'leo","province2":"Tỉnh Đắk Lắk"}
{"id":"0x316e0de46ebc694b:0x636aef21382fed3c","tel":null,"spa":"Hope Spa","name":"Hope Spa, 14 Nơ Trang Lơng, TT. Ea Drăng, Ea H'Leo, Đắk Lắk, Vietnam","name2":"Hope Spa, 14 Nơ Trang Lơng, TT. Ea Drăng, Ea H'Leo, Đắk Lắk, Vietnam","lat":13.207633999999999,"lon":108.20868999999999,"add":"14 Nơ Trang Lơng","ward":"TT. Ea Drăng","dist":"Ea H'Leo","province":"Đắk Lắk, Vietnam","ward2":"Xã Cư A Mung","dist2":"Huyện Ea H'leo","province2":"Tỉnh Đắk Lắk"}
{"id":"0x316e0d4c19044c9d:0x15b2e643aca05df7","tel":"+84 976 979 335","spa":"TATTOO & SPA","name":"6645+59J TATTOO & SPA, Quang Trung, TT. Ea Drăng, Ea H'Leo, Đắk Lắk, Vietnam","name2":"6645+59J TATTOO & SPA, Quang Trung, TT. Ea Drăng, Ea H'Leo, Đắk Lắk, Vietnam","lat":13.205456499999999,"lon":108.208379,"add":"6645+59J, Quang Trung","ward":"TT. Ea Drăng","dist":"Ea H'Leo","province":"Đắk Lắk, Vietnam","ward2":"Xã Cư A Mung","dist2":"Huyện Ea H'leo","province2":"Tỉnh Đắk Lắk"}
{"id":"0x316e0d0dade91681:0x6e12d524589c8d80","tel":null,"spa":"Spa Út Nga","name":"Spa Út Nga, 39 Nơ Trang Lơng, TT. Ea Drăng, Ea H'Leo, Đắk Lắk, Vietnam","name2":"Spa Út Nga, 39 Nơ Trang Lơng, TT. Ea Drăng, Ea H'Leo, Đắk Lắk, Vietnam","lat":13.2069757,"lon":108.2104251,"add":"39 Nơ Trang Lơng","ward":"TT. Ea Drăng","dist":"Ea H'Leo","province":"Đắk Lắk, Vietnam","ward2":"Xã Cư A Mung","dist2":"Huyện Ea H'leo","province2":"Tỉnh Đắk Lắk"}
{"id":"0x31721d7e0e75edab:0x7f2a86e2791d8ebf","tel":"+84 935 951 117","spa":"Moon Spa: Skincare and beauty","name":"Moon Spa: Skincare and beauty, 60 Lê Đức Thọ, Thắng Lợi, Thành phố Buôn Ma Thuột, Đắk Lắk 630000, Vietnam","name2":"Moon Spa: Skincare and beauty, 60 Lê Đức Thọ, Thắng Lợi, Thành phố Buôn Ma Thuột, Đắk Lắk 630000, Vietnam","lat":12.6842008,"lon":108.04687279999999,"add":"60 Lê Đức Thọ","ward":"Thắng Lợi","dist":"Thành phố Buôn Ma Thuột","province":"Đắk Lắk 630000, Vietnam","ward2":"Xã Cư A Mung","dist2":"Huyện Ea H'leo","province2":"Tỉnh Đắk Lắk"}
{"id":"0x316e0d09b0387b7f:0x45790189704f6bb4","tel":null,"spa":"Spa Bé Anh","name":"6624+78C Spa Bé Anh, Lê Thị Hồng Gấm, TT. Ea Drăng, Ea H'Leo, Đắk Lắk, Vietnam","name2":"6624+78C Spa Bé Anh, Lê Thị Hồng Gấm, TT. Ea Drăng, Ea H'Leo, Đắk Lắk, Vietnam","lat":13.200699199999999,"lon":108.20575199999999,"add":"6624+78C, Lê Thị Hồng Gấm","ward":"TT. Ea Drăng","dist":"Ea H'Leo","province":"Đắk Lắk, Vietnam","ward2":"Xã Cư A Mung","dist2":"Huyện Ea H'leo","province2":"Tỉnh Đắk Lắk"}
{"id":"0x316e0d4c8bc7192f:0x9b7338e0a97bf5f4","tel":"+84 976 859 596","spa":"Spa Quỳnh Anh","name":"Spa Quỳnh Anh, 25 Nơ Trang Lơng, TT. Ea Drăng, Ea H'Leo, Đắk Lắk, Vietnam","name2":"Spa Quỳnh Anh, 25 Nơ Trang Lơng, TT. Ea Drăng, Ea H'Leo, Đắk Lắk, Vietnam","lat":13.206612999999999,"lon":108.2106238,"add":"25 Nơ Trang Lơng","ward":"TT. Ea Drăng","dist":"Ea H'Leo","province":"Đắk Lắk, Vietnam","ward2":"Xã Cư A Mung","dist2":"Huyện Ea H'leo","province2":"Tỉnh Đắk Lắk"}
{"id":"0x316e05d1f6f1615f:0x58f63b0955504f90","tel":"+84 986 671 545","spa":"JENNI SPA","name":"JENNI SPA, Thôn, K'Ti, Krông Búk, Đắk Lắk 63500, Vietnam","name2":"JENNI SPA, Thôn, K'Ti, Krông Búk, Đắk Lắk 63500, Vietnam","lat":13.0180557,"lon":108.22601829999999,"add":"Thôn","ward":"K'Ti","dist":"Krông Búk","province":"Đắk Lắk 63500, Vietnam","ward2":"Xã Cư A Mung","dist2":"Huyện Ea H'leo","province2":"Tỉnh Đắk Lắk"}
{"id":"0x316e0d405d34f3bf:0x5ed301f67da746df","tel":"+84 911 556 783","spa":"Bela spa","name":"Bela spa, 20 Quang Trung, TT. Ea Drăng, Ea H'Leo, Đắk Lắk, Vietnam","name2":"Bela spa, 20 Quang Trung, TT. Ea Drăng, Ea H'Leo, Đắk Lắk, Vietnam","lat":13.2066619,"lon":108.2088155,"add":"20 Quang Trung","ward":"TT. Ea Drăng","dist":"Ea H'Leo","province":"Đắk Lắk, Vietnam","ward2":"Xã Cư A Mung","dist2":"Huyện Ea H'leo","province2":"Tỉnh Đắk Lắk"}
{"id":"0x316e0dd2475c4a39:0xae69f8e5a3e16b1d","tel":null,"spa":"Mỹ Hà Yoga - Massage Vật Lý Trị Liệu","name":"Mỹ Hà Yoga - Massage Vật Lý Trị Liệu, 66 Lý Tự Trọng Huyện Ea H'leo Dak Lak Province, 630000, Vietnam","name2":"Mỹ Hà Yoga - Massage Vật Lý Trị Liệu, 66 Lý Tự Trọng Huyện Ea H'leo Dak Lak Province, 630000, Vietnam","lat":13.2095857,"lon":108.21188509999999,"add":"66 Lý Tự Trọng Huyện Ea H'leo Dak Lak Province","ward":"630000","dist":"Vietnam","ward2":"Xã Cư A Mung","dist2":"Huyện Ea H'leo","province2":"Tỉnh Đắk Lắk"}
{"id":"0x316dfbece84c3d7f:0x9305cac4e5042510","tel":"+84 374 113 046","spa":"Nhung sanchi spa","name":"Nhung sanchi spa, 85 Hẻm Hùng Vương, Ea Súp, Đắk Lắk, Vietnam","name2":"Nhung sanchi spa, 85 Hẻm Hùng Vương, Ea Súp, Đắk Lắk, Vietnam","lat":13.071047199999999,"lon":107.8827888,"add":"85 Hẻm Hùng Vương","ward":"Ea Súp","dist":"Đắk Lắk","province":"Vietnam","ward2":"Xã Cư A Mung","dist2":"Huyện Ea H'leo","province2":"Tỉnh Đắk Lắk"}
{"id":"0x31721d2d9384951d:0x1953c2b345eb4fed","tel":"+84 379 773 517","spa":"Gà Spa Buôn Ma Thuột","name":"Gà Spa Buôn Ma Thuột, 6 Huy Cận, Thắng Lợi, Thành phố Buôn Ma Thuột, Đắk Lắk 630000, Vietnam","name2":"Gà Spa Buôn Ma Thuột, 6 Huy Cận, Thắng Lợi, Thành phố Buôn Ma Thuột, Đắk Lắk 630000, Vietnam","lat":12.681956399999999,"lon":108.0416381,"add":"6 Huy Cận","ward":"Thắng Lợi","dist":"Thành phố Buôn Ma Thuột","province":"Đắk Lắk 630000, Vietnam","ward2":"Xã Cư A Mung","dist2":"Huyện Ea H'leo","province2":"Tỉnh Đắk Lắk"}
{"id":"0x316dfbd169592f39:0xcd1cf45ce762d9d4","tel":"+84 942 670 694","spa":"Mèo spa","name":"Mèo spa, Số 6 thôn 2, Ea Súp, Đắk Lắk, Vietnam","name2":"Mèo spa, Số 6 thôn 2, Ea Súp, Đắk Lắk, Vietnam","lat":13.073775099999999,"lon":107.887287,"add":"Số 6 thôn 2","ward":"Ea Súp","dist":"Đắk Lắk","province":"Vietnam","ward2":"Xã Cư A Mung","dist2":"Huyện Ea H'leo","province2":"Tỉnh Đắk Lắk"}
{"id":"0x316e05d1f6f1615f:0x58f63b0955504f90","tel":"+84 986 671 545","spa":"JENNI SPA","name":"JENNI SPA, Thôn, K'Ti, Krông Búk, Đắk Lắk 63500, Vietnam","name2":"JENNI SPA, Thôn, K'Ti, Krông Búk, Đắk Lắk 63500, Vietnam","lat":13.0180557,"lon":108.22601829999999,"add":"Thôn","ward":"K'Ti","dist":"Krông Búk","province":"Đắk Lắk 63500, Vietnam","ward2":"Xã Cư A Mung","dist2":"Huyện Ea H'leo","province2":"Tỉnh Đắk Lắk"}
{"id":"0x316e0d080dfc4031:0x7534875c60dba522","tel":"+84 973 831 865","spa":"Spa Thanh Thúy","name":"56X3+X4Q Spa Thanh Thúy, Đường số 4, TT. Ea Drăng, Ea H'Leo, Đắk Lắk 630000, Vietnam","name2":"56X3+X4Q Spa Thanh Thúy, Đường số 4, TT. Ea Drăng, Ea H'Leo, Đắk Lắk 630000, Vietnam","lat":13.199969399999999,"lon":108.202872,"add":"56X3+X4Q, Đường số 4","ward":"TT. Ea Drăng","dist":"Ea H'Leo","province":"Đắk Lắk 630000, Vietnam","ward2":"Xã Cư A Mung","dist2":"Huyện Ea H'leo","province2":"Tỉnh Đắk Lắk"}
{"id":"0x316de1eaf39d532d:0x54b14efff6d8bc5a","tel":null,"spa":"Cư A Mung","name":"Cư A Mung, Ea H'leo District, Dak Lak, Vietnam","name2":"Cư A Mung, Ea H'leo District, Dak Lak, Vietnam","lat":13.1897121,"lon":108.024301,"add":"Ea H'leo District","ward":"Dak Lak","dist":"Vietnam","ward2":"Xã Cư A Mung","dist2":"Huyện Ea H'leo","province2":"Tỉnh Đắk Lắk"}
{"id":"0x316e0da5e70aa7b1:0x6e17ea3fcbfa5677","tel":null,"spa":"Spa Thảo Nguyên","name":"Spa Thảo Nguyên, tt. Ea Drăng, Ea H'Leo, Đắk Lắk, Vietnam","name2":"Spa Thảo Nguyên, tt. Ea Drăng, Ea H'Leo, Đắk Lắk, Vietnam","lat":13.192788199999999,"lon":108.2035533,"add":"tt. Ea Drăng","ward":"Ea H'Leo","dist":"Đắk Lắk","province":"Vietnam","ward2":"Xã Cư A Mung","dist2":"Huyện Ea H'leo","province2":"Tỉnh Đắk Lắk"}
{"id":"0x316e7199e9df074b:0xe64bc10e57904c62","tel":"+84 976 988 211","spa":"Spa Thảo Nguyên","name":"Spa Thảo Nguyên, Chợ Chư Phả Buôn Ma Thuộc, Đắk Lắk, Vietnam","name2":"Spa Thảo Nguyên, Chợ Chư Phả Buôn Ma Thuộc, Đắk Lắk, Vietnam","lat":13.358072499999999,"lon":108.153651,"add":"Chợ Chư Phả Buôn Ma Thuộc","ward":"Đắk Lắk","dist":"Vietnam","ward2":"Xã Cư A Mung","dist2":"Huyện Ea H'leo","province2":"Tỉnh Đắk Lắk"}
{"id":"0x316e05fa7c8e7b17:0x9ea74918eae85446","tel":"+84 989 482 168","spa":"Spa ThyLinh Phun xăm thẩm mỹ","name":"26G9+2V6 Spa ThyLinh Phun xăm thẩm mỹ, Unnamed Road, Chư KBô, Krông Búk, Đắk Lắk, Vietnam","name2":"26G9+2V6 Spa ThyLinh Phun xăm thẩm mỹ, Unnamed Road, Chư KBô, Krông Búk, Đắk Lắk, Vietnam","lat":13.025029,"lon":108.219633,"add":"26G9+2V6, Unnamed Road","ward":"Chư KBô","dist":"Krông Búk","province":"Đắk Lắk, Vietnam","ward2":"Xã Cư A Mung","dist2":"Huyện Ea H'leo","province2":"Tỉnh Đắk Lắk"}
{"id":"0x316e0d0dab57c055:0x5f44d9df91792086","tel":"+84 989 526 777","spa":"Spa Bích Trang","name":"6646+P75 Spa Bích Trang, Nơ Trang Lơng, TT. Ea Drăng, Ea H'Leo, Đắk Lắk, Vietnam","name2":"6646+P75 Spa Bích Trang, Nơ Trang Lơng, TT. Ea Drăng, Ea H'Leo, Đắk Lắk, Vietnam","lat":13.2067566,"lon":108.2107436,"add":"6646+P75, Nơ Trang Lơng","ward":"TT. Ea Drăng","dist":"Ea H'Leo","province":"Đắk Lắk, Vietnam","ward2":"Xã Cư A Mung","dist2":"Huyện Ea H'leo","province2":"Tỉnh Đắk Lắk"}
{"id":"0x316dfac06ec540c9:0xe66e683144d6eac4","tel":null,"spa":"Hoài Anh Beauty & Spa","name":"Hoài Anh Beauty & Spa, 53 Nguyễn Du, Ea Súp, Đắk Lắk, Vietnam","name2":"Hoài Anh Beauty & Spa, 53 Nguyễn Du, Ea Súp, Đắk Lắk, Vietnam","lat":13.0686831,"lon":107.8831855,"add":"53 Nguyễn Du","ward":"Ea Súp","dist":"Đắk Lắk","province":"Vietnam","ward2":"Xã Cư A Mung","dist2":"Huyện Ea H'leo","province2":"Tỉnh Đắk Lắk"}
{"id":"0x316e0589b9611d27:0x9ebf5c0015bb9080","tel":null,"spa":"Mát xa thanh huyền","name":"Mát xa thanh huyền, 19 AH17, Chư KBô, Krông Búk, Đắk Lắk, Vietnam","name2":"Mát xa thanh huyền, 19 AH17, Chư KBô, Krông Búk, Đắk Lắk, Vietnam","lat":13.0200137,"lon":108.22579719999999,"add":"19 AH17","ward":"Chư KBô","dist":"Krông Búk","province":"Đắk Lắk, Vietnam","ward2":"Xã Cư A Mung","dist2":"Huyện Ea H'leo","province2":"Tỉnh Đắk Lắk"}
{"id":"0x316dfac085f688d5:0xaa2e8a141683541","tel":null,"spa":"Trinh Beauty & Spa","name":"3VCM+248 Trinh Beauty & Spa, Nguyễn Du, Ea Súp, Đắk Lắk, Vietnam","name2":"3VCM+248 Trinh Beauty & Spa, Nguyễn Du, Ea Súp, Đắk Lắk, Vietnam","lat":13.0700288,"lon":107.8828422,"add":"3VCM+248","ward":"Nguyễn Du","dist":"Ea Súp","province":"Đắk Lắk, Vietnam","ward2":"Xã Cư A Mung","dist2":"Huyện Ea H'leo","province2":"Tỉnh Đắk Lắk"}
{"id":"0x316e0d092b92da1b:0x434fb7988760b95e","tel":null,"spa":"Spa Diễm Vy","name":"Spa Diễm Vy, tt. Ea Drăng, Ea H'Leo, Đắk Lắk, Vietnam","name2":"Spa Diễm Vy, tt. Ea Drăng, Ea H'Leo, Đắk Lắk, Vietnam","lat":13.203990099999999,"lon":108.20544629999999,"add":"tt. Ea Drăng","ward":"Ea H'Leo","dist":"Đắk Lắk","province":"Vietnam","ward2":"Xã Cư A Mung","dist2":"Huyện Ea H'leo","province2":"Tỉnh Đắk Lắk"}
{"id":"0x316e0288280b2a35:0xdf7401beab57fb6a","tel":null,"spa":"Spa Ngọc Diệp","name":"W53R+65V Spa Ngọc Diệp, ĐT6, Cư Dliê M'nông, Cư M'gar, Đắk Lắk, Vietnam","name2":"W53R+65V Spa Ngọc Diệp, ĐT6, Cư Dliê M'nông, Cư M'gar, Đắk Lắk, Vietnam","lat":12.9031041,"lon":108.1904278,"add":"W53R+65V, ĐT6","ward":"Cư Dliê M'nông","dist":"Cư M'gar","province":"Đắk Lắk, Vietnam","ward2":"Xã Cư A Mung","dist2":"Huyện Ea H'leo","province2":"Tỉnh Đắk Lắk"}
{"id":"0x316e0d0fee2b1dad:0xd4d2636a928065c7","tel":"+84 905 600 456","spa":"Bích Phấn Spa Beauty","name":"Bích Phấn Spa Beauty, EaDrăng - EaH'Leo, Ngô Gia Tự, TT. Ea Drăng, Ea H'Leo, Đắk Lắk 70000, Vietnam","name2":"Bích Phấn Spa Beauty, EaDrăng - EaH'Leo, Ngô Gia Tự, TT. Ea Drăng, Ea H'Leo, Đắk Lắk 70000, Vietnam","lat":13.2090853,"lon":108.20144669999999,"add":"EaDrăng - EaH'Leo, Ngô Gia Tự","ward":"TT. Ea Drăng","dist":"Ea H'Leo","province":"Đắk Lắk 70000, Vietnam","ward2":"Xã Cư A Mung","dist2":"Huyện Ea H'leo","province2":"Tỉnh Đắk Lắk"}
{"id":"0x316e7191c31a8811:0x1f1b2ebe51436082","tel":null,"spa":"Spa lê nga","name":"9562+F75 Spa lê nga, QL14, Ea H'leo, Ea H'Leo, Đắk Lắk, Vietnam","name2":"9562+F75 Spa lê nga, QL14, Ea H'leo, Ea H'Leo, Đắk Lắk, Vietnam","lat":13.3610831,"lon":108.1505969,"add":"9562+F75, QL14","ward":"Ea H'leo","dist":"Ea H'Leo","province":"Đắk Lắk, Vietnam","ward2":"Xã Cư A Mung","dist2":"Huyện Ea H'leo","province2":"Tỉnh Đắk Lắk"}
{"id":"0x31721d7e0e75edab:0x7f2a86e2791d8ebf","tel":"+84 935 951 117","spa":"Moon Spa: Skincare and beauty","name":"Moon Spa: Skincare and beauty, 60 Lê Đức Thọ, Thắng Lợi, Thành phố Buôn Ma Thuột, Đắk Lắk 630000, Vietnam","name2":"Moon Spa: Skincare and beauty, 60 Lê Đức Thọ, Thắng Lợi, Thành phố Buôn Ma Thuột, Đắk Lắk 630000, Vietnam","lat":12.6842008,"lon":108.04687279999999,"add":"60 Lê Đức Thọ","ward":"Thắng Lợi","dist":"Thành phố Buôn Ma Thuột","province":"Đắk Lắk 630000, Vietnam","ward2":"Xã Cư A Mung","dist2":"Huyện Ea H'leo","province2":"Tỉnh Đắk Lắk"}
{"id":"0x316dfab73167d813:0x253d624ccb6e8ad0","tel":null,"spa":"Thanh Miền Spa","name":"Thanh Miền Spa, 102 Âu Cơ, Ea Súp, Đắk Lắk, Vietnam","name2":"Thanh Miền Spa, 102 Âu Cơ, Ea Súp, Đắk Lắk, Vietnam","lat":13.080208899999999,"lon":107.87658859999999,"add":"102 Âu Cơ","ward":"Ea Súp","dist":"Đắk Lắk","province":"Vietnam","ward2":"Xã Cư A Mung","dist2":"Huyện Ea H'leo","province2":"Tỉnh Đắk Lắk"}
{"id":"0x316e71ad6a51b2d1:0x76f7a5ad6f1bbbe4","tel":"+84 977 465 123","spa":"Trà sữa PINKY - HuongTran SPA","name":"9553+J4M Trà sữa PINKY - HuongTran SPA, QL14, Ea H'leo, Ea H'Leo, Đắk Lắk, Vietnam","name2":"9553+J4M Trà sữa PINKY - HuongTran SPA, QL14, Ea H'leo, Ea H'Leo, Đắk Lắk, Vietnam","lat":13.359078799999999,"lon":108.15278649999999,"add":"9553+J4M, QL14","ward":"Ea H'leo","dist":"Ea H'Leo","province":"Đắk Lắk, Vietnam","ward2":"Xã Cư A Mung","dist2":"Huyện Ea H'leo","province2":"Tỉnh Đắk Lắk"}
{"id":"0x316e03dd51d89763:0x38a7e2b3699c7047","tel":null,"spa":"SPA Hoàng Duyên","name":"W55W+842 SPA Hoàng Duyên, Cư Dliê M'nông, Cư M'gar, Đắk Lắk, Vietnam","name2":"W55W+842 SPA Hoàng Duyên, Cư Dliê M'nông, Cư M'gar, Đắk Lắk, Vietnam","lat":12.9082799,"lon":108.1960888,"add":"W55W+842","ward":"Cư Dliê M'nông","dist":"Cư M'gar","province":"Đắk Lắk, Vietnam","ward2":"Xã Cư A Mung","dist2":"Huyện Ea H'leo","province2":"Tỉnh Đắk Lắk"}
{"id":"0x316de17020fd1ac1:0xae21f82f725e7811","tel":null,"spa":"UBND xã Cư A Mung","name":"625P+VMX UBND xã Cư A Mung, Thôn 5, Ea H'Leo, Đắk Lắk, Vietnam","name2":"625P+VMX UBND xã Cư A Mung, Thôn 5, Ea H'Leo, Đắk Lắk, Vietnam","lat":13.2097474,"lon":108.03674079999999,"add":"625P+VMX","ward":"Thôn 5","dist":"Ea H'Leo","province":"Đắk Lắk, Vietnam","ward2":"Xã Cư A Mung","dist2":"Huyện Ea H'leo","province2":"Tỉnh Đắk Lắk"}
{"id":"0x316e0d0976c8d907:0xaad3f8e9452d0a72","tel":null,"spa":"Nắng Spa","name":"6624+MR9 Nắng Spa, Nguyễn Thị Minh Khai, TT. Ea Drăng, Ea H'Leo, Đắk Lắk, Vietnam","name2":"6624+MR9 Nắng Spa, Nguyễn Thị Minh Khai, TT. Ea Drăng, Ea H'Leo, Đắk Lắk, Vietnam","lat":13.2016694,"lon":108.20709749999999,"add":"6624+MR9, Nguyễn Thị Minh Khai","ward":"TT. Ea Drăng","dist":"Ea H'Leo","province":"Đắk Lắk, Vietnam","ward2":"Xã Cư A Mung","dist2":"Huyện Ea H'leo","province2":"Tỉnh Đắk Lắk"}
{"id":"0x316e0d8a494e685f:0x9a38c8a0690498b9","tel":"+84 986 452 156","spa":"Thảo mộc dân tộc dao Mộc Thanh","name":"Thảo mộc dân tộc dao Mộc Thanh, 408 Giải Phóng, TT. Ea Drăng, Ea H'Leo, Đắk Lắk 63000, Vietnam","name2":"Thảo mộc dân tộc dao Mộc Thanh, 408 Giải Phóng, TT. Ea Drăng, Ea H'Leo, Đắk Lắk 63000, Vietnam","lat":13.1990837,"lon":108.2048264,"add":"408 Giải Phóng","ward":"TT. Ea Drăng","dist":"Ea H'Leo","province":"Đắk Lắk 63000, Vietnam","ward2":"Xã Cư A Mung","dist2":"Huyện Ea H'leo","province2":"Tỉnh Đắk Lắk"}
{"id":"0x316dfac0d20be7c7:0x98f36f96be54f47b","tel":null,"spa":"She Beauty Spa","name":"3VCM+QPW She Beauty Spa, Nguyễn Trung Trực, Ea Súp, Đắk Lắk, Vietnam","name2":"3VCM+QPW She Beauty Spa, Nguyễn Trung Trực, Ea Súp, Đắk Lắk, Vietnam","lat":13.0719985,"lon":107.88432259999999,"add":"3VCM+QPW","ward":"Nguyễn Trung Trực","dist":"Ea Súp","province":"Đắk Lắk, Vietnam","ward2":"Xã Cư A Mung","dist2":"Huyện Ea H'leo","province2":"Tỉnh Đắk Lắk"}
{"id":"0x3171ffbca0147855:0x25e71c028d1ee608","tel":"+84 347 047 087","spa":"Thuỳ Ngân Beauty Spa","name":"Thuỳ Ngân Beauty Spa, 105 Nguyễn Chí Thanh, Quảng Phú, Cư M'gar, Đắk Lắk, Vietnam","name2":"Thuỳ Ngân Beauty Spa, 105 Nguyễn Chí Thanh, Quảng Phú, Cư M'gar, Đắk Lắk, Vietnam","lat":12.8203222,"lon":108.0727448,"add":"105 Nguyễn Chí Thanh","ward":"Quảng Phú","dist":"Cư M'gar","province":"Đắk Lắk, Vietnam","ward2":"Xã Cư A Mung","dist2":"Huyện Ea H'leo","province2":"Tỉnh Đắk Lắk"}
{"id":"0x316e1d83ee647dad:0x3f0cbed1a4233e91","tel":"+84 358 283 898","spa":"Spa Đông Nghi Buôn Hồ","name":"Spa Đông Nghi Buôn Hồ, 1A Tôn Thất Tùng, Phường An Lạc, Buôn Hồ, Đắk Lắk 63000, Vietnam","name2":"Spa Đông Nghi Buôn Hồ, 1A Tôn Thất Tùng, Phường An Lạc, Buôn Hồ, Đắk Lắk 63000, Vietnam","lat":12.9122243,"lon":108.26684619999999,"add":"1A Tôn Thất Tùng","ward":"Phường An Lạc","dist":"Buôn Hồ","province":"Đắk Lắk 63000, Vietnam","ward2":"Xã Cư A Mung","dist2":"Huyện Ea H'leo","province2":"Tỉnh Đắk Lắk"}
{"id":"0x316e0defa4416931:0x8ea52062f03b41da","tel":"+84 837 552 556","spa":"Tuyền Nail","name":"Tuyền Nail, 16D Quang Trung, TT. Ea Drăng, Ea H'Leo, Đắk Lắk 630000, Vietnam","name2":"Tuyền Nail, 16D Quang Trung, TT. Ea Drăng, Ea H'Leo, Đắk Lắk 630000, Vietnam","lat":13.2045771,"lon":108.2076536,"add":"16D Quang Trung","ward":"TT. Ea Drăng","dist":"Ea H'Leo","province":"Đắk Lắk 630000, Vietnam","ward2":"Xã Cư A Mung","dist2":"Huyện Ea H'leo","province2":"Tỉnh Đắk Lắk"}
{"id":"0x31721d7cc8212611:0x720001b0e1513fce","tel":"+84 262 3844 693","spa":"Đông Nghi Spa","name":"Đông Nghi Spa, 51 Phan Chu Trinh, Thắng Lợi, Thành phố Buôn Ma Thuột, Đắk Lắk 630000, Vietnam","name2":"Đông Nghi Spa, 51 Phan Chu Trinh, Thắng Lợi, Thành phố Buôn Ma Thuột, Đắk Lắk 630000, Vietnam","lat":12.6839543,"lon":108.0456076,"add":"51 Phan Chu Trinh","ward":"Thắng Lợi","dist":"Thành phố Buôn Ma Thuột","province":"Đắk Lắk 630000, Vietnam","ward2":"Xã Cư A Mung","dist2":"Huyện Ea H'leo","province2":"Tỉnh Đắk Lắk"}
{"id":"0x3171e3cc9134c29d:0xcde4df2fa0965f47","tel":"+84 976 362 992","spa":"king nail spa","name":"king nail spa, 508 Hùng Vương, Phường Thiên An, Buôn Hồ, Đắk Lắk 634890, Vietnam","name2":"king nail spa, 508 Hùng Vương, Phường Thiên An, Buôn Hồ, Đắk Lắk 634890, Vietnam","lat":12.8821716,"lon":108.25879139999999,"add":"508 Hùng Vương","ward":"Phường Thiên An","dist":"Buôn Hồ","province":"Đắk Lắk 634890, Vietnam","ward2":"Xã Cư A Mung","dist2":"Huyện Ea H'leo","province2":"Tỉnh Đắk Lắk"}
{"id":"0x316e0508836ea5fd:0xab35c1add0443002","tel":"+84 942 417 127","spa":"Spa Nguyễn Trang","name":"Spa Nguyễn Trang, 22 QL14, Chư KBô, Krông Búk, Đắk Lắk, Vietnam","name2":"Spa Nguyễn Trang, 22 QL14, Chư KBô, Krông Búk, Đắk Lắk, Vietnam","lat":13.0382837,"lon":108.21730409999999,"add":"22 QL14","ward":"Chư KBô","dist":"Krông Búk","province":"Đắk Lắk, Vietnam","ward2":"Xã Cư A Mung","dist2":"Huyện Ea H'leo","province2":"Tỉnh Đắk Lắk"}
{"id":"0x316e028a1f79d6bd:0x912fef2b0224267","tel":null,"spa":"Spa Uyên Uyên","name":"W54R+MM9 Spa Uyên Uyên, ĐT6, Cư Dliê M'nông, Cư M'gar, Đắk Lắk, Vietnam","name2":"W54R+MM9 Spa Uyên Uyên, ĐT6, Cư Dliê M'nông, Cư M'gar, Đắk Lắk, Vietnam","lat":12.9066709,"lon":108.1917433,"add":"W54R+MM9, ĐT6","ward":"Cư Dliê M'nông","dist":"Cư M'gar","province":"Đắk Lắk, Vietnam","ward2":"Xã Cư A Mung","dist2":"Huyện Ea H'leo","province2":"Tỉnh Đắk Lắk"}
{"id":"0x316dfac449c60329:0xf2f4295cd4eb287d","tel":null,"spa":"Vy Vân Home Spa","name":"Vy Vân Home Spa, tt. Ea Súp, Ea Súp, Đắk Lắk, Vietnam","name2":"Vy Vân Home Spa, tt. Ea Súp, Ea Súp, Đắk Lắk, Vietnam","lat":13.074200099999999,"lon":107.8895608,"add":"tt. Ea Súp","ward":"Ea Súp","dist":"Đắk Lắk","province":"Vietnam","ward2":"Xã Cư A Mung","dist2":"Huyện Ea H'leo","province2":"Tỉnh Đắk Lắk"}
{"id":"0x316e0dffb1f82ce1:0x8a1840b69b428097","tel":null,"spa":"Spa Hương Nguyễn","name":"6624+QJ2 Spa Hương Nguyễn, Nguyễn Thị Minh Khai, TT. Ea Drăng, Ea H'Leo, Đắk Lắk, Vietnam","name2":"6624+QJ2 Spa Hương Nguyễn, Nguyễn Thị Minh Khai, TT. Ea Drăng, Ea H'Leo, Đắk Lắk, Vietnam","lat":13.201897599999999,"lon":108.2065075,"add":"6624+QJ2, Nguyễn Thị Minh Khai","ward":"TT. Ea Drăng","dist":"Ea H'Leo","province":"Đắk Lắk, Vietnam","ward2":"Xã Cư A Mung","dist2":"Huyện Ea H'leo","province2":"Tỉnh Đắk Lắk"}
{"id":"0x316dfb72b3be2455:0x8c56be3b82598ef1","tel":null,"spa":"Hair/spa Ngọc quyên","name":"Hair/spa Ngọc quyên, 81 Âu Cơ, Ea Súp, Đắk Lắk, Vietnam","name2":"Hair/spa Ngọc quyên, 81 Âu Cơ, Ea Súp, Đắk Lắk, Vietnam","lat":13.078222799999999,"lon":107.8778799,"add":"81 Âu Cơ","ward":"Ea Súp","dist":"Đắk Lắk","province":"Vietnam","ward2":"Xã Cư A Mung","dist2":"Huyện Ea H'leo","province2":"Tỉnh Đắk Lắk"}
{"id":"0x316e0ffd89d2a8ff:0x17b47bfc4628f4e6","tel":null,"spa":"Spa Minh Thùy","name":"46PF+GMF Spa Minh Thùy, QL14, Ea Nam, Ea H'Leo, Đắk Lắk, Vietnam","name2":"46PF+GMF Spa Minh Thùy, QL14, Ea Nam, Ea H'Leo, Đắk Lắk, Vietnam","lat":13.1363036,"lon":108.2241573,"add":"46PF+GMF, QL14","ward":"Ea Nam","dist":"Ea H'Leo","province":"Đắk Lắk, Vietnam","ward2":"Xã Cư A Mung","dist2":"Huyện Ea H'leo","province2":"Tỉnh Đắk Lắk"}
{"id":"0x316e0d0c24ce43d5:0x551ca4687be36bff","tel":"+84 977 083 289","spa":"Hanh Spa","name":"Hanh Spa, 3, Tran Phu Street, Ea Drang Town, TT. Ea Drăng, Ea H'Leo, Đắk Lắk, Vietnam","name2":"Hanh Spa, 3, Tran Phu Street, Ea Drang Town, TT. Ea Drăng, Ea H'Leo, Đắk Lắk, Vietnam","lat":13.205855,"lon":108.2088089,"add":"3, Tran Phu Street, Ea Drang Town","ward":"TT. Ea Drăng","dist":"Ea H'Leo","province":"Đắk Lắk, Vietnam","ward2":"Xã Cư A Mung","dist2":"Huyện Ea H'leo","province2":"Tỉnh Đắk Lắk"}
{"id":"0x316dfbc8cb775d9f:0x9465df8a7b002d34","tel":null,"spa":"Spa Hồng Hạnh","name":"Spa Hồng Hạnh, 43b Hẻm Hùng Vương, Ea Súp, Đắk Lắk, Vietnam","name2":"Spa Hồng Hạnh, 43b Hẻm Hùng Vương, Ea Súp, Đắk Lắk, Vietnam","lat":13.0696356,"lon":107.8799825,"add":"43b Hẻm Hùng Vương","ward":"Ea Súp","dist":"Đắk Lắk","province":"Vietnam","ward2":"Xã Cư A Mung","dist2":"Huyện Ea H'leo","province2":"Tỉnh Đắk Lắk"}
{"id":"0x316e0d6302bb98e5:0xb51a00fbf658bee8","tel":null,"spa":"Spa Phương Liên","name":"Spa Phương Liên, 01 Lý Thường Kiệt, TT. Ea Drăng, Ea H'Leo, Đắk Lắk, Vietnam","name2":"Spa Phương Liên, 01 Lý Thường Kiệt, TT. Ea Drăng, Ea H'Leo, Đắk Lắk, Vietnam","lat":13.2032829,"lon":108.2083955,"add":"01 Lý Thường Kiệt","ward":"TT. Ea Drăng","dist":"Ea H'Leo","province":"Đắk Lắk, Vietnam","ward2":"Xã Cư A Mung","dist2":"Huyện Ea H'leo","province2":"Tỉnh Đắk Lắk"}
{"id":"0x316dfb6f8834d13d:0xf5d00ffbb6a80e81","tel":null,"spa":"Thanh Liễu SPA","name":"Thanh Liễu SPA, số 01 thôn 14, Ea Lê, Ea Súp, Đắk Lắk, Vietnam","name2":"Thanh Liễu SPA, số 01 thôn 14, Ea Lê, Ea Súp, Đắk Lắk, Vietnam","lat":13.079777499999999,"lon":107.8914243,"add":"số 01 thôn 14","ward":"Ea Lê","dist":"Ea Súp","province":"Đắk Lắk, Vietnam","ward2":"Xã Cư A Mung","dist2":"Huyện Ea H'leo","province2":"Tỉnh Đắk Lắk"}
{"id":"0x316e05b3d6243b9b:0x11828f8521d55751","tel":"+84 989 482 168","spa":"Spa ThyLinh","name":"26G9+2V6 Spa ThyLinh, Chư KBô, Krông Búk, Đắk Lắk, Vietnam","name2":"26G9+2V6 Spa ThyLinh, Chư KBô, Krông Búk, Đắk Lắk, Vietnam","lat":13.025029,"lon":108.219633,"add":"26G9+2V6","ward":"Chư KBô","dist":"Krông Búk","province":"Đắk Lắk, Vietnam","ward2":"Xã Cư A Mung","dist2":"Huyện Ea H'leo","province2":"Tỉnh Đắk Lắk"}
{"id":"0x316dfab88d27bae9:0x31dfa9016b9530ea","tel":null,"spa":"Spa Lê Nguyên","name":"3VFJ+W77 Spa Lê Nguyên, Âu Cơ, Ea Súp, Đắk Lắk, Vietnam","name2":"3VFJ+W77 Spa Lê Nguyên, Âu Cơ, Ea Súp, Đắk Lắk, Vietnam","lat":13.0747816,"lon":107.8806566,"add":"3VFJ+W77","ward":"Âu Cơ","dist":"Ea Súp","province":"Đắk Lắk, Vietnam","ward2":"Xã Cư A Mung","dist2":"Huyện Ea H'leo","province2":"Tỉnh Đắk Lắk"}
{"id":"0x316e0d095ceff879:0xf6b19bbce2650422","tel":null,"spa":"Spa Uyên Uyên","name":"6634+5XM Spa Uyên Uyên, Nguyễn Chí Thanh, TT. Ea Drăng, Ea H'Leo, Đắk Lắk, Vietnam","name2":"6634+5XM Spa Uyên Uyên, Nguyễn Chí Thanh, TT. Ea Drăng, Ea H'Leo, Đắk Lắk, Vietnam","lat":13.2029663,"lon":108.20742949999999,"add":"6634+5XM, Nguyễn Chí Thanh","ward":"TT. Ea Drăng","dist":"Ea H'Leo","province":"Đắk Lắk, Vietnam","ward2":"Xã Cư A Mung","dist2":"Huyện Ea H'leo","province2":"Tỉnh Đắk Lắk"}
{"id":"0x316de55167f20e93:0x3cd3c4f564114461","tel":"+84 367 287 678","spa":"SPA MINH MINH","name":"4V57+JJG SPA MINH MINH, Ea Súp, Đắk Lắk, Vietnam","name2":"4V57+JJG SPA MINH MINH, Ea Súp, Đắk Lắk, Vietnam","lat":13.1090673,"lon":107.86407249999999,"add":"4V57+JJG","ward":"Ea Súp","dist":"Đắk Lắk","province":"Vietnam","ward2":"Xã Cư A Mung","dist2":"Huyện Ea H'leo","province2":"Tỉnh Đắk Lắk"}
{"id":"0x3171df0f3682f4b9:0x68442166141739b2","tel":"+84 262 3625 401","spa":"Spa Thanh Xuân","name":"Spa Thanh Xuân, 11 Nguyễn Tất Thành, Ea Kar, Đắk Lắk, Vietnam","name2":"Spa Thanh Xuân, 11 Nguyễn Tất Thành, Ea Kar, Đắk Lắk, Vietnam","lat":12.809036899999999,"lon":108.44495579999999,"add":"11 Nguyễn Tất Thành","ward":"Ea Kar","dist":"Đắk Lắk","province":"Vietnam","ward2":"Xã Cư A Mung","dist2":"Huyện Ea H'leo","province2":"Tỉnh Đắk Lắk"}
{"id":"0x316dfb4974f6abe1:0xee3d7edb21cfeb6","tel":null,"spa":"An Nhi Spa","name":"3V5F+H9C An Nhi Spa, ĐT681, Cư M'Lan, Ea Súp, Đắk Lắk, Vietnam","name2":"3V5F+H9C An Nhi Spa, ĐT681, Cư M'Lan, Ea Súp, Đắk Lắk, Vietnam","lat":13.0589385,"lon":107.87339139999999,"add":"3V5F+H9C, ĐT681","ward":"Cư M'Lan","dist":"Ea Súp","province":"Đắk Lắk, Vietnam","ward2":"Xã Cư A Mung","dist2":"Huyện Ea H'leo","province2":"Tỉnh Đắk Lắk"}
{"id":"0x316e0d3223147d5f:0x5188fcb3fdd4b7d6","tel":"+84 967 070 809","spa":"An Nhiên Spa - Massage bấm huyệt","name":"An Nhiên Spa - Massage bấm huyệt, 44 Trần Quốc Toản, TT. Ea Drăng, Ea H'Leo, Đắk Lắk, Vietnam","name2":"An Nhiên Spa - Massage bấm huyệt, 44 Trần Quốc Toản, TT. Ea Drăng, Ea H'Leo, Đắk Lắk, Vietnam","lat":13.2019887,"lon":108.2108239,"add":"44 Trần Quốc Toản","ward":"TT. Ea Drăng","dist":"Ea H'Leo","province":"Đắk Lắk, Vietnam","ward2":"Xã Cư Mốt","dist2":"Huyện Ea H'leo","province2":"Tỉnh Đắk Lắk"}
{"id":"0x316e0d888d907b39:0x3f19c23917b648d","tel":"+84 854 017 817","spa":"Quỳnh Hương Spa&Beauty","name":"Quỳnh Hương Spa&Beauty, 08 Lý Tự Trọng, TT. Ea Drăng, Ea H'Leo, Đắk Lắk, Vietnam","name2":"Quỳnh Hương Spa&Beauty, 08 Lý Tự Trọng, TT. Ea Drăng, Ea H'Leo, Đắk Lắk, Vietnam","lat":13.2060917,"lon":108.21259789999999,"add":"08 Lý Tự Trọng","ward":"TT. Ea Drăng","dist":"Ea H'Leo","province":"Đắk Lắk, Vietnam","ward2":"Xã Cư Mốt","dist2":"Huyện Ea H'leo","province2":"Tỉnh Đắk Lắk"}
{"id":"0x316e0d4f71780021:0xa84d86cce0423fcd","tel":"+84 984 961 496","spa":"Spa Cô Mị","name":"Spa Cô Mị, 527 Giải Phóng, TT. Ea Drăng, Ea H'Leo, Đắk Lắk, Vietnam","name2":"Spa Cô Mị, 527 Giải Phóng, TT. Ea Drăng, Ea H'Leo, Đắk Lắk, Vietnam","lat":13.2083961,"lon":108.2077382,"add":"527 Giải Phóng","ward":"TT. Ea Drăng","dist":"Ea H'Leo","province":"Đắk Lắk, Vietnam","ward2":"Xã Cư Mốt","dist2":"Huyện Ea H'leo","province2":"Tỉnh Đắk Lắk"}
{"id":"0x316e0d0c1f786d3d:0x493e2bc2edb84217","tel":null,"spa":"Spa Yến Vũ","name":"6645+48W Spa Yến Vũ, Quang Trung, TT. Ea Drăng, Ea H'Leo, Đắk Lắk, Vietnam","name2":"6645+48W Spa Yến Vũ, Quang Trung, TT. Ea Drăng, Ea H'Leo, Đắk Lắk, Vietnam","lat":13.205370199999999,"lon":108.20831369999999,"add":"6645+48W, Quang Trung","ward":"TT. Ea Drăng","dist":"Ea H'Leo","province":"Đắk Lắk, Vietnam","ward2":"Xã Cư Mốt","dist2":"Huyện Ea H'leo","province2":"Tỉnh Đắk Lắk"}
{"id":"0x31721d2d9384951d:0x1953c2b345eb4fed","tel":"+84 379 773 517","spa":"Gà Spa Buôn Ma Thuột","name":"Gà Spa Buôn Ma Thuột, 6 Huy Cận, Thắng Lợi, Thành phố Buôn Ma Thuột, Đắk Lắk 630000, Vietnam","name2":"Gà Spa Buôn Ma Thuột, 6 Huy Cận, Thắng Lợi, Thành phố Buôn Ma Thuột, Đắk Lắk 630000, Vietnam","lat":12.681956399999999,"lon":108.0416381,"add":"6 Huy Cận","ward":"Thắng Lợi","dist":"Thành phố Buôn Ma Thuột","province":"Đắk Lắk 630000, Vietnam","ward2":"Xã Cư Mốt","dist2":"Huyện Ea H'leo","province2":"Tỉnh Đắk Lắk"}
{"id":"0x316e0d6d4dd0770f:0xfcbb19f3b9afd1ee","tel":null,"spa":"Massage Hải Âu","name":"6657+XPQ Massage Hải Âu, Ama Khê, TT. Ea Drăng, Ea H'Leo, Đắk Lắk, Vietnam","name2":"6657+XPQ Massage Hải Âu, Ama Khê, TT. Ea Drăng, Ea H'Leo, Đắk Lắk, Vietnam","lat":13.209957099999999,"lon":108.21436059999999,"add":"6657+XPQ, Ama Khê","ward":"TT. Ea Drăng","dist":"Ea H'Leo","province":"Đắk Lắk, Vietnam","ward2":"Xã Cư Mốt","dist2":"Huyện Ea H'leo","province2":"Tỉnh Đắk Lắk"}
{"id":"0x316e0d0cff431edd:0xf2c34c8808048270","tel":"+84 944 635 779","spa":"Spa Thúy Nga","name":"6646+J9W Spa Thúy Nga, Nơ Trang Lơng, TT. Ea Drăng, Ea H'Leo, Đắk Lắk, Vietnam","name2":"6646+J9W Spa Thúy Nga, Nơ Trang Lơng, TT. Ea Drăng, Ea H'Leo, Đắk Lắk, Vietnam","lat":13.2066121,"lon":108.2109424,"add":"6646+J9W, Nơ Trang Lơng","ward":"TT. Ea Drăng","dist":"Ea H'Leo","province":"Đắk Lắk, Vietnam","ward2":"Xã Cư Mốt","dist2":"Huyện Ea H'leo","province2":"Tỉnh Đắk Lắk"}
{"id":"0x316e0dfe6ce57be9:0x446b981a23d6d535","tel":null,"spa":"Spa Thuý Nga","name":"Spa Thuý Nga, 26 Quang Trung, Tổ Dân Phố 8, Ea H'Leo, Đắk Lắk, Vietnam","name2":"Spa Thuý Nga, 26 Quang Trung, Tổ Dân Phố 8, Ea H'Leo, Đắk Lắk, Vietnam","lat":13.205327599999999,"lon":108.2079593,"add":"26 Quang Trung","ward":"Tổ Dân Phố 8","dist":"Ea H'Leo","province":"Đắk Lắk, Vietnam","ward2":"Xã Cư Mốt","dist2":"Huyện Ea H'leo","province2":"Tỉnh Đắk Lắk"}
{"id":"0x316e0de46ebc694b:0x636aef21382fed3c","tel":null,"spa":"Hope Spa","name":"Hope Spa, 14 Nơ Trang Lơng, TT. Ea Drăng, Ea H'Leo, Đắk Lắk, Vietnam","name2":"Hope Spa, 14 Nơ Trang Lơng, TT. Ea Drăng, Ea H'Leo, Đắk Lắk, Vietnam","lat":13.207633999999999,"lon":108.20868999999999,"add":"14 Nơ Trang Lơng","ward":"TT. Ea Drăng","dist":"Ea H'Leo","province":"Đắk Lắk, Vietnam","ward2":"Xã Cư Mốt","dist2":"Huyện Ea H'leo","province2":"Tỉnh Đắk Lắk"}
{"id":"0x316e0d0cab28c675:0xed714c92feec9f4","tel":"+84 948 312 078","spa":"Nấm Spa","name":"6637+GH6 Nấm Spa, Nơ Trang Lơng, TT. Ea Drăng, Ea H'Leo, Đắk Lắk, Vietnam","name2":"6637+GH6 Nấm Spa, Nơ Trang Lơng, TT. Ea Drăng, Ea H'Leo, Đắk Lắk, Vietnam","lat":13.2037936,"lon":108.2138902,"add":"6637+GH6, Nơ Trang Lơng","ward":"TT. Ea Drăng","dist":"Ea H'Leo","province":"Đắk Lắk, Vietnam","ward2":"Xã Cư Mốt","dist2":"Huyện Ea H'leo","province2":"Tỉnh Đắk Lắk"}
{"id":"0x316e0d0dade91681:0x6e12d524589c8d80","tel":null,"spa":"Spa Út Nga","name":"Spa Út Nga, 39 Nơ Trang Lơng, TT. Ea Drăng, Ea H'Leo, Đắk Lắk, Vietnam","name2":"Spa Út Nga, 39 Nơ Trang Lơng, TT. Ea Drăng, Ea H'Leo, Đắk Lắk, Vietnam","lat":13.2069757,"lon":108.2104251,"add":"39 Nơ Trang Lơng","ward":"TT. Ea Drăng","dist":"Ea H'Leo","province":"Đắk Lắk, Vietnam","ward2":"Xã Cư Mốt","dist2":"Huyện Ea H'leo","province2":"Tỉnh Đắk Lắk"}
{"id":"0x316e0d4c19044c9d:0x15b2e643aca05df7","tel":"+84 976 979 335","spa":"TATTOO & SPA","name":"6645+59J TATTOO & SPA, Quang Trung, TT. Ea Drăng, Ea H'Leo, Đắk Lắk, Vietnam","name2":"6645+59J TATTOO & SPA, Quang Trung, TT. Ea Drăng, Ea H'Leo, Đắk Lắk, Vietnam","lat":13.205456499999999,"lon":108.208379,"add":"6645+59J, Quang Trung","ward":"TT. Ea Drăng","dist":"Ea H'Leo","province":"Đắk Lắk, Vietnam","ward2":"Xã Cư Mốt","dist2":"Huyện Ea H'leo","province2":"Tỉnh Đắk Lắk"}
{"id":"0x316e733684059df7:0x91be4f48cd5b651e","tel":null,"spa":"Spa Phương Ngọc","name":"8543+92X Spa Phương Ngọc, Ea H'leo, Ea H'Leo, Đắk Lắk, Vietnam","name2":"8543+92X Spa Phương Ngọc, Ea H'leo, Ea H'Leo, Đắk Lắk, Vietnam","lat":13.305987799999999,"lon":108.15262369999999,"add":"8543+92X","ward":"Ea H'leo","dist":"Ea H'Leo","province":"Đắk Lắk, Vietnam","ward2":"Xã Cư Mốt","dist2":"Huyện Ea H'leo","province2":"Tỉnh Đắk Lắk"}
{"id":"0x316e0dd2475c4a39:0xae69f8e5a3e16b1d","tel":null,"spa":"Mỹ Hà Yoga - Massage Vật Lý Trị Liệu","name":"Mỹ Hà Yoga - Massage Vật Lý Trị Liệu, 66 Lý Tự Trọng Huyện Ea H'leo Dak Lak Province, 630000, Vietnam","name2":"Mỹ Hà Yoga - Massage Vật Lý Trị Liệu, 66 Lý Tự Trọng Huyện Ea H'leo Dak Lak Province, 630000, Vietnam","lat":13.2095857,"lon":108.21188509999999,"add":"66 Lý Tự Trọng Huyện Ea H'leo Dak Lak Province","ward":"630000","dist":"Vietnam","ward2":"Xã Cư Mốt","dist2":"Huyện Ea H'leo","province2":"Tỉnh Đắk Lắk"}
{"id":"0x316e0d09b0387b7f:0x45790189704f6bb4","tel":null,"spa":"Spa Bé Anh","name":"6624+78C Spa Bé Anh, Lê Thị Hồng Gấm, TT. Ea Drăng, Ea H'Leo, Đắk Lắk, Vietnam","name2":"6624+78C Spa Bé Anh, Lê Thị Hồng Gấm, TT. Ea Drăng, Ea H'Leo, Đắk Lắk, Vietnam","lat":13.200699199999999,"lon":108.20575199999999,"add":"6624+78C, Lê Thị Hồng Gấm","ward":"TT. Ea Drăng","dist":"Ea H'Leo","province":"Đắk Lắk, Vietnam","ward2":"Xã Cư Mốt","dist2":"Huyện Ea H'leo","province2":"Tỉnh Đắk Lắk"}
{"id":"0x316e0d22d03fe0d9:0x660625ae2fe1ae3a","tel":"+84 839 008 779","spa":"Spa Bích Trâm","name":"Spa Bích Trâm, 72 Nguyễn Chí Thanh, TT. Ea Drăng, Ea H'Leo, Đắk Lắk, Vietnam","name2":"Spa Bích Trâm, 72 Nguyễn Chí Thanh, TT. Ea Drăng, Ea H'Leo, Đắk Lắk, Vietnam","lat":13.2100864,"lon":108.21109709999999,"add":"72 Nguyễn Chí Thanh","ward":"TT. Ea Drăng","dist":"Ea H'Leo","province":"Đắk Lắk, Vietnam","ward2":"Xã Cư Mốt","dist2":"Huyện Ea H'leo","province2":"Tỉnh Đắk Lắk"}
{"id":"0x316e0d080dfc4031:0x7534875c60dba522","tel":"+84 973 831 865","spa":"Spa Thanh Thúy","name":"56X3+X4Q Spa Thanh Thúy, Đường số 4, TT. Ea Drăng, Ea H'Leo, Đắk Lắk 630000, Vietnam","name2":"56X3+X4Q Spa Thanh Thúy, Đường số 4, TT. Ea Drăng, Ea H'Leo, Đắk Lắk 630000, Vietnam","lat":13.199969399999999,"lon":108.202872,"add":"56X3+X4Q, Đường số 4","ward":"TT. Ea Drăng","dist":"Ea H'Leo","province":"Đắk Lắk 630000, Vietnam","ward2":"Xã Cư Mốt","dist2":"Huyện Ea H'leo","province2":"Tỉnh Đắk Lắk"}
{"id":"0x316e0d4c8bc7192f:0x9b7338e0a97bf5f4","tel":"+84 976 859 596","spa":"Spa Quỳnh Anh","name":"Spa Quỳnh Anh, 25 Nơ Trang Lơng, TT. Ea Drăng, Ea H'Leo, Đắk Lắk, Vietnam","name2":"Spa Quỳnh Anh, 25 Nơ Trang Lơng, TT. Ea Drăng, Ea H'Leo, Đắk Lắk, Vietnam","lat":13.206612999999999,"lon":108.2106238,"add":"25 Nơ Trang Lơng","ward":"TT. Ea Drăng","dist":"Ea H'Leo","province":"Đắk Lắk, Vietnam","ward2":"Xã Cư Mốt","dist2":"Huyện Ea H'leo","province2":"Tỉnh Đắk Lắk"}
{"id":"0x316e0d405d34f3bf:0x5ed301f67da746df","tel":"+84 911 556 783","spa":"Bela spa","name":"Bela spa, 20 Quang Trung, TT. Ea Drăng, Ea H'Leo, Đắk Lắk, Vietnam","name2":"Bela spa, 20 Quang Trung, TT. Ea Drăng, Ea H'Leo, Đắk Lắk, Vietnam","lat":13.2066619,"lon":108.2088155,"add":"20 Quang Trung","ward":"TT. Ea Drăng","dist":"Ea H'Leo","province":"Đắk Lắk, Vietnam","ward2":"Xã Cư Mốt","dist2":"Huyện Ea H'leo","province2":"Tỉnh Đắk Lắk"}
{"id":"0x316e71ad6a51b2d1:0x76f7a5ad6f1bbbe4","tel":"+84 977 465 123","spa":"Trà sữa PINKY - HuongTran SPA","name":"9553+J4M Trà sữa PINKY - HuongTran SPA, QL14, Ea H'leo, Ea H'Leo, Đắk Lắk, Vietnam","name2":"9553+J4M Trà sữa PINKY - HuongTran SPA, QL14, Ea H'leo, Ea H'Leo, Đắk Lắk, Vietnam","lat":13.359078799999999,"lon":108.15278649999999,"add":"9553+J4M, QL14","ward":"Ea H'leo","dist":"Ea H'Leo","province":"Đắk Lắk, Vietnam","ward2":"Xã Cư Mốt","dist2":"Huyện Ea H'leo","province2":"Tỉnh Đắk Lắk"}
{"id":"0x316e0d0dab57c055:0x5f44d9df91792086","tel":"+84 989 526 777","spa":"Spa Bích Trang","name":"6646+P75 Spa Bích Trang, Nơ Trang Lơng, TT. Ea Drăng, Ea H'Leo, Đắk Lắk, Vietnam","name2":"6646+P75 Spa Bích Trang, Nơ Trang Lơng, TT. Ea Drăng, Ea H'Leo, Đắk Lắk, Vietnam","lat":13.2067566,"lon":108.2107436,"add":"6646+P75, Nơ Trang Lơng","ward":"TT. Ea Drăng","dist":"Ea H'Leo","province":"Đắk Lắk, Vietnam","ward2":"Xã Cư Mốt","dist2":"Huyện Ea H'leo","province2":"Tỉnh Đắk Lắk"}
{"id":"0x316e0d092b92da1b:0x434fb7988760b95e","tel":null,"spa":"Spa Diễm Vy","name":"Spa Diễm Vy, tt. Ea Drăng, Ea H'Leo, Đắk Lắk, Vietnam","name2":"Spa Diễm Vy, tt. Ea Drăng, Ea H'Leo, Đắk Lắk, Vietnam","lat":13.203990099999999,"lon":108.20544629999999,"add":"tt. Ea Drăng","ward":"Ea H'Leo","dist":"Đắk Lắk","province":"Vietnam","ward2":"Xã Cư Mốt","dist2":"Huyện Ea H'leo","province2":"Tỉnh Đắk Lắk"}
{"id":"0x316e7199e9df074b:0xe64bc10e57904c62","tel":"+84 976 988 211","spa":"Spa Thảo Nguyên","name":"Spa Thảo Nguyên, Chợ Chư Phả Buôn Ma Thuộc, Đắk Lắk, Vietnam","name2":"Spa Thảo Nguyên, Chợ Chư Phả Buôn Ma Thuộc, Đắk Lắk, Vietnam","lat":13.358072499999999,"lon":108.153651,"add":"Chợ Chư Phả Buôn Ma Thuộc","ward":"Đắk Lắk","dist":"Vietnam","ward2":"Xã Cư Mốt","dist2":"Huyện Ea H'leo","province2":"Tỉnh Đắk Lắk"}
{"id":"0x316e71ad6a51b2d1:0x76f7a5ad6f1bbbe4","tel":"+84 977 465 123","spa":"Trà sữa PINKY - HuongTran SPA","name":"9553+J4M Trà sữa PINKY - HuongTran SPA, QL14, Ea H'leo, Ea H'Leo, Đắk Lắk, Vietnam","name2":"9553+J4M Trà sữa PINKY - HuongTran SPA, QL14, Ea H'leo, Ea H'Leo, Đắk Lắk, Vietnam","lat":13.359078799999999,"lon":108.15278649999999,"add":"9553+J4M, QL14","ward":"Ea H'leo","dist":"Ea H'Leo","province":"Đắk Lắk, Vietnam","ward2":"Xã Cư Mốt","dist2":"Huyện Ea H'leo","province2":"Tỉnh Đắk Lắk"}
{"id":"0x316e7191c31a8811:0x1f1b2ebe51436082","tel":null,"spa":"Spa lê nga","name":"9562+F75 Spa lê nga, QL14, Ea H'leo, Ea H'Leo, Đắk Lắk, Vietnam","name2":"9562+F75 Spa lê nga, QL14, Ea H'leo, Ea H'Leo, Đắk Lắk, Vietnam","lat":13.3610831,"lon":108.1505969,"add":"9562+F75, QL14","ward":"Ea H'leo","dist":"Ea H'Leo","province":"Đắk Lắk, Vietnam","ward2":"Xã Cư Mốt","dist2":"Huyện Ea H'leo","province2":"Tỉnh Đắk Lắk"}
{"id":"0x31721d2d9384951d:0x1953c2b345eb4fed","tel":"+84 379 773 517","spa":"Gà Spa Buôn Ma Thuột","name":"Gà Spa Buôn Ma Thuột, 6 Huy Cận, Thắng Lợi, Thành phố Buôn Ma Thuột, Đắk Lắk 630000, Vietnam","name2":"Gà Spa Buôn Ma Thuột, 6 Huy Cận, Thắng Lợi, Thành phố Buôn Ma Thuột, Đắk Lắk 630000, Vietnam","lat":12.681956399999999,"lon":108.0416381,"add":"6 Huy Cận","ward":"Thắng Lợi","dist":"Thành phố Buôn Ma Thuột","province":"Đắk Lắk 630000, Vietnam","ward2":"Xã Cư Mốt","dist2":"Huyện Ea H'leo","province2":"Tỉnh Đắk Lắk"}
{"id":"0x316e0d0fee2b1dad:0xd4d2636a928065c7","tel":"+84 905 600 456","spa":"Bích Phấn Spa Beauty","name":"Bích Phấn Spa Beauty, EaDrăng - EaH'Leo, Ngô Gia Tự, TT. Ea Drăng, Ea H'Leo, Đắk Lắk 70000, Vietnam","name2":"Bích Phấn Spa Beauty, EaDrăng - EaH'Leo, Ngô Gia Tự, TT. Ea Drăng, Ea H'Leo, Đắk Lắk 70000, Vietnam","lat":13.2090853,"lon":108.20144669999999,"add":"EaDrăng - EaH'Leo, Ngô Gia Tự","ward":"TT. Ea Drăng","dist":"Ea H'Leo","province":"Đắk Lắk 70000, Vietnam","ward2":"Xã Cư Mốt","dist2":"Huyện Ea H'leo","province2":"Tỉnh Đắk Lắk"}
{"id":"0x316e0d8a494e685f:0x9a38c8a0690498b9","tel":"+84 986 452 156","spa":"Thảo mộc dân tộc dao Mộc Thanh","name":"Thảo mộc dân tộc dao Mộc Thanh, 408 Giải Phóng, TT. Ea Drăng, Ea H'Leo, Đắk Lắk 63000, Vietnam","name2":"Thảo mộc dân tộc dao Mộc Thanh, 408 Giải Phóng, TT. Ea Drăng, Ea H'Leo, Đắk Lắk 63000, Vietnam","lat":13.1990837,"lon":108.2048264,"add":"408 Giải Phóng","ward":"TT. Ea Drăng","dist":"Ea H'Leo","province":"Đắk Lắk 63000, Vietnam","ward2":"Xã Cư Mốt","dist2":"Huyện Ea H'leo","province2":"Tỉnh Đắk Lắk"}
{"id":"0x316e0defa4416931:0x8ea52062f03b41da","tel":"+84 837 552 556","spa":"Tuyền Nail","name":"Tuyền Nail, 16D Quang Trung, TT. Ea Drăng, Ea H'Leo, Đắk Lắk 630000, Vietnam","name2":"Tuyền Nail, 16D Quang Trung, TT. Ea Drăng, Ea H'Leo, Đắk Lắk 630000, Vietnam","lat":13.2045771,"lon":108.2076536,"add":"16D Quang Trung","ward":"TT. Ea Drăng","dist":"Ea H'Leo","province":"Đắk Lắk 630000, Vietnam","ward2":"Xã Cư Mốt","dist2":"Huyện Ea H'leo","province2":"Tỉnh Đắk Lắk"}
{"id":"0x316e0d0976c8d907:0xaad3f8e9452d0a72","tel":null,"spa":"Nắng Spa","name":"6624+MR9 Nắng Spa, Nguyễn Thị Minh Khai, TT. Ea Drăng, Ea H'Leo, Đắk Lắk, Vietnam","name2":"6624+MR9 Nắng Spa, Nguyễn Thị Minh Khai, TT. Ea Drăng, Ea H'Leo, Đắk Lắk, Vietnam","lat":13.2016694,"lon":108.20709749999999,"add":"6624+MR9, Nguyễn Thị Minh Khai","ward":"TT. Ea Drăng","dist":"Ea H'Leo","province":"Đắk Lắk, Vietnam","ward2":"Xã Cư Mốt","dist2":"Huyện Ea H'leo","province2":"Tỉnh Đắk Lắk"}
{"id":"0x316e1d83ee647dad:0x3f0cbed1a4233e91","tel":"+84 358 283 898","spa":"Spa Đông Nghi Buôn Hồ","name":"Spa Đông Nghi Buôn Hồ, 1A Tôn Thất Tùng, Phường An Lạc, Buôn Hồ, Đắk Lắk 63000, Vietnam","name2":"Spa Đông Nghi Buôn Hồ, 1A Tôn Thất Tùng, Phường An Lạc, Buôn Hồ, Đắk Lắk 63000, Vietnam","lat":12.9122243,"lon":108.26684619999999,"add":"1A Tôn Thất Tùng","ward":"Phường An Lạc","dist":"Buôn Hồ","province":"Đắk Lắk 63000, Vietnam","ward2":"Xã Cư Mốt","dist2":"Huyện Ea H'leo","province2":"Tỉnh Đắk Lắk"}
{"id":"0x316e0b2418af8e49:0xdee606ffaca356f1","tel":null,"spa":"Cư Mốt","name":"Cư Mốt, Ea H'leo District, Dak Lak, Vietnam","name2":"Cư Mốt, Ea H'leo District, Dak Lak, Vietnam","lat":13.2169492,"lon":108.10729239999999,"add":"Ea H'leo District","ward":"Dak Lak","dist":"Vietnam","ward2":"Xã Cư Mốt","dist2":"Huyện Ea H'leo","province2":"Tỉnh Đắk Lắk"}
{"id":"0x316e0b1ae65a0337:0x2fee8b9761b26a94","tel":null,"spa":"Cư Mốt","name":"Cư Mốt, Ea H'leo District, Dak Lak, Vietnam","name2":"Cư Mốt, Ea H'leo District, Dak Lak, Vietnam","lat":13.2169492,"lon":108.10729239999999,"add":"Ea H'leo District","ward":"Dak Lak","dist":"Vietnam","ward2":"Xã Cư Mốt","dist2":"Huyện Ea H'leo","province2":"Tỉnh Đắk Lắk"}
{"id":"0x3171ffbca0147855:0x25e71c028d1ee608","tel":"+84 347 047 087","spa":"Thuỳ Ngân Beauty Spa","name":"Thuỳ Ngân Beauty Spa, 105 Nguyễn Chí Thanh, Quảng Phú, Cư M'gar, Đắk Lắk, Vietnam","name2":"Thuỳ Ngân Beauty Spa, 105 Nguyễn Chí Thanh, Quảng Phú, Cư M'gar, Đắk Lắk, Vietnam","lat":12.8203222,"lon":108.0727448,"add":"105 Nguyễn Chí Thanh","ward":"Quảng Phú","dist":"Cư M'gar","province":"Đắk Lắk, Vietnam","ward2":"Xã Cư Mốt","dist2":"Huyện Ea H'leo","province2":"Tỉnh Đắk Lắk"}
{"id":"0x316e0ccbe25b2251:0x101b358d08338b7f","tel":null,"spa":"Lài Spa","name":"Lài Spa, Ea Ral, Ea H'Leo, Đắk Lắk, Vietnam","name2":"Lài Spa, Ea Ral, Ea H'Leo, Đắk Lắk, Vietnam","lat":13.240088,"lon":108.17154769999999,"add":"Ea Ral","ward":"Ea H'Leo","dist":"Đắk Lắk","province":"Vietnam","ward2":"Xã Cư Mốt","dist2":"Huyện Ea H'leo","province2":"Tỉnh Đắk Lắk"}
{"id":"0x316e0d0c24ce43d5:0x551ca4687be36bff","tel":"+84 977 083 289","spa":"Hanh Spa","name":"Hanh Spa, 3, Tran Phu Street, Ea Drang Town, TT. Ea Drăng, Ea H'Leo, Đắk Lắk, Vietnam","name2":"Hanh Spa, 3, Tran Phu Street, Ea Drang Town, TT. Ea Drăng, Ea H'Leo, Đắk Lắk, Vietnam","lat":13.205855,"lon":108.2088089,"add":"3, Tran Phu Street, Ea Drang Town","ward":"TT. Ea Drăng","dist":"Ea H'Leo","province":"Đắk Lắk, Vietnam","ward2":"Xã Cư Mốt","dist2":"Huyện Ea H'leo","province2":"Tỉnh Đắk Lắk"}
{"id":"0x316e0ffd89d2a8ff:0x17b47bfc4628f4e6","tel":null,"spa":"Spa Minh Thùy","name":"46PF+GMF Spa Minh Thùy, QL14, Ea Nam, Ea H'Leo, Đắk Lắk, Vietnam","name2":"46PF+GMF Spa Minh Thùy, QL14, Ea Nam, Ea H'Leo, Đắk Lắk, Vietnam","lat":13.1363036,"lon":108.2241573,"add":"46PF+GMF, QL14","ward":"Ea Nam","dist":"Ea H'Leo","province":"Đắk Lắk, Vietnam","ward2":"Xã Cư Mốt","dist2":"Huyện Ea H'leo","province2":"Tỉnh Đắk Lắk"}
{"id":"0x316e0d6302bb98e5:0xb51a00fbf658bee8","tel":null,"spa":"Spa Phương Liên","name":"Spa Phương Liên, 01 Lý Thường Kiệt, TT. Ea Drăng, Ea H'Leo, Đắk Lắk, Vietnam","name2":"Spa Phương Liên, 01 Lý Thường Kiệt, TT. Ea Drăng, Ea H'Leo, Đắk Lắk, Vietnam","lat":13.2032829,"lon":108.2083955,"add":"01 Lý Thường Kiệt","ward":"TT. Ea Drăng","dist":"Ea H'Leo","province":"Đắk Lắk, Vietnam","ward2":"Xã Cư Mốt","dist2":"Huyện Ea H'leo","province2":"Tỉnh Đắk Lắk"}
{"id":"0x316e0d095ceff879:0xf6b19bbce2650422","tel":null,"spa":"Spa Uyên Uyên","name":"6634+5XM Spa Uyên Uyên, Nguyễn Chí Thanh, TT. Ea Drăng, Ea H'Leo, Đắk Lắk, Vietnam","name2":"6634+5XM Spa Uyên Uyên, Nguyễn Chí Thanh, TT. Ea Drăng, Ea H'Leo, Đắk Lắk, Vietnam","lat":13.2029663,"lon":108.20742949999999,"add":"6634+5XM, Nguyễn Chí Thanh","ward":"TT. Ea Drăng","dist":"Ea H'Leo","province":"Đắk Lắk, Vietnam","ward2":"Xã Cư Mốt","dist2":"Huyện Ea H'leo","province2":"Tỉnh Đắk Lắk"}
{"id":"0x3171df0f3682f4b9:0x68442166141739b2","tel":"+84 262 3625 401","spa":"Spa Thanh Xuân","name":"Spa Thanh Xuân, 11 Nguyễn Tất Thành, Ea Kar, Đắk Lắk, Vietnam","name2":"Spa Thanh Xuân, 11 Nguyễn Tất Thành, Ea Kar, Đắk Lắk, Vietnam","lat":12.809036899999999,"lon":108.44495579999999,"add":"11 Nguyễn Tất Thành","ward":"Ea Kar","dist":"Đắk Lắk","province":"Vietnam","ward2":"Xã Cư Mốt","dist2":"Huyện Ea H'leo","province2":"Tỉnh Đắk Lắk"}
{"id":"0x316de55167f20e93:0x3cd3c4f564114461","tel":"+84 367 287 678","spa":"SPA MINH MINH","name":"4V57+JJG SPA MINH MINH, Ea Súp, Đắk Lắk, Vietnam","name2":"4V57+JJG SPA MINH MINH, Ea Súp, Đắk Lắk, Vietnam","lat":13.1090673,"lon":107.86407249999999,"add":"4V57+JJG","ward":"Ea Súp","dist":"Đắk Lắk","province":"Vietnam","ward2":"Xã Cư Mốt","dist2":"Huyện Ea H'leo","province2":"Tỉnh Đắk Lắk"}
{"id":"0x316e13a48bec08ab:0xd46944a7dc6690cf","tel":"+84 969 678 282","spa":"Spa Helen nguyen","name":"6854+PMQ Spa Helen nguyen, Ea Sol, Ea H'Leo, Đắk Lắk, Vietnam","name2":"6854+PMQ Spa Helen nguyen, Ea Sol, Ea H'Leo, Đắk Lắk, Vietnam","lat":13.209334,"lon":108.30674289999999,"add":"6854+PMQ","ward":"Ea Sol","dist":"Ea H'Leo","province":"Đắk Lắk, Vietnam","ward2":"Xã Ea Hiao","dist2":"Huyện Ea H'leo","province2":"Tỉnh Đắk Lắk"}
{"id":"0x316e0d3223147d5f:0x5188fcb3fdd4b7d6","tel":"+84 967 070 809","spa":"An Nhiên Spa - Massage bấm huyệt","name":"An Nhiên Spa - Massage bấm huyệt, 44 Trần Quốc Toản, TT. Ea Drăng, Ea H'Leo, Đắk Lắk, Vietnam","name2":"An Nhiên Spa - Massage bấm huyệt, 44 Trần Quốc Toản, TT. Ea Drăng, Ea H'Leo, Đắk Lắk, Vietnam","lat":13.2019887,"lon":108.2108239,"add":"44 Trần Quốc Toản","ward":"TT. Ea Drăng","dist":"Ea H'Leo","province":"Đắk Lắk, Vietnam","ward2":"Xã Ea Hiao","dist2":"Huyện Ea H'leo","province2":"Tỉnh Đắk Lắk"}
{"id":"0x316e0d888d907b39:0x3f19c23917b648d","tel":"+84 854 017 817","spa":"Quỳnh Hương Spa&Beauty","name":"Quỳnh Hương Spa&Beauty, 08 Lý Tự Trọng, TT. Ea Drăng, Ea H'Leo, Đắk Lắk, Vietnam","name2":"Quỳnh Hương Spa&Beauty, 08 Lý Tự Trọng, TT. Ea Drăng, Ea H'Leo, Đắk Lắk, Vietnam","lat":13.2060917,"lon":108.21259789999999,"add":"08 Lý Tự Trọng","ward":"TT. Ea Drăng","dist":"Ea H'Leo","province":"Đắk Lắk, Vietnam","ward2":"Xã Ea Hiao","dist2":"Huyện Ea H'leo","province2":"Tỉnh Đắk Lắk"}
{"id":"0x316e0d0c1f786d3d:0x493e2bc2edb84217","tel":null,"spa":"Spa Yến Vũ","name":"6645+48W Spa Yến Vũ, Quang Trung, TT. Ea Drăng, Ea H'Leo, Đắk Lắk, Vietnam","name2":"6645+48W Spa Yến Vũ, Quang Trung, TT. Ea Drăng, Ea H'Leo, Đắk Lắk, Vietnam","lat":13.205370199999999,"lon":108.20831369999999,"add":"6645+48W, Quang Trung","ward":"TT. Ea Drăng","dist":"Ea H'Leo","province":"Đắk Lắk, Vietnam","ward2":"Xã Ea Hiao","dist2":"Huyện Ea H'leo","province2":"Tỉnh Đắk Lắk"}
{"id":"0x31721d2d9384951d:0x1953c2b345eb4fed","tel":"+84 379 773 517","spa":"Gà Spa Buôn Ma Thuột","name":"Gà Spa Buôn Ma Thuột, 6 Huy Cận, Thắng Lợi, Thành phố Buôn Ma Thuột, Đắk Lắk 630000, Vietnam","name2":"Gà Spa Buôn Ma Thuột, 6 Huy Cận, Thắng Lợi, Thành phố Buôn Ma Thuột, Đắk Lắk 630000, Vietnam","lat":12.681956399999999,"lon":108.0416381,"add":"6 Huy Cận","ward":"Thắng Lợi","dist":"Thành phố Buôn Ma Thuột","province":"Đắk Lắk 630000, Vietnam","ward2":"Xã Ea Hiao","dist2":"Huyện Ea H'leo","province2":"Tỉnh Đắk Lắk"}
{"id":"0x316e0d6d4dd0770f:0xfcbb19f3b9afd1ee","tel":null,"spa":"Massage Hải Âu","name":"6657+XPQ Massage Hải Âu, Ama Khê, TT. Ea Drăng, Ea H'Leo, Đắk Lắk, Vietnam","name2":"6657+XPQ Massage Hải Âu, Ama Khê, TT. Ea Drăng, Ea H'Leo, Đắk Lắk, Vietnam","lat":13.209957099999999,"lon":108.21436059999999,"add":"6657+XPQ, Ama Khê","ward":"TT. Ea Drăng","dist":"Ea H'Leo","province":"Đắk Lắk, Vietnam","ward2":"Xã Ea Hiao","dist2":"Huyện Ea H'leo","province2":"Tỉnh Đắk Lắk"}
{"id":"0x316e0d4f71780021:0xa84d86cce0423fcd","tel":"+84 984 961 496","spa":"Spa Cô Mị","name":"Spa Cô Mị, 527 Giải Phóng, TT. Ea Drăng, Ea H'Leo, Đắk Lắk, Vietnam","name2":"Spa Cô Mị, 527 Giải Phóng, TT. Ea Drăng, Ea H'Leo, Đắk Lắk, Vietnam","lat":13.2083961,"lon":108.2077382,"add":"527 Giải Phóng","ward":"TT. Ea Drăng","dist":"Ea H'Leo","province":"Đắk Lắk, Vietnam","ward2":"Xã Ea Hiao","dist2":"Huyện Ea H'leo","province2":"Tỉnh Đắk Lắk"}
{"id":"0x316e0dfe6ce57be9:0x446b981a23d6d535","tel":null,"spa":"Spa Thuý Nga","name":"Spa Thuý Nga, 26 Quang Trung, Tổ Dân Phố 8, Ea H'Leo, Đắk Lắk, Vietnam","name2":"Spa Thuý Nga, 26 Quang Trung, Tổ Dân Phố 8, Ea H'Leo, Đắk Lắk, Vietnam","lat":13.205327599999999,"lon":108.2079593,"add":"26 Quang Trung","ward":"Tổ Dân Phố 8","dist":"Ea H'Leo","province":"Đắk Lắk, Vietnam","ward2":"Xã Ea Hiao","dist2":"Huyện Ea H'leo","province2":"Tỉnh Đắk Lắk"}
{"id":"0x316e0d0cff431edd:0xf2c34c8808048270","tel":"+84 944 635 779","spa":"Spa Thúy Nga","name":"6646+J9W Spa Thúy Nga, Nơ Trang Lơng, TT. Ea Drăng, Ea H'Leo, Đắk Lắk, Vietnam","name2":"6646+J9W Spa Thúy Nga, Nơ Trang Lơng, TT. Ea Drăng, Ea H'Leo, Đắk Lắk, Vietnam","lat":13.2066121,"lon":108.2109424,"add":"6646+J9W, Nơ Trang Lơng","ward":"TT. Ea Drăng","dist":"Ea H'Leo","province":"Đắk Lắk, Vietnam","ward2":"Xã Ea Hiao","dist2":"Huyện Ea H'leo","province2":"Tỉnh Đắk Lắk"}
{"id":"0x316e0de46ebc694b:0x636aef21382fed3c","tel":null,"spa":"Hope Spa","name":"Hope Spa, 14 Nơ Trang Lơng, TT. Ea Drăng, Ea H'Leo, Đắk Lắk, Vietnam","name2":"Hope Spa, 14 Nơ Trang Lơng, TT. Ea Drăng, Ea H'Leo, Đắk Lắk, Vietnam","lat":13.207633999999999,"lon":108.20868999999999,"add":"14 Nơ Trang Lơng","ward":"TT. Ea Drăng","dist":"Ea H'Leo","province":"Đắk Lắk, Vietnam","ward2":"Xã Ea Hiao","dist2":"Huyện Ea H'leo","province2":"Tỉnh Đắk Lắk"}
{"id":"0x316e0d4c19044c9d:0x15b2e643aca05df7","tel":"+84 976 979 335","spa":"TATTOO & SPA","name":"6645+59J TATTOO & SPA, Quang Trung, TT. Ea Drăng, Ea H'Leo, Đắk Lắk, Vietnam","name2":"6645+59J TATTOO & SPA, Quang Trung, TT. Ea Drăng, Ea H'Leo, Đắk Lắk, Vietnam","lat":13.205456499999999,"lon":108.208379,"add":"6645+59J, Quang Trung","ward":"TT. Ea Drăng","dist":"Ea H'Leo","province":"Đắk Lắk, Vietnam","ward2":"Xã Ea Hiao","dist2":"Huyện Ea H'leo","province2":"Tỉnh Đắk Lắk"}
{"id":"0x316e0d0dade91681:0x6e12d524589c8d80","tel":null,"spa":"Spa Út Nga","name":"Spa Út Nga, 39 Nơ Trang Lơng, TT. Ea Drăng, Ea H'Leo, Đắk Lắk, Vietnam","name2":"Spa Út Nga, 39 Nơ Trang Lơng, TT. Ea Drăng, Ea H'Leo, Đắk Lắk, Vietnam","lat":13.2069757,"lon":108.2104251,"add":"39 Nơ Trang Lơng","ward":"TT. Ea Drăng","dist":"Ea H'Leo","province":"Đắk Lắk, Vietnam","ward2":"Xã Ea Hiao","dist2":"Huyện Ea H'leo","province2":"Tỉnh Đắk Lắk"}
{"id":"0x316e1119a1e75429:0x4a4e7d15ad0bc9d6","tel":null,"spa":"Hà my spa","name":"487C+483 Hà my spa, Ea Tân, Krông Năng, Đắk Lắk, Vietnam","name2":"487C+483 Hà my spa, Ea Tân, Krông Năng, Đắk Lắk, Vietnam","lat":13.112772099999999,"lon":108.3207992,"add":"487C+483","ward":"Ea Tân","dist":"Krông Năng","province":"Đắk Lắk, Vietnam","ward2":"Xã Ea Hiao","dist2":"Huyện Ea H'leo","province2":"Tỉnh Đắk Lắk"}
{"id":"0x316e0d0cab28c675:0xed714c92feec9f4","tel":"+84 948 312 078","spa":"Nấm Spa","name":"6637+GH6 Nấm Spa, Nơ Trang Lơng, TT. Ea Drăng, Ea H'Leo, Đắk Lắk, Vietnam","name2":"6637+GH6 Nấm Spa, Nơ Trang Lơng, TT. Ea Drăng, Ea H'Leo, Đắk Lắk, Vietnam","lat":13.2037936,"lon":108.2138902,"add":"6637+GH6, Nơ Trang Lơng","ward":"TT. Ea Drăng","dist":"Ea H'Leo","province":"Đắk Lắk, Vietnam","ward2":"Xã Ea Hiao","dist2":"Huyện Ea H'leo","province2":"Tỉnh Đắk Lắk"}
{"id":"0x316e0dd2475c4a39:0xae69f8e5a3e16b1d","tel":null,"spa":"Mỹ Hà Yoga - Massage Vật Lý Trị Liệu","name":"Mỹ Hà Yoga - Massage Vật Lý Trị Liệu, 66 Lý Tự Trọng Huyện Ea H'leo Dak Lak Province, 630000, Vietnam","name2":"Mỹ Hà Yoga - Massage Vật Lý Trị Liệu, 66 Lý Tự Trọng Huyện Ea H'leo Dak Lak Province, 630000, Vietnam","lat":13.2095857,"lon":108.21188509999999,"add":"66 Lý Tự Trọng Huyện Ea H'leo Dak Lak Province","ward":"630000","dist":"Vietnam","ward2":"Xã Ea Hiao","dist2":"Huyện Ea H'leo","province2":"Tỉnh Đắk Lắk"}
{"id":"0x316e0d4c8bc7192f:0x9b7338e0a97bf5f4","tel":"+84 976 859 596","spa":"Spa Quỳnh Anh","name":"Spa Quỳnh Anh, 25 Nơ Trang Lơng, TT. Ea Drăng, Ea H'Leo, Đắk Lắk, Vietnam","name2":"Spa Quỳnh Anh, 25 Nơ Trang Lơng, TT. Ea Drăng, Ea H'Leo, Đắk Lắk, Vietnam","lat":13.206612999999999,"lon":108.2106238,"add":"25 Nơ Trang Lơng","ward":"TT. Ea Drăng","dist":"Ea H'Leo","province":"Đắk Lắk, Vietnam","ward2":"Xã Ea Hiao","dist2":"Huyện Ea H'leo","province2":"Tỉnh Đắk Lắk"}
{"id":"0x316e1134a480c7a3:0xea5d6fb0ceeba0d4","tel":"+84 969 436 336","spa":"SPA THẢO NGUYÊN","name":"SPA THẢO NGUYÊN, 36 Hải Hà, Ea Tân, Krông Năng, Đắk Lắk, Vietnam","name2":"SPA THẢO NGUYÊN, 36 Hải Hà, Ea Tân, Krông Năng, Đắk Lắk, Vietnam","lat":13.112772099999999,"lon":108.3207992,"add":"36 Hải Hà","ward":"Ea Tân","dist":"Krông Năng","province":"Đắk Lắk, Vietnam","ward2":"Xã Ea Hiao","dist2":"Huyện Ea H'leo","province2":"Tỉnh Đắk Lắk"}
{"id":"0x316e0d22d03fe0d9:0x660625ae2fe1ae3a","tel":"+84 839 008 779","spa":"Spa Bích Trâm","name":"Spa Bích Trâm, 72 Nguyễn Chí Thanh, TT. Ea Drăng, Ea H'Leo, Đắk Lắk, Vietnam","name2":"Spa Bích Trâm, 72 Nguyễn Chí Thanh, TT. Ea Drăng, Ea H'Leo, Đắk Lắk, Vietnam","lat":13.2100864,"lon":108.21109709999999,"add":"72 Nguyễn Chí Thanh","ward":"TT. Ea Drăng","dist":"Ea H'Leo","province":"Đắk Lắk, Vietnam","ward2":"Xã Ea Hiao","dist2":"Huyện Ea H'leo","province2":"Tỉnh Đắk Lắk"}
{"id":"0x316e0d09b0387b7f:0x45790189704f6bb4","tel":null,"spa":"Spa Bé Anh","name":"6624+78C Spa Bé Anh, Lê Thị Hồng Gấm, TT. Ea Drăng, Ea H'Leo, Đắk Lắk, Vietnam","name2":"6624+78C Spa Bé Anh, Lê Thị Hồng Gấm, TT. Ea Drăng, Ea H'Leo, Đắk Lắk, Vietnam","lat":13.200699199999999,"lon":108.20575199999999,"add":"6624+78C, Lê Thị Hồng Gấm","ward":"TT. Ea Drăng","dist":"Ea H'Leo","province":"Đắk Lắk, Vietnam","ward2":"Xã Ea Hiao","dist2":"Huyện Ea H'leo","province2":"Tỉnh Đắk Lắk"}
{"id":"0x316e13dfa6337ce3:0x3111acc682fecec5","tel":"+84 387 152 020","spa":"Spa an nhiên","name":"675R+J2H Spa an nhiên, Ea Sol, Ea H'Leo, Đắk Lắk, Vietnam","name2":"675R+J2H Spa an nhiên, Ea Sol, Ea H'Leo, Đắk Lắk, Vietnam","lat":13.209057699999999,"lon":108.2901019,"add":"675R+J2H","ward":"Ea Sol","dist":"Ea H'Leo","province":"Đắk Lắk, Vietnam","ward2":"Xã Ea Hiao","dist2":"Huyện Ea H'leo","province2":"Tỉnh Đắk Lắk"}
{"id":"0x316e13dfa6337ce3:0x3111acc682fecec5","tel":"+84 387 152 020","spa":"Spa an nhiên","name":"675R+J2H Spa an nhiên, Ea Sol, Ea H'Leo, Đắk Lắk, Vietnam","name2":"675R+J2H Spa an nhiên, Ea Sol, Ea H'Leo, Đắk Lắk, Vietnam","lat":13.209057699999999,"lon":108.2901019,"add":"675R+J2H","ward":"Ea Sol","dist":"Ea H'Leo","province":"Đắk Lắk, Vietnam","ward2":"Xã Ea Hiao","dist2":"Huyện Ea H'leo","province2":"Tỉnh Đắk Lắk"}
{"id":"0x316e0d0c24ce43d5:0x551ca4687be36bff","tel":"+84 977 083 289","spa":"Hanh Spa","name":"Hanh Spa, 3, Tran Phu Street, Ea Drang Town, TT. Ea Drăng, Ea H'Leo, Đắk Lắk, Vietnam","name2":"Hanh Spa, 3, Tran Phu Street, Ea Drang Town, TT. Ea Drăng, Ea H'Leo, Đắk Lắk, Vietnam","lat":13.205855,"lon":108.2088089,"add":"3, Tran Phu Street, Ea Drang Town","ward":"TT. Ea Drăng","dist":"Ea H'Leo","province":"Đắk Lắk, Vietnam","ward2":"Xã Ea Hiao","dist2":"Huyện Ea H'leo","province2":"Tỉnh Đắk Lắk"}
{"id":"0x316e0ffd89d2a8ff:0x17b47bfc4628f4e6","tel":null,"spa":"Spa Minh Thùy","name":"46PF+GMF Spa Minh Thùy, QL14, Ea Nam, Ea H'Leo, Đắk Lắk, Vietnam","name2":"46PF+GMF Spa Minh Thùy, QL14, Ea Nam, Ea H'Leo, Đắk Lắk, Vietnam","lat":13.1363036,"lon":108.2241573,"add":"46PF+GMF, QL14","ward":"Ea Nam","dist":"Ea H'Leo","province":"Đắk Lắk, Vietnam","ward2":"Xã Ea Hiao","dist2":"Huyện Ea H'leo","province2":"Tỉnh Đắk Lắk"}
{"id":"0x316e0d6302bb98e5:0xb51a00fbf658bee8","tel":null,"spa":"Spa Phương Liên","name":"Spa Phương Liên, 01 Lý Thường Kiệt, TT. Ea Drăng, Ea H'Leo, Đắk Lắk, Vietnam","name2":"Spa Phương Liên, 01 Lý Thường Kiệt, TT. Ea Drăng, Ea H'Leo, Đắk Lắk, Vietnam","lat":13.2032829,"lon":108.2083955,"add":"01 Lý Thường Kiệt","ward":"TT. Ea Drăng","dist":"Ea H'Leo","province":"Đắk Lắk, Vietnam","ward2":"Xã Ea Hiao","dist2":"Huyện Ea H'leo","province2":"Tỉnh Đắk Lắk"}
{"id":"0x316e0d095ceff879:0xf6b19bbce2650422","tel":null,"spa":"Spa Uyên Uyên","name":"6634+5XM Spa Uyên Uyên, Nguyễn Chí Thanh, TT. Ea Drăng, Ea H'Leo, Đắk Lắk, Vietnam","name2":"6634+5XM Spa Uyên Uyên, Nguyễn Chí Thanh, TT. Ea Drăng, Ea H'Leo, Đắk Lắk, Vietnam","lat":13.2029663,"lon":108.20742949999999,"add":"6634+5XM, Nguyễn Chí Thanh","ward":"TT. Ea Drăng","dist":"Ea H'Leo","province":"Đắk Lắk, Vietnam","ward2":"Xã Ea Hiao","dist2":"Huyện Ea H'leo","province2":"Tỉnh Đắk Lắk"}
