[{"id":"0x3135abd3fe6f84ed:0x232f09f2356e2ad6","tel":"+84 965 173 886","spa":"Yuki spa foot and body","name":"Yuki spa foot and body, 1 Ng. 81 P. Linh Lang, Cống Vị, Ba Đình, Hà Nội, Vietnam","name2":"Yuki spa foot and body, 1 Ng. 81 P. Linh Lang, Cống Vị, Ba Đình, Hà Nội, Vietnam","lat":21.033394599999998,"lon":105.81013349999999,"add":"1 Ng. 81 P. Linh Lang","ward":"Cống Vị","dist":"Ba Đình","province":"Hà Nội, Vietnam"},{"id":"0x3135abaccd6a8abd:0xe0840a07d2111f21","tel":"+84 359 800 989","spa":"Perla Spa - Vạn Phúc Ba Đình","name":"Perla Spa - Vạn Phúc Ba Đình, 20, ngõ 26 P. Vạn Phúc, Ba Đình, Hà Nội, Vietnam","name2":"Perla Spa - Vạn Phúc Ba Đình, 20, ngõ 26 P. Vạn Phúc, Ba Đình, Hà Nội, Vietnam","lat":21.033185,"lon":105.8176907,"add":"20","ward":"ngõ 26 P. Vạn Phúc","dist":"Ba Đình","province":"Hà Nội, Vietnam"},{"id":"0x3135ab13355f56d3:0xb68d1f842f45e822","tel":"+84 901 838 668","spa":"Anzen spa","name":"Anzen spa, 42 P. Phan Kế Bính, Cống Vị, Ba Đình, Hà Nội, Vietnam","name2":"Anzen spa, 42 P. Phan Kế Bính, Cống Vị, Ba Đình, Hà Nội, Vietnam","lat":21.034807999999998,"lon":105.8108869,"add":"42 P. Phan Kế Bính","ward":"Cống Vị","dist":"Ba Đình","province":"Hà Nội, Vietnam"},{"id":"0x3135ab0c1910c291:0xe95070292df071f3","tel":"+84 24 3722 8316","spa":"Dao's Care Massage Spa","name":"Dao's Care Massage Spa, No 351 Đ. Hoàng Hoa Thám, Ngọc Hồ, Ba Đình, Hà Nội 100000, Vietnam","name2":"Dao's Care Massage Spa, No 351 Đ. Hoàng Hoa Thám, Ngọc Hồ, Ba Đình, Hà Nội 100000, Vietnam","lat":21.041912,"lon":105.8174514,"add":"No 351 Đ. Hoàng Hoa Thám","ward":"Ngọc Hồ","dist":"Ba Đình","province":"Hà Nội 100000, Vietnam"},{"id":"0x3135ab640f385ef9:0x3e63bdb2bc1c469a","tel":"+84 965 093 041","spa":"Light Spa","name":"Light Spa, ngõ 49 P. Linh Lang, Cống Vị, Ba Đình, Hà Nội, Vietnam","name2":"Light Spa, ngõ 49 P. Linh Lang, Cống Vị, Ba Đình, Hà Nội, Vietnam","lat":21.035087,"lon":105.8107823,"add":"ngõ 49 P. Linh Lang","ward":"Cống Vị","dist":"Ba Đình","province":"Hà Nội, Vietnam"},{"id":"0x3135ab0d5810d54f:0xfee0c3de1f71d1c8","tel":null,"spa":"Poem Spa","name":"Poem Spa, 31 P. Vạn Bảo, Liễu Giai, Ba Đình, Hà Nội, Vietnam","name2":"Poem Spa, 31 P. Vạn Bảo, Liễu Giai, Ba Đình, Hà Nội, Vietnam","lat":21.0346078,"lon":105.8175335,"add":"31 P. Vạn Bảo","ward":"Liễu Giai","dist":"Ba Đình","province":"Hà Nội, Vietnam"},{"id":"0x3135ab156b4d694f:0x187e290e61650e6a","tel":"+84 819 819 366","spa":"Lady Windy massage","name":"Lady Windy massage, 145 P. Phan Kế Bính, Cống Vị, Ba Đình, Hà Nội, Vietnam","name2":"Lady Windy massage, 145 P. Phan Kế Bính, Cống Vị, Ba Đình, Hà Nội, Vietnam","lat":21.0366125,"lon":105.8070889,"add":"145 P. Phan Kế Bính","ward":"Cống Vị","dist":"Ba Đình","province":"Hà Nội, Vietnam"},{"id":"0x3135ab55a8b575cd:0xddf18d38bab5b763","tel":"+84 912 038 966","spa":"Calla Spa - Dưỡng sinh Trị liệu","name":"Calla Spa - Dưỡng sinh Trị liệu, 81 Ng. 12 P. Đào Tấn, Cống Vị, Ba Đình, Hà Nội 100000, Vietnam","name2":"Calla Spa - Dưỡng sinh Trị liệu, 81 Ng. 12 P. Đào Tấn, Cống Vị, Ba Đình, Hà Nội 100000, Vietnam","lat":21.0349005,"lon":105.8089517,"add":"81 Ng. 12 P. Đào Tấn","ward":"Cống Vị","dist":"Ba Đình","province":"Hà Nội 100000, Vietnam"},{"id":"0x3135ab0d5941da33:0x39724157e4bfd150","tel":"+84 24 3822 9333","spa":"Shi Beauty&Spa CS2 57 Vạn Bảo","name":"Shi Beauty&Spa CS2 57 Vạn Bảo, 57 P. Vạn Bảo, Liễu Giai, Ba Đình, Hà Nội, Vietnam","name2":"Shi Beauty&Spa CS2 57 Vạn Bảo, 57 P. Vạn Bảo, Liễu Giai, Ba Đình, Hà Nội, Vietnam","lat":21.0346647,"lon":105.8174919,"add":"57 P. Vạn Bảo","ward":"Liễu Giai","dist":"Ba Đình","province":"Hà Nội, Vietnam"},{"id":"0x3135ac9587a425bd:0x4ebb3105c972439e","tel":"+84 964 593 411","spa":"Natalie Beauty Center","name":"Natalie Beauty Center, 40 P. Hạ Đình, Thanh Xuân Nam, Thanh Xuân, Hà Nội, Vietnam","name2":"Natalie Beauty Center, 40 P. Hạ Đình, Thanh Xuân Nam, Thanh Xuân, Hà Nội, Vietnam","lat":20.9919917,"lon":105.80566999999999,"add":"40 P. Hạ Đình","ward":"Thanh Xuân Nam","dist":"Thanh Xuân","province":"Hà Nội, Vietnam"},{"id":"0x3135ab26a9f01c4b:0xd1a8669ea7eec9c6","tel":"+84 833 338 669","spa":"Thảo Ami Spa - Chuyên điều trị mụn","name":"Thảo Ami Spa - Chuyên điều trị mụn, 2 ngõ 8 P. Láng Hạ, Thành Công, Ba Đình, Hà Nội 100000, Vietnam","name2":"Thảo Ami Spa - Chuyên điều trị mụn, 2 ngõ 8 P. Láng Hạ, Thành Công, Ba Đình, Hà Nội 100000, Vietnam","lat":21.021684099999998,"lon":105.8182174,"add":"2 ngõ 8 P. Láng Hạ","ward":"Thành Công","dist":"Ba Đình","province":"Hà Nội 100000, Vietnam"},{"id":"0x3135ab6310dbf551:0xcfc3311b6bb2a1d9","tel":"+84 978 797 531","spa":"HB Spa - Thái Hà (Dưỡng Sinh & Thủ Đạo Thang)","name":"HB Spa - Thái Hà (Dưỡng Sinh & Thủ Đạo Thang), 20 Ng. 49 P. Huỳnh Thúc Kháng, Láng Hạ, Đống Đa, Hà Nội 100000, Vietnam","name2":"HB Spa - Thái Hà (Dưỡng Sinh & Thủ Đạo Thang), 20 Ng. 49 P. Huỳnh Thúc Kháng, Láng Hạ, Đống Đa, Hà Nội 100000, Vietnam","lat":21.0180144,"lon":105.8103276,"add":"20 Ng. 49 P. Huỳnh Thúc Kháng","ward":"Láng Hạ","dist":"Đống Đa","province":"Hà Nội 100000, Vietnam"},{"id":"0x3135abb14fe3f27f:0xf527f41f0f260dfd","tel":"+84 936 465 668","spa":"Thủy Anh Spa & Beauty Center","name":"Thủy Anh Spa & Beauty Center, ngõ 24 P. Nguyễn Công Hoan, Giảng Võ, Ba Đình, Hà Nội 10000, Vietnam","name2":"Thủy Anh Spa & Beauty Center, ngõ 24 P. Nguyễn Công Hoan, Giảng Võ, Ba Đình, Hà Nội 10000, Vietnam","lat":21.0271693,"lon":105.81441009999999,"add":"ngõ 24 P. Nguyễn Công Hoan","ward":"Giảng Võ","dist":"Ba Đình","province":"Hà Nội 10000, Vietnam"},{"id":"0x3135ab7b281d3733:0x609468a7a2ab195b","tel":"+84 988 198 698","spa":"YPhan SPa Chuyên điều trị mụn","name":"YPhan SPa Chuyên điều trị mụn, 40 Ng. 87 Đ. Tân Xuân, Xuân Đỉnh, Bắc Từ Liêm, Hà Nội 10000, Vietnam","name2":"YPhan SPa Chuyên điều trị mụn, 40 Ng. 87 Đ. Tân Xuân, Xuân Đỉnh, Bắc Từ Liêm, Hà Nội 10000, Vietnam","lat":21.0797921,"lon":105.7845993,"add":"40 Ng. 87 Đ. Tân Xuân","ward":"Xuân Đỉnh","dist":"Bắc Từ Liêm","province":"Hà Nội 10000, Vietnam"},{"id":"0x3135ab6b1f8c6ccf:0x1603670e40868e34","tel":"+84 923 971 990","spa":"Home Spa","name":"Home Spa, 16b Ng. 36 P. Đào Tấn, Cống Vị, Ba Đình, Hà Nội, Vietnam","name2":"Home Spa, 16b Ng. 36 P. Đào Tấn, Cống Vị, Ba Đình, Hà Nội, Vietnam","lat":21.0331366,"lon":105.8086055,"add":"16b Ng. 36 P. Đào Tấn","ward":"Cống Vị","dist":"Ba Đình","province":"Hà Nội, Vietnam"},{"id":"0x3135ab5c200dad1f:0xbbba42802bd5fe43","tel":"+84 886 644 898","spa":"Hogushian Spa & Massage","name":"Hogushian Spa & Massage, 541 P. Kim Mã, Ngọc Khánh, Ba Đình, Hà Nội, Vietnam","name2":"Hogushian Spa & Massage, 541 P. Kim Mã, Ngọc Khánh, Ba Đình, Hà Nội, Vietnam","lat":21.029631,"lon":105.8100992,"add":"541 P. Kim Mã","ward":"Ngọc Khánh","dist":"Ba Đình","province":"Hà Nội, Vietnam"},{"id":"0x3135abb032ad13d7:0xec39e6dd5021eadd","tel":null,"spa":"Osum Spa - Khu Ngoại Giao Đoàn","name":"Osum Spa - Khu Ngoại Giao Đoàn, bt 06-07 P. Nguyễn Xuân Khoát, ngoại giao đoàn, Ba Đình, Hà Nội 100000, Vietnam","name2":"Osum Spa - Khu Ngoại Giao Đoàn, bt 06-07 P. Nguyễn Xuân Khoát, ngoại giao đoàn, Ba Đình, Hà Nội 100000, Vietnam","lat":21.067606599999998,"lon":105.7999746,"add":"bt 06-07 P. Nguyễn Xuân Khoát","ward":"ngoại giao đoàn","dist":"Ba Đình","province":"Hà Nội 100000, Vietnam"},{"id":"0x3135acfaffac389b:0x6abe25111ce17c28","tel":null,"spa":"THANAKHA SPA","name":"THANAKHA SPA, 275 Nguyễn Trãi, Thanh Xuân Trung, Thanh Xuân, Hà Nội 100000, Vietnam","name2":"THANAKHA SPA, 275 Nguyễn Trãi, Thanh Xuân Trung, Thanh Xuân, Hà Nội 100000, Vietnam","lat":20.991556199999998,"lon":105.8041588,"add":"275 Nguyễn Trãi","ward":"Thanh Xuân Trung","dist":"Thanh Xuân","province":"Hà Nội 100000, Vietnam"},{"id":"0x3135ab905006f64f:0x84873d21e3ae3c2d","tel":"+84 338 220 226","spa":"HB Spa - Nguyễn Khánh Toàn (Dưỡng Sinh & Thủ Đạo Thang)","name":"HB Spa - Nguyễn Khánh Toàn (Dưỡng Sinh & Thủ Đạo Thang), 8 Phạm Tuấn Tài, Quận Cầu Giấy, Hà Nội Hà Nội, Hanoi City, 11300, Vietnam","name2":"HB Spa - Nguyễn Khánh Toàn (Dưỡng Sinh & Thủ Đạo Thang), 8 Phạm Tuấn Tài, Quận Cầu Giấy, Hà Nội Hà Nội, Hanoi City, 11300, Vietnam","lat":21.042296099999998,"lon":105.7861602,"add":"8 Phạm Tuấn Tài, Quận Cầu Giấy, Hà Nội Hà Nội","ward":"Hanoi City","dist":"11300","province":"Vietnam"},{"id":"0x3135ab2994b4ffe5:0xde46004182ab75b0","tel":"+84 975 757 961","spa":"Temomi spa","name":"Temomi spa, 74 P. Kim Mã Thượng, Cống Vị, Ba Đình, Hà Nội, Vietnam","name2":"Temomi spa, 74 P. Kim Mã Thượng, Cống Vị, Ba Đình, Hà Nội, Vietnam","lat":21.0362005,"lon":105.8114707,"add":"74 P. Kim Mã Thượng","ward":"Cống Vị","dist":"Ba Đình","province":"Hà Nội, Vietnam"},{"id":"0x3135ab0ac19f02ad:0x4817c65be1a3f92a","tel":"+84 24 3844 6666","spa":"Saigon Smile Spa","name":"Saigon Smile Spa, 85 P. Giang Văn Minh, Kim Mã, Ba Đình, Hà Nội, Vietnam","name2":"Saigon Smile Spa, 85 P. Giang Văn Minh, Kim Mã, Ba Đình, Hà Nội, Vietnam","lat":21.0340496,"lon":105.82705059999999,"add":"85 P. Giang Văn Minh","ward":"Kim Mã","dist":"Ba Đình","province":"Hà Nội, Vietnam"},{"id":"0x3135ab3a47b7e8a1:0x64d7e15e9ef46494","tel":"+84 977 018 022","spa":"Spa Dưỡng Tâm Ba Đình","name":"Spa Dưỡng Tâm Ba Đình, 22 P. Phạm Huy Thông, Ngọc Khánh, Ba Đình, Hà Nội, Vietnam","name2":"Spa Dưỡng Tâm Ba Đình, 22 P. Phạm Huy Thông, Ngọc Khánh, Ba Đình, Hà Nội, Vietnam","lat":21.02837,"lon":105.81022399999999,"add":"22 P. Phạm Huy Thông","ward":"Ngọc Khánh","dist":"Ba Đình","province":"Hà Nội, Vietnam"},{"id":"0x3135ab215ad6b87f:0x69ae06a85fdc250f","tel":"+84 904 552 027","spa":"Hiệu Đẹp Spa and Clinic - 93 Đào Tấn (Tầng 3)","name":"Hiệu Đẹp Spa and Clinic - 93 Đào Tấn (Tầng 3), 93 P. Đào Tấn, Cống Vị, Ba Đình, Hà Nội, Vietnam","name2":"Hiệu Đẹp Spa and Clinic - 93 Đào Tấn (Tầng 3), 93 P. Đào Tấn, Cống Vị, Ba Đình, Hà Nội, Vietnam","lat":21.0333772,"lon":105.80620379999999,"add":"93 P. Đào Tấn","ward":"Cống Vị","dist":"Ba Đình","province":"Hà Nội, Vietnam"},{"id":"0x3135ab6ec5588739:0x3e2cbea16cb216e8","tel":"+84 358 159 555","spa":"Delia Beauty Center - Điều Trị Nang Lông - Triệt Lông Vĩnh Viễn","name":"Delia Beauty Center - Điều Trị Nang Lông - Triệt Lông Vĩnh Viễn, 8 Ng. 20 P. Nguyễn Công Hoan, Ngọc Khánh, Ba Đình, Hà Nội, Vietnam","name2":"Delia Beauty Center - Điều Trị Nang Lông - Triệt Lông Vĩnh Viễn, 8 Ng. 20 P. Nguyễn Công Hoan, Ngọc Khánh, Ba Đình, Hà Nội, Vietnam","lat":21.027697699999997,"lon":105.815471,"add":"8 Ng. 20 P. Nguyễn Công Hoan","ward":"Ngọc Khánh","dist":"Ba Đình","province":"Hà Nội, Vietnam"},{"id":"0x3135ab139538f1f9:0xf72cfe58e8972f41","tel":"+84 904 170 569","spa":"B Spa & Lounge","name":"B Spa & Lounge, 134 P. Đốc Ngữ, Vĩnh Phú, Ba Đình, Hà Nội, Vietnam","name2":"B Spa & Lounge, 134 P. Đốc Ngữ, Vĩnh Phú, Ba Đình, Hà Nội, Vietnam","lat":21.0383993,"lon":105.81259879999999,"add":"134 P. Đốc Ngữ","ward":"Vĩnh Phú","dist":"Ba Đình","province":"Hà Nội, Vietnam"},{"id":"0x3135ab7b98cb6ef9:0x26c215c44b8148f8","tel":"+84 969 710 036","spa":"Y Viên - Cơ Sở 2 | Chuỗi phòng khám Y Học Cổ Truyền","name":"Y Viên - Cơ Sở 2 | Chuỗi phòng khám Y Học Cổ Truyền, Tòa Chưng cư TW Đảng, Ng. 19 P. Liễu Giai, Liễu Giai, Ba Đình, Hà Nội, Vietnam","name2":"Y Viên - Cơ Sở 2 | Chuỗi phòng khám Y Học Cổ Truyền, Tòa Chưng cư TW Đảng, Ng. 19 P. Liễu Giai, Liễu Giai, Ba Đình, Hà Nội, Vietnam","lat":21.034554399999998,"lon":105.8151985,"add":"Tòa Chưng cư TW Đảng, Ng. 19 P. Liễu Giai","ward":"Liễu Giai","dist":"Ba Đình","province":"Hà Nội, Vietnam"},{"id":"0x3135aaf99c75351f:0xb896b858d86bd3ae","tel":"+84 888 606 811","spa":"TRE Boutique Spa @ Elegant Suites (Hanoi)","name":"TRE Boutique Spa @ Elegant Suites (Hanoi), 10b P. Đặng Thai Mai, Quảng An, Tây Hồ, Hà Nội, Vietnam","name2":"TRE Boutique Spa @ Elegant Suites (Hanoi), 10b P. Đặng Thai Mai, Quảng An, Tây Hồ, Hà Nội, Vietnam","lat":21.062130999999997,"lon":105.8252516,"add":"10b P. Đặng Thai Mai","ward":"Quảng An","dist":"Tây Hồ","province":"Hà Nội, Vietnam"},{"id":"0x3135aba8bb580393:0xda9cee5d618450d","tel":"+84 989 441 368","spa":"Genki Spa","name":"Genki Spa, Nhà 8 - B5, Ngõ 7 P. Kim Mã Thượng, Cống Vị, Ba Đình, Hà Nội, Vietnam","name2":"Genki Spa, Nhà 8 - B5, Ngõ 7 P. Kim Mã Thượng, Cống Vị, Ba Đình, Hà Nội, Vietnam","lat":21.035037499999998,"lon":105.81321559999999,"add":"Nhà 8 - B5, Ngõ 7 P. Kim Mã Thượng","ward":"Cống Vị","dist":"Ba Đình","province":"Hà Nội, Vietnam"},{"id":"0x3135ab4fcab6299d:0xc3c1f374b36ca511","tel":"+84 868 827 939","spa":"Massage Phương Đông 4","name":"Massage Phương Đông 4, 20 P. Nguyễn Đình Hoàn, Nghĩa Đô, Cầu Giấy, Hà Nội, Vietnam","name2":"Massage Phương Đông 4, 20 P. Nguyễn Đình Hoàn, Nghĩa Đô, Cầu Giấy, Hà Nội, Vietnam","lat":21.045213399999998,"lon":105.8051,"add":"20 P. Nguyễn Đình Hoàn","ward":"Nghĩa Đô","dist":"Cầu Giấy","province":"Hà Nội, Vietnam"},{"id":"0x3135aaf95745d187:0xb5c092abcda79d29","tel":"+84 943 895 456","spa":"Viet Lotus Spa","name":"Viet Lotus Spa, 26 Ng. 12 Đ. Đặng Thai Mai, Quảng An, Tây Hồ, Hà Nội, Vietnam","name2":"Viet Lotus Spa, 26 Ng. 12 Đ. Đặng Thai Mai, Quảng An, Tây Hồ, Hà Nội, Vietnam","lat":21.0628395,"lon":105.82346989999999,"add":"26 Ng. 12 Đ. Đặng Thai Mai","ward":"Quảng An","dist":"Tây Hồ","province":"Hà Nội, Vietnam"},{"id":"0x3135ab44d50ec623:0x52ca849400acb78d","tel":"+84 961 019 698","spa":"Spa Yến House","name":"Spa Yến House, 86 P. Dịch Vọng Hậu, Dịch Vọng Hậu, Cầu Giấy, Hà Nội, Vietnam","name2":"Spa Yến House, 86 P. Dịch Vọng Hậu, Dịch Vọng Hậu, Cầu Giấy, Hà Nội, Vietnam","lat":21.029246,"lon":105.7858894,"add":"86 P. Dịch Vọng Hậu","ward":"Dịch Vọng Hậu","dist":"Cầu Giấy","province":"Hà Nội, Vietnam"},{"id":"0x3135abb6d3dcc2fb:0x936c27cc313ff5bd","tel":"+84 983 468 168","spa":"Tiamo Spa & Clinic","name":"Tiamo Spa & Clinic, 1130G Đ. La Thành, Ngọc Khánh, Ba Đình, Hà Nội 10000, Vietnam","name2":"Tiamo Spa & Clinic, 1130G Đ. La Thành, Ngọc Khánh, Ba Đình, Hà Nội 10000, Vietnam","lat":21.0282584,"lon":105.80746189999999,"add":"1130G Đ. La Thành","ward":"Ngọc Khánh","dist":"Ba Đình","province":"Hà Nội 10000, Vietnam"},{"id":"0x3135ab44053d4e3b:0xea8e7d915869e638","tel":"+84 833 886 336","spa":"La Base Spa","name":"La Base Spa, Ng. 34 P. Vạn Bả/3 P. Giang Văn Minh, Kim Mã, Ba Đình, Hà Nội 10000, Vietnam","name2":"La Base Spa, Ng. 34 P. Vạn Bả/3 P. Giang Văn Minh, Kim Mã, Ba Đình, Hà Nội 10000, Vietnam","lat":21.033224099999998,"lon":105.8272944,"add":"Ng. 34 P. Vạn Bả/3 P. Giang Văn Minh","ward":"Kim Mã","dist":"Ba Đình","province":"Hà Nội 10000, Vietnam"},{"id":"0x3135ab2f1a1a06cb:0xe0d56be2f629a598","tel":"+84 969 644 444","spa":"DƯỠNG - Gội đầu dưỡng sinh","name":"DƯỠNG - Gội đầu dưỡng sinh, 14 Ng. 290 P. Kim Mã, Kim Mã, Ba Đình, Hà Nội 11112, Vietnam","name2":"DƯỠNG - Gội đầu dưỡng sinh, 14 Ng. 290 P. Kim Mã, Kim Mã, Ba Đình, Hà Nội 11112, Vietnam","lat":21.0319044,"lon":105.8225872,"add":"14 Ng. 290 P. Kim Mã","ward":"Kim Mã","dist":"Ba Đình","province":"Hà Nội 11112, Vietnam"},{"id":"0x3135ab6b140890b3:0x510be28b12925603","tel":"+84 899 458 005","spa":"FUJI MASSAGE","name":"FUJI MASSAGE, 106 P. Linh Lang, Cống Vị, Ba Đình, Hà Nội, Vietnam","name2":"FUJI MASSAGE, 106 P. Linh Lang, Cống Vị, Ba Đình, Hà Nội, Vietnam","lat":21.0332115,"lon":105.809664,"add":"106 P. Linh Lang","ward":"Cống Vị","dist":"Ba Đình","province":"Hà Nội, Vietnam"},{"id":"0x3135ab28a816a7d5:0x97941fd9f3e4941e","tel":"+84 342 660 006","spa":"Gội đầu dưỡng sinh - spa Phù Dương Thang","name":"Gội đầu dưỡng sinh - spa Phù Dương Thang, 91 P. Đồng Cổ, Bưởi, Tây Hồ, Hà Nội, Vietnam","name2":"Gội đầu dưỡng sinh - spa Phù Dương Thang, 91 P. Đồng Cổ, Bưởi, Tây Hồ, Hà Nội, Vietnam","lat":21.0461723,"lon":105.8118037,"add":"91 P. Đồng Cổ","ward":"Bưởi","dist":"Tây Hồ","province":"Hà Nội, Vietnam"},{"id":"0x3135ab3d6c68cf23:0x7e3383439c8b18f8","tel":"+84 968 386 996","spa":"San Spa & Beauty CS 2","name":"San Spa & Beauty CS 2, 18 Ngõ 29 Nguyễn Chí Thanh, Ngọc Khánh, Ba Đình, Hà Nội, Vietnam","name2":"San Spa & Beauty CS 2, 18 Ngõ 29 Nguyễn Chí Thanh, Ngọc Khánh, Ba Đình, Hà Nội, Vietnam","lat":21.0289277,"lon":105.81335999999999,"add":"18 Ngõ 29 Nguyễn Chí Thanh","ward":"Ngọc Khánh","dist":"Ba Đình","province":"Hà Nội, Vietnam"},{"id":"0x3135abeb63f29b05:0xae00981a130fdcd","tel":null,"spa":"Cosmo Nail Spa","name":"Cosmo Nail Spa, 107 P. Đào Tấn, Ngọc Khánh, Ba Đình, Hà Nội, Vietnam","name2":"Cosmo Nail Spa, 107 P. Đào Tấn, Ngọc Khánh, Ba Đình, Hà Nội, Vietnam","lat":21.033853099999998,"lon":105.8059519,"add":"107 P. Đào Tấn","ward":"Ngọc Khánh","dist":"Ba Đình","province":"Hà Nội, Vietnam"},{"id":"0x3135abdf7e003635:0x953219e9ad5c7ef5","tel":"+84 359 000 468","spa":"Nhà Spa - Gội đầu dưỡng sinh & Chăm sóc da","name":"Nhà Spa - Gội đầu dưỡng sinh & Chăm sóc da, Sảnh B - Toà nhà Hongkong Tower, Số 1 Đ. Cầu Giấy, Láng Thượng, Cầu Giấy, Hà Nội, Vietnam","name2":"Nhà Spa - Gội đầu dưỡng sinh & Chăm sóc da, Sảnh B - Toà nhà Hongkong Tower, Số 1 Đ. Cầu Giấy, Láng Thượng, Cầu Giấy, Hà Nội, Vietnam","lat":21.0265456,"lon":105.80404809999999,"add":"Sảnh B - Toà nhà Hongkong Tower, Số 1 Đ. Cầu Giấy","ward":"Láng Thượng","dist":"Cầu Giấy","province":"Hà Nội, Vietnam"},{"id":"0x3135ab24188fc25f:0x3a4b89505d12af1c","tel":"+84 973 323 222","spa":"Triệt lông vĩnh viễn tốt nhất Hà Nội","name":"Triệt lông vĩnh viễn tốt nhất Hà Nội, 57 P. Đào Tấn, Ngọc Khánh, Ba Đình, Hà Nội 11109, Vietnam","name2":"Triệt lông vĩnh viễn tốt nhất Hà Nội, 57 P. Đào Tấn, Ngọc Khánh, Ba Đình, Hà Nội 11109, Vietnam","lat":21.0328919,"lon":105.80694589999999,"add":"57 P. Đào Tấn","ward":"Ngọc Khánh","dist":"Ba Đình","province":"Hà Nội 11109, Vietnam"},{"id":"0x3135ab70fb02d81b:0x60576379a261fc85","tel":"+84 24 3736 8303","spa":"Spa Tran","name":"Spa Tran, 43 P. Giảng Võ, Cát Linh, Ba Đình, Hà Nội 100000, Vietnam","name2":"Spa Tran, 43 P. Giảng Võ, Cát Linh, Ba Đình, Hà Nội 100000, Vietnam","lat":21.0310366,"lon":105.829477,"add":"43 P. Giảng Võ","ward":"Cát Linh","dist":"Ba Đình","province":"Hà Nội 100000, Vietnam"},{"id":"0x3135ab6cd2d45919:0x62142c88cf1c3211","tel":"+84 819 819 366","spa":"Vip Massage Lady","name":"Vip Massage Lady, 145 P. Phan Kế Bính, Cống Vị, Ba Đình, Hà Nội, Vietnam","name2":"Vip Massage Lady, 145 P. Phan Kế Bính, Cống Vị, Ba Đình, Hà Nội, Vietnam","lat":21.0366125,"lon":105.8070889,"add":"145 P. Phan Kế Bính","ward":"Cống Vị","dist":"Ba Đình","province":"Hà Nội, Vietnam"},{"id":"0x3135ab1497e0ffff:0xec10ef4cd15c6b2","tel":null,"spa":"Mimosa Massage","name":"Mimosa Massage, 27 P. Linh Lang, Cống Vị, Ba Đình, Hà Nội, Vietnam","name2":"Mimosa Massage, 27 P. Linh Lang, Cống Vị, Ba Đình, Hà Nội, Vietnam","lat":21.0358844,"lon":105.81060339999999,"add":"27 P. Linh Lang","ward":"Cống Vị","dist":"Ba Đình","province":"Hà Nội, Vietnam"},{"id":"0x3135abc4efc1728f:0x97ce86e74867e85e","tel":"+84 978 797 531","spa":"HB Spa - Đội Cấn (Dưỡng Sinh & Thủ Đạo Thang)","name":"HB Spa - Đội Cấn (Dưỡng Sinh & Thủ Đạo Thang), 8, ngõ 279 Đội Cấn- Phường Ngọc Hà - Quận Ba Đình - Hà Nội Hà Nội, Hanoi City, 10000, Vietnam","name2":"HB Spa - Đội Cấn (Dưỡng Sinh & Thủ Đạo Thang), 8, ngõ 279 Đội Cấn- Phường Ngọc Hà - Quận Ba Đình - Hà Nội Hà Nội, Hanoi City, 10000, Vietnam","lat":21.0356491,"lon":105.82041,"add":"8, ngõ 279 Đội Cấn- Phường Ngọc Hà - Quận Ba Đình - Hà Nội Hà Nội","ward":"Hanoi City","dist":"10000","province":"Vietnam"},{"id":"0x3135abaffe7d1787:0x56a8fc8a5c43241e","tel":"+84 914 319 312","spa":"LYN Beauty Home","name":"LYN Beauty Home, 148 Đ. Võ Chí Công, Xuân La, Tây Hồ, Hà Nội 100000, Vietnam","name2":"LYN Beauty Home, 148 Đ. Võ Chí Công, Xuân La, Tây Hồ, Hà Nội 100000, Vietnam","lat":21.053451,"lon":105.80474889999999,"add":"148 Đ. Võ Chí Công","ward":"Xuân La","dist":"Tây Hồ","province":"Hà Nội 100000, Vietnam"},{"id":"0x3135abb1c6c0accd:0x442b2e0b568a8292","tel":"+84 977 731 559","spa":"Moon Spa","name":"Moon Spa, 119 Trần Đăng Ninh, Dịch Vọng, Cầu Giấy, Hà Nội 100000, Vietnam","name2":"Moon Spa, 119 Trần Đăng Ninh, Dịch Vọng, Cầu Giấy, Hà Nội 100000, Vietnam","lat":21.037738599999997,"lon":105.7934609,"add":"119 Trần Đăng Ninh","ward":"Dịch Vọng","dist":"Cầu Giấy","province":"Hà Nội 100000, Vietnam"},{"id":"0x3135ab72d694708d:0x59f6086ab7a5e88e","tel":"+84 961 343 797","spa":"Tokyo Foot Massage","name":"Tokyo Foot Massage, 333 P. Đội Cấn, Liễu Giai, Ba Đình, Hà Nội, Vietnam","name2":"Tokyo Foot Massage, 333 P. Đội Cấn, Liễu Giai, Ba Đình, Hà Nội, Vietnam","lat":21.035843399999997,"lon":105.8175368,"add":"333 P. Đội Cấn","ward":"Liễu Giai","dist":"Ba Đình","province":"Hà Nội, Vietnam"},{"id":"0x3135ab0dceada40f:0xa85a48f2943642a7","tel":"+84 939 471 666","spa":"Công ty TNHH Hướng tới cuộc sống hạnh phúc - Loan Spa","name":"Công ty TNHH Hướng tới cuộc sống hạnh phúc - Loan Spa, 111 189,, Ngõ 119 P. Đội Cấn, Liễu Giai, Ba Đình, Hà Nội, Vietnam","name2":"Công ty TNHH Hướng tới cuộc sống hạnh phúc - Loan Spa, 111 189,, Ngõ 119 P. Đội Cấn, Liễu Giai, Ba Đình, Hà Nội, Vietnam","lat":21.037933199999998,"lon":105.81970179999999,"add":"111 189,, Ngõ 119 P. Đội Cấn","ward":"Liễu Giai","dist":"Ba Đình","province":"Hà Nội, Vietnam"},{"id":"0x3135ab38f636c25b:0x3acce8de6c08e281","tel":"+84 966 313 236","spa":"MAIA SPA & CARE","name":"MAIA SPA & CARE, 16 Ng. 10 Đ. Nguyễn Văn Huyên, Dịch Vọng, Cầu Giấy, Hà Nội, Vietnam","name2":"MAIA SPA & CARE, 16 Ng. 10 Đ. Nguyễn Văn Huyên, Dịch Vọng, Cầu Giấy, Hà Nội, Vietnam","lat":21.0377246,"lon":105.7967085,"add":"16 Ng. 10 Đ. Nguyễn Văn Huyên","ward":"Dịch Vọng","dist":"Cầu Giấy","province":"Hà Nội, Vietnam"},{"id":"0x3135ab975058a473:0xca75a8cc16dc07d5","tel":"+84 1800 588871","spa":"Venesa","name":"Venesa, 99 P.Trần Thái Tông, Dịch Vọng Hậu, Cầu Giấy, Hà Nội, Vietnam","name2":"Venesa, 99 P.Trần Thái Tông, Dịch Vọng Hậu, Cầu Giấy, Hà Nội, Vietnam","lat":21.0329564,"lon":105.78834979999999,"add":"99 P.Trần Thái Tông","ward":"Dịch Vọng Hậu","dist":"Cầu Giấy","province":"Hà Nội, Vietnam"},{"id":"0x3135ab28502bccc7:0x476a4e7558f22d47","tel":"+84 901 733 036","spa":"Chaing Spa","name":"Chaing Spa, Số 11 Lô E, ngõ 26 P. Vạn Phúc, Liễu Giai, Ba Đình, Hà Nội 100000, Vietnam","name2":"Chaing Spa, Số 11 Lô E, ngõ 26 P. Vạn Phúc, Liễu Giai, Ba Đình, Hà Nội 100000, Vietnam","lat":21.033188499999998,"lon":105.81769109999999,"add":"Số 11 Lô E, ngõ 26 P. Vạn Phúc","ward":"Liễu Giai","dist":"Ba Đình","province":"Hà Nội 100000, Vietnam"},{"id":"0x3135abbf2b8f41fb:0x63a4a19a6a5be21d","tel":"+84 909 021 866","spa":"La Belle Vie Spa","name":"La Belle Vie Spa, 41 P. Nghĩa Dũng, Phúc xá, Ba Đình, Hà Nội 100000, Vietnam","name2":"La Belle Vie Spa, 41 P. Nghĩa Dũng, Phúc xá, Ba Đình, Hà Nội 100000, Vietnam","lat":21.0487285,"lon":105.8461394,"add":"41 P. Nghĩa Dũng","ward":"Phúc xá","dist":"Ba Đình","province":"Hà Nội 100000, Vietnam"},{"id":"0x3135abc14e97c0ed:0xc82e0ddf6e4d779","tel":"+84 944 089 595","spa":"Yohe Spa - Beauty and Healthy","name":"Yohe Spa - Beauty and Healthy, 43a P. Giảng Võ, Cát Linh, Đống Đa, Hà Nội 100000, Vietnam","name2":"Yohe Spa - Beauty and Healthy, 43a P. Giảng Võ, Cát Linh, Đống Đa, Hà Nội 100000, Vietnam","lat":21.0313145,"lon":105.8297911,"add":"43a P. Giảng Võ","ward":"Cát Linh","dist":"Đống Đa","province":"Hà Nội 100000, Vietnam"},{"id":"0x3135ab26412c2829:0x97bdf7397a252c5d","tel":"+84 24 7109 9883","spa":"Yakson Beauty Núi Trúc","name":"Yakson Beauty Núi Trúc, 20 P. Núi Trúc, Giảng Võ, Ba Đình, Hà Nội, Vietnam","name2":"Yakson Beauty Núi Trúc, 20 P. Núi Trúc, Giảng Võ, Ba Đình, Hà Nội, Vietnam","lat":21.0287008,"lon":105.82375789999999,"add":"20 P. Núi Trúc","ward":"Giảng Võ","dist":"Ba Đình","province":"Hà Nội, Vietnam"},{"id":"0x3135ab2a251bc9b3:0x9dab5eeb705eb236","tel":"+84 389 204 389","spa":"Eco Lilly Spa","name":null,"name2":null,"lat":15.793925199999999,"lon":105.91025889999999},{"id":"0x3135ab9b8e7391ef:0xad7a60c4cfb53bd9","tel":"+84 978 827 402","spa":"Neko Nuru Massage - Cau Giay Ha Noi","name":"Neko Nuru Massage - Cau Giay Ha Noi, 75 P.Trần Thái Tông, Dịch Vọng Hậu, Cầu Giấy, Hà Nội 100000, Vietnam","name2":"Neko Nuru Massage - Cau Giay Ha Noi, 75 P.Trần Thái Tông, Dịch Vọng Hậu, Cầu Giấy, Hà Nội 100000, Vietnam","lat":21.033262999999998,"lon":105.78939419999999,"add":"75 P.Trần Thái Tông","ward":"Dịch Vọng Hậu","dist":"Cầu Giấy","province":"Hà Nội 100000, Vietnam"},{"id":"0x3135ab8064233a6d:0x90c8caaf0ae33094","tel":"+84 866 630 966","spa":"En beauty Spa","name":"En beauty Spa, Hannari Apartment, ngõ 76 P. Kim Mã Thượng, Cống Vị, Ba Đình, Hà Nội, Vietnam","name2":"En beauty Spa, Hannari Apartment, ngõ 76 P. Kim Mã Thượng, Cống Vị, Ba Đình, Hà Nội, Vietnam","lat":21.036455099999998,"lon":105.8115438,"add":"Hannari Apartment, ngõ 76 P. Kim Mã Thượng","ward":"Cống Vị","dist":"Ba Đình","province":"Hà Nội, Vietnam"},{"id":"0x3135ab38f650d0f1:0x5383ebc67cdc3ef3","tel":"+84 974 843 968","spa":"Cecilia Spa","name":"Cecilia Spa, 5 Ng. 10 Đ. Nguyễn Văn Huyên, Dịch Vọng, Cầu Giấy, Hà Nội, Vietnam","name2":"Cecilia Spa, 5 Ng. 10 Đ. Nguyễn Văn Huyên, Dịch Vọng, Cầu Giấy, Hà Nội, Vietnam","lat":21.0375963,"lon":105.7969009,"add":"5 Ng. 10 Đ. Nguyễn Văn Huyên","ward":"Dịch Vọng","dist":"Cầu Giấy","province":"Hà Nội, Vietnam"},{"id":"0x3135ab83f42ab27d:0x6ec2ceb3919feedb","tel":"+84 985 615 005","spa":"July Spa","name":"July Spa, 12B P. Phạm Huy Thông, Ngọc Khánh, Ba Đình, Hà Nội, Vietnam","name2":"July Spa, 12B P. Phạm Huy Thông, Ngọc Khánh, Ba Đình, Hà Nội, Vietnam","lat":21.0284396,"lon":105.8107184,"add":"12B P. Phạm Huy Thông","ward":"Ngọc Khánh","dist":"Ba Đình","province":"Hà Nội, Vietnam"},{"id":"0x3135abf9cc048e3d:0xefc4819fc610aaa","tel":"+84 377 663 066","spa":"Chemical Free Spa - Spa không hóa chất","name":"Chemical Free Spa - Spa không hóa chất, 20 P. Quảng Khánh, Quảng An, Tây Hồ, Hà Nội, Vietnam","name2":"Chemical Free Spa - Spa không hóa chất, 20 P. Quảng Khánh, Quảng An, Tây Hồ, Hà Nội, Vietnam","lat":21.055854399999998,"lon":105.82110109999999,"add":"20 P. Quảng Khánh","ward":"Quảng An","dist":"Tây Hồ","province":"Hà Nội, Vietnam"},{"id":"0x3135ab9cb6b204db:0x12b3d7bdf1a45d13","tel":"+84 929 963 888","spa":"Thẩm Mỹ Quốc Tế Ngọc Bích","name":"Thẩm Mỹ Quốc Tế Ngọc Bích, Ngõ 376 Đ. Bưởi, Vĩnh Phú, Ba Đình, Hà Nội 11513, Vietnam","name2":"Thẩm Mỹ Quốc Tế Ngọc Bích, Ngõ 376 Đ. Bưởi, Vĩnh Phú, Ba Đình, Hà Nội 11513, Vietnam","lat":21.0408693,"lon":105.8072012,"add":"Ngõ 376 Đ. Bưởi","ward":"Vĩnh Phú","dist":"Ba Đình","province":"Hà Nội 11513, Vietnam"},{"id":"0x3135ab5ebd6a8d41:0x973cc631a9b301c3","tel":"+84 344 168 630","spa":"HB Spa - Tây Hồ (Dưỡng Sinh & Thủ Đạo Thang)","name":"HB Spa - Tây Hồ (Dưỡng Sinh & Thủ Đạo Thang), 67 Nhật Chiêu, Nhật Tân, Tây Hồ, Hà Nội Hà Nội, Hanoi City, 10000, Vietnam","name2":"HB Spa - Tây Hồ (Dưỡng Sinh & Thủ Đạo Thang), 67 Nhật Chiêu, Nhật Tân, Tây Hồ, Hà Nội Hà Nội, Hanoi City, 10000, Vietnam","lat":21.0708882,"lon":105.8136763,"add":"67 Nhật Chiêu, Nhật Tân, Tây Hồ, Hà Nội Hà Nội","ward":"Hanoi City","dist":"10000","province":"Vietnam"},{"id":"0x3135abe55c2571dd:0x9c03f2a55df91320","tel":"+84 385 001 222","spa":"Win Spa","name":"Win Spa, 397 Phạm Văn Đồng, Xuân Đỉnh, Từ Liêm, Hà Nội, Vietnam","name2":"Win Spa, 397 Phạm Văn Đồng, Xuân Đỉnh, Từ Liêm, Hà Nội, Vietnam","lat":21.0696671,"lon":105.7856547,"add":"397 Phạm Văn Đồng","ward":"Xuân Đỉnh","dist":"Từ Liêm","province":"Hà Nội, Vietnam"},{"id":"0x3135ab12bfc2dbf1:0xa169524234c2f6a5","tel":"+84 969 468 734","spa":"An thảo spa","name":"An thảo spa, nhà 11 ngách 222f, Ng. 260 P. Đội Cấn, Liễu Giai, Ba Đình, Hà Nội, Vietnam","name2":"An thảo spa, nhà 11 ngách 222f, Ng. 260 P. Đội Cấn, Liễu Giai, Ba Đình, Hà Nội, Vietnam","lat":21.0353155,"lon":105.8159393,"add":"nhà 11 ngách 222f, Ng. 260 P. Đội Cấn","ward":"Liễu Giai","dist":"Ba Đình","province":"Hà Nội, Vietnam"},{"id":"0x3135c78d9f92e5f1:0x481817280bc378e4","tel":"+84 941 265 566","spa":"Roma Luxury Massage","name":"Roma Luxury Massage, 62 P. Khúc Thừa Dụ, Dịch Vọng, Cầu Giấy, Hà Nội, Vietnam","name2":"Roma Luxury Massage, 62 P. Khúc Thừa Dụ, Dịch Vọng, Cầu Giấy, Hà Nội, Vietnam","lat":21.0325225,"lon":105.7914095,"add":"62 P. Khúc Thừa Dụ","ward":"Dịch Vọng","dist":"Cầu Giấy","province":"Hà Nội, Vietnam"},{"id":"0x3135abb9aaaa6a11:0x7a80adba77cb6c6e","tel":"+84 936 356 771","spa":"Lily Artist Beauty & Spa","name":"Lily Artist Beauty & Spa, 269a P. Đội Cấn, Ngọc Hồ, Ba Đình, Hà Nội, Vietnam","name2":"Lily Artist Beauty & Spa, 269a P. Đội Cấn, Ngọc Hồ, Ba Đình, Hà Nội, Vietnam","lat":21.0353431,"lon":105.820736,"add":"269a P. Đội Cấn","ward":"Ngọc Hồ","dist":"Ba Đình","province":"Hà Nội, Vietnam"},{"id":"0x3135ab37c731543f:0x55bb4e1d68bdebbb","tel":"+84 989 439 333","spa":"Spa Mùa Xuân","name":"Spa Mùa Xuân, P. Trần Quý Kiên, Dịch Vọng, Cầu Giấy, Hà Nội, Vietnam","name2":"Spa Mùa Xuân, P. Trần Quý Kiên, Dịch Vọng, Cầu Giấy, Hà Nội, Vietnam","lat":21.0386371,"lon":105.79199399999999,"add":"P. Trần Quý Kiên","ward":"Dịch Vọng","dist":"Cầu Giấy","province":"Hà Nội, Vietnam"},{"id":"0x3135ab129d72f59d:0x93827c67d0bf4945","tel":"+84 816 227 266","spa":"Hồi - Spa Đông Y - 53 Núi Trúc","name":"Hồi - Spa Đông Y - 53 Núi Trúc, 53 P. Núi Trúc, Kim Mã, Ba Đình, Hà Nội 118518, Vietnam","name2":"Hồi - Spa Đông Y - 53 Núi Trúc, 53 P. Núi Trúc, Kim Mã, Ba Đình, Hà Nội 118518, Vietnam","lat":21.0302367,"lon":105.82262659999999,"add":"53 P. Núi Trúc","ward":"Kim Mã","dist":"Ba Đình","province":"Hà Nội 118518, Vietnam"},{"id":"0x3135abf178ac56f3:0xd8399dd63fb8fc46","tel":"+84 866 122 669","spa":"Spa HT Beauty Center","name":"Spa HT Beauty Center, 97 P. Phan Kế Bính, Cống Vị, Ba Đình, Hà Nội 100000, Vietnam","name2":"Spa HT Beauty Center, 97 P. Phan Kế Bính, Cống Vị, Ba Đình, Hà Nội 100000, Vietnam","lat":21.0364354,"lon":105.8073428,"add":"97 P. Phan Kế Bính","ward":"Cống Vị","dist":"Ba Đình","province":"Hà Nội 100000, Vietnam"},{"id":"0x3135ab4e2b8da3f7:0x7b34845380b9ecb2","tel":"+84 935 599 586","spa":"Beauty & Care","name":"Beauty & Care, 33 P. Vạn Bảo, Liễu Giai, Ba Đình, Hà Nội 100000, Vietnam","name2":"Beauty & Care, 33 P. Vạn Bảo, Liễu Giai, Ba Đình, Hà Nội 100000, Vietnam","lat":21.034583599999998,"lon":105.817529,"add":"33 P. Vạn Bảo","ward":"Liễu Giai","dist":"Ba Đình","province":"Hà Nội 100000, Vietnam"},{"id":"0xefaeb65263f344b:0x8282a85e8bc51c26","tel":"+84 986 936 586","spa":"Lá Spa - Massage Gội đầu dưỡng sinh","name":"Lá Spa - Massage Gội đầu dưỡng sinh, 16 P. Lý Quốc Sư, Hàng Trống, Hoàn Kiếm, Hà Nội 12345, Vietnam","name2":"Lá Spa - Massage Gội đầu dưỡng sinh, 16 P. Lý Quốc Sư, Hàng Trống, Hoàn Kiếm, Hà Nội 12345, Vietnam","lat":21.0303444,"lon":105.8488747,"add":"16 P. Lý Quốc Sư","ward":"Hàng Trống","dist":"Hoàn Kiếm","province":"Hà Nội 12345, Vietnam"},{"id":"0x3135ab6c8c8b3ae5:0x14e19eec20684041","tel":"+84 24 3766 7616","spa":"Key Club And Spa","name":"Key Club And Spa, 24 P. Đào Tấn, Cống Vị, Ba Đình, Hà Nội, Vietnam","name2":"Key Club And Spa, 24 P. Đào Tấn, Cống Vị, Ba Đình, Hà Nội, Vietnam","lat":21.0327974,"lon":105.80853959999999,"add":"24 P. Đào Tấn","ward":"Cống Vị","dist":"Ba Đình","province":"Hà Nội, Vietnam"},{"id":"0x3135ab13ac17d66d:0x36c5dbd9b42184df","tel":null,"spa":"Elegante Spa","name":"Elegante Spa, 4 P. Đội Cấn, Cống Vị, Ba Đình, Hà Nội, Vietnam","name2":"Elegante Spa, 4 P. Đội Cấn, Cống Vị, Ba Đình, Hà Nội, Vietnam","lat":21.0373979,"lon":105.81401029999999,"add":"4 P. Đội Cấn","ward":"Cống Vị","dist":"Ba Đình","province":"Hà Nội, Vietnam"},{"id":"0x3135abe98a9c42e1:0x88deccdba6884b0a","tel":"+84 868 095 989","spa":"May Spa","name":"May Spa, 166 P. Ngọc Khánh, Giảng Võ, Ba Đình, Hà Nội, Vietnam","name2":"May Spa, 166 P. Ngọc Khánh, Giảng Võ, Ba Đình, Hà Nội, Vietnam","lat":21.025435299999998,"lon":105.8184491,"add":"166 P. Ngọc Khánh","ward":"Giảng Võ","dist":"Ba Đình","province":"Hà Nội, Vietnam"},{"id":"0x3135ab3754f043e5:0x2a56deb5d4cd441b","tel":"+84 975 000 666","spa":"Golden Spa Dưỡng Sinh gia đình","name":"Golden Spa Dưỡng Sinh gia đình, 415 P. Đội Cấn, Vĩnh Phú, Ba Đình, Hà Nội, Vietnam","name2":"Golden Spa Dưỡng Sinh gia đình, 415 P. Đội Cấn, Vĩnh Phú, Ba Đình, Hà Nội, Vietnam","lat":21.0379376,"lon":105.8113975,"add":"415 P. Đội Cấn","ward":"Vĩnh Phú","dist":"Ba Đình","province":"Hà Nội, Vietnam"},{"id":"0x3135abc06ea2c327:0x42f5590945d75a1c","tel":"+84 24 6686 9163","spa":"La Belle Vie Spa Massage","name":"La Belle Vie Spa Massage, 48 P. Lương Văn Can, Hàng Gai, Hoàn Kiếm, Hà Nội 100000, Vietnam","name2":"La Belle Vie Spa Massage, 48 P. Lương Văn Can, Hàng Gai, Hoàn Kiếm, Hà Nội 100000, Vietnam","lat":21.0327469,"lon":105.85042779999999,"add":"48 P. Lương Văn Can","ward":"Hàng Gai","dist":"Hoàn Kiếm","province":"Hà Nội 100000, Vietnam"},{"id":"0x3135abf47a13b185:0x2110c805e5b2de6c","tel":"+84 378 754 262","spa":"Belle Beauty Center","name":"Belle Beauty Center, 12 Ng. 189 Đ. Hoàng Hoa Thám, Ngọc Hồ, Ba Đình, Hà Nội, Vietnam","name2":"Belle Beauty Center, 12 Ng. 189 Đ. Hoàng Hoa Thám, Ngọc Hồ, Ba Đình, Hà Nội, Vietnam","lat":21.0415511,"lon":105.8203891,"add":"12 Ng. 189 Đ. Hoàng Hoa Thám","ward":"Ngọc Hồ","dist":"Ba Đình","province":"Hà Nội, Vietnam"},{"id":"0x3135ab14086dd791:0x6a848e90a409d38b","tel":"+84 982 795 233","spa":"Hanoi Home Massage Outcall Service","name":"Hanoi Home Massage Outcall Service, Kim Mã, Ba Đình, Hà Nội 11112, Vietnam","name2":"Hanoi Home Massage Outcall Service, Kim Mã, Ba Đình, Hà Nội 11112, Vietnam","lat":21.0312981,"lon":105.8228896,"add":"Kim Mã","ward":"Ba Đình","dist":"Hà Nội 11112","province":"Vietnam"},{"id":"0x3135ab12aa419539:0xdbc402d362317a7e","tel":null,"spa":"Lucky Spa","name":"Lucky Spa, 53 P. Vạn Bảo, Liễu Giai, Ba Đình, Hà Nội, Vietnam","name2":"Lucky Spa, 53 P. Vạn Bảo, Liễu Giai, Ba Đình, Hà Nội, Vietnam","lat":21.0340985,"lon":105.817336,"add":"53 P. Vạn Bảo","ward":"Liễu Giai","dist":"Ba Đình","province":"Hà Nội, Vietnam"},{"id":"0x3135ab149e88c129:0x95a5461d753cbca6","tel":null,"spa":"Sunstone Spa Massage Foot And Body","name":"Sunstone Spa Massage Foot And Body, 84 P. Kim Mã Thượng, Cống Vị, Ba Đình, Hà Nội, Vietnam","name2":"Sunstone Spa Massage Foot And Body, 84 P. Kim Mã Thượng, Cống Vị, Ba Đình, Hà Nội, Vietnam","lat":21.0361255,"lon":105.8112156,"add":"84 P. Kim Mã Thượng","ward":"Cống Vị","dist":"Ba Đình","province":"Hà Nội, Vietnam"},{"id":"0x3135ab324cf2aa61:0xa104dbb3c6f887f3","tel":null,"spa":"Diamond Spa","name":"Diamond Spa, 49 Ng. 279 P. Đội Cấn, Liễu Giai, Ba Đình, Hà Nội, Vietnam","name2":"Diamond Spa, 49 Ng. 279 P. Đội Cấn, Liễu Giai, Ba Đình, Hà Nội, Vietnam","lat":21.0380647,"lon":105.8204514,"add":"49 Ng. 279 P. Đội Cấn","ward":"Liễu Giai","dist":"Ba Đình","province":"Hà Nội, Vietnam"},{"id":"0x3135ab0ab5555617:0x668e8146f872c16a","tel":null,"spa":"Y Viên Spa Bảo Dưỡng Sinh Mệnh","name":"Y Viên Spa Bảo Dưỡng Sinh Mệnh, 25 Ng. 19 P. Liễu Giai, Liễu Giai, Ba Đình, Hà Nội, Vietnam","name2":"Y Viên Spa Bảo Dưỡng Sinh Mệnh, 25 Ng. 19 P. Liễu Giai, Liễu Giai, Ba Đình, Hà Nội, Vietnam","lat":21.034561,"lon":105.8153708,"add":"25 Ng. 19 P. Liễu Giai","ward":"Liễu Giai","dist":"Ba Đình","province":"Hà Nội, Vietnam"},{"id":"0x3135ab2217719153:0x54da15b7953e3a43","tel":null,"spa":"Massage 379 Đội Cấn","name":"2RQ7+4G4 Massage 379 Đội Cấn, Ng. 379 P. Đội Cấn, Liễu Giai, Ba Đình, Hà Nội, Vietnam","name2":"2RQ7+4G4 Massage 379 Đội Cấn, Ng. 379 P. Đội Cấn, Liễu Giai, Ba Đình, Hà Nội, Vietnam","lat":21.0377741,"lon":105.8138378,"add":"2RQ7+4G4, Ng. 379 P. Đội Cấn","ward":"Liễu Giai","dist":"Ba Đình","province":"Hà Nội, Vietnam"},{"id":"0x3135abd161d1df2f:0xf634df5fa63cb75","tel":"+84 866 430 267","spa":"Baby Care Center - Baby Float Ba Đình","name":"Baby Care Center - Baby Float Ba Đình, ngách 30 Ng. 267 Đ. Hoàng Hoa Thám, Ngọc Hồ, Ba Đình, Hà Nội 10000, Vietnam","name2":"Baby Care Center - Baby Float Ba Đình, ngách 30 Ng. 267 Đ. Hoàng Hoa Thám, Ngọc Hồ, Ba Đình, Hà Nội 10000, Vietnam","lat":21.0407986,"lon":105.81885559999999,"add":"ngách 30 Ng. 267 Đ. Hoàng Hoa Thám","ward":"Ngọc Hồ","dist":"Ba Đình","province":"Hà Nội 10000, Vietnam"},{"id":"0x3135ab796bbf4d53:0xe6643acad15f21a","tel":"+84 942 631 888","spa":"Cloudy Beauty","name":"Cloudy Beauty, 472 Đ. Lạc Long Quân, Nhật Tân, Ba Đình, Hà Nội, Vietnam","name2":"Cloudy Beauty, 472 Đ. Lạc Long Quân, Nhật Tân, Ba Đình, Hà Nội, Vietnam","lat":21.072356,"lon":105.813982,"add":"472 Đ. Lạc Long Quân","ward":"Nhật Tân","dist":"Ba Đình","province":"Hà Nội, Vietnam"},{"id":"0x3135ab3f2876e151:0xf4bfbb5aab421359","tel":"+84 969 344 896","spa":"Menspa 118 NKT vip massage","name":"Menspa 118 NKT vip massage, ngách 6 Ng. 118 Đ. Nguyễn Khánh Toàn, Quan Hoa, Cầu Giấy, Hà Nội, Vietnam","name2":"Menspa 118 NKT vip massage, ngách 6 Ng. 118 Đ. Nguyễn Khánh Toàn, Quan Hoa, Cầu Giấy, Hà Nội, Vietnam","lat":21.0380328,"lon":105.80130489999999,"add":"ngách 6 Ng. 118 Đ. Nguyễn Khánh Toàn","ward":"Quan Hoa","dist":"Cầu Giấy","province":"Hà Nội, Vietnam"},{"id":"0x3135aba077fb7a37:0xfeb3c684aeacee2b","tel":null,"spa":"Spa Dưỡng sinh An Nam Đường","name":"Spa Dưỡng sinh An Nam Đường, Số 28, ngõ 279 phố Đội Cấn, Q, Ba Đình, Hà Nội, Vietnam","name2":"Spa Dưỡng sinh An Nam Đường, Số 28, ngõ 279 phố Đội Cấn, Q, Ba Đình, Hà Nội, Vietnam","lat":21.036097299999998,"lon":105.8204896,"add":"Số 28, ngõ 279 phố Đội Cấn, Q","ward":"Ba Đình","dist":"Hà Nội","province":"Vietnam"},{"id":"0x3135ab6dc1822579:0xe98e5754fa5a8711","tel":"+84 24 6680 0210","spa":"Mai Quỳnh Spa","name":"Mai Quỳnh Spa, 33 P. Kim Mã, Ngọc Khánh, Ba Đình, Hà Nội, Vietnam","name2":"Mai Quỳnh Spa, 33 P. Kim Mã, Ngọc Khánh, Ba Đình, Hà Nội, Vietnam","lat":21.029581999999998,"lon":105.8156618,"add":"33 P. Kim Mã","ward":"Ngọc Khánh","dist":"Ba Đình","province":"Hà Nội, Vietnam"},{"id":"0x3135abafb25ef509:0x145768f80329c9ec","tel":"+84 978 063 685","spa":"Phương SpaBeauty","name":"Phương SpaBeauty, 485 P. Kim Mã, Ngọc Khánh, Ba Đình, Hà Nội, Vietnam","name2":"Phương SpaBeauty, 485 P. Kim Mã, Ngọc Khánh, Ba Đình, Hà Nội, Vietnam","lat":21.0301241,"lon":105.81374439999999,"add":"485 P. Kim Mã","ward":"Ngọc Khánh","dist":"Ba Đình","province":"Hà Nội, Vietnam"},{"id":"0x3135ab857fdbc2a3:0xc8a1b7ec7b86a060","tel":"+84 963 832 283","spa":"Ngõ Spa","name":"Ngõ Spa, Ngõ 58, 53 P. Đào Tấn, Cống Vị, Ba Đình, Hà Nội 10000, Vietnam","name2":"Ngõ Spa, Ngõ 58, 53 P. Đào Tấn, Cống Vị, Ba Đình, Hà Nội 10000, Vietnam","lat":21.0328134,"lon":105.8069367,"add":"Ngõ 58, 53 P. Đào Tấn","ward":"Cống Vị","dist":"Ba Đình","province":"Hà Nội 10000, Vietnam"},{"id":"0x3135ab6a2c19f417:0xb0a1f9893269a365","tel":"+84 24 2211 5580","spa":"Spa Miyu","name":"Spa Miyu, 629 P. Kim Mã, Ngọc Khánh, Ba Đình, Hà Nội, Vietnam","name2":"Spa Miyu, 629 P. Kim Mã, Ngọc Khánh, Ba Đình, Hà Nội, Vietnam","lat":21.0291478,"lon":105.8082506,"add":"629 P. Kim Mã","ward":"Ngọc Khánh","dist":"Ba Đình","province":"Hà Nội, Vietnam"},{"id":"0x3135ab16e85faefd:0x9f62d511a64bf036","tel":"+84 901 673 568","spa":"Osum Spa & Health Care","name":"Osum Spa & Health Care, 12 Cửa Bắc, Trúc Bạch, Ba Đình, Hà Nội, Vietnam","name2":"Osum Spa & Health Care, 12 Cửa Bắc, Trúc Bạch, Ba Đình, Hà Nội, Vietnam","lat":21.045425299999998,"lon":105.84319719999999,"add":"12 Cửa Bắc","ward":"Trúc Bạch","dist":"Ba Đình","province":"Hà Nội, Vietnam"},{"id":"0x3135ab0a6e801449:0xc5a7279d6959da42","tel":"+84 986 936 586","spa":"Lá spa - Massage & Gội đầu dưỡng sinh 67 Cầu Gỗ","name":"Lá spa - Massage & Gội đầu dưỡng sinh 67 Cầu Gỗ, 67 P. Cầu Gỗ, Hàng Bạc, Hoàn Kiếm, Hà Nội 000000, Vietnam","name2":"Lá spa - Massage & Gội đầu dưỡng sinh 67 Cầu Gỗ, 67 P. Cầu Gỗ, Hàng Bạc, Hoàn Kiếm, Hà Nội 000000, Vietnam","lat":21.032172499999998,"lon":105.8522473,"add":"67 P. Cầu Gỗ","ward":"Hàng Bạc","dist":"Hoàn Kiếm","province":"Hà Nội 000000, Vietnam"},{"id":"0x3135acc2583aea55:0x54574327d1cf72f9","tel":"+84 344 562 424","spa":"Kako Spa & Massage (Cơ sở 1)","name":"Kako Spa & Massage (Cơ sở 1), 144 Đ. Đình Thôn, Mỹ Đình, Từ Liêm, Hà Nội, Vietnam","name2":"Kako Spa & Massage (Cơ sở 1), 144 Đ. Đình Thôn, Mỹ Đình, Từ Liêm, Hà Nội, Vietnam","lat":21.0186097,"lon":105.7765419,"add":"144 Đ. Đình Thôn","ward":"Mỹ Đình","dist":"Từ Liêm","province":"Hà Nội, Vietnam"},{"id":"0x3135ab94a07e33ab:0x6d1b7dcd6a0723c0","tel":"+84 971 969 128","spa":"Bliss Spa","name":"Bliss Spa, 453 Đ. Nguyễn Khang, Yên Hoà, Cầu Giấy, Hà Nội, Vietnam","name2":"Bliss Spa, 453 Đ. Nguyễn Khang, Yên Hoà, Cầu Giấy, Hà Nội, Vietnam","lat":21.0287983,"lon":105.7996388,"add":"453 Đ. Nguyễn Khang","ward":"Yên Hoà","dist":"Cầu Giấy","province":"Hà Nội, Vietnam"},{"id":"0x3135abda02324767:0x6fd87322e898b723","tel":"+84 828 123 636","spa":"Izumi Japanese massage and Spa Hanoi","name":"Izumi Japanese massage and Spa Hanoi, 22 P. Đào Tấn, Ngọc Khánh, Ba Đình, Hà Nội, Vietnam","name2":"Izumi Japanese massage and Spa Hanoi, 22 P. Đào Tấn, Ngọc Khánh, Ba Đình, Hà Nội, Vietnam","lat":21.033393099999998,"lon":105.8056728,"add":"22 P. Đào Tấn","ward":"Ngọc Khánh","dist":"Ba Đình","province":"Hà Nội, Vietnam"},{"id":"0x3135abe50f65d78d:0x2e66142aaa50325b","tel":"+84 982 548 097","spa":"Lá Spa - Gội đầu dưỡng sinh","name":"Lá Spa - Gội đầu dưỡng sinh, 133 P. Hào Nam, Chợ Dừa, Đống Đa, Hà Nội 11511, Vietnam","name2":"Lá Spa - Gội đầu dưỡng sinh, 133 P. Hào Nam, Chợ Dừa, Đống Đa, Hà Nội 11511, Vietnam","lat":21.0255197,"lon":105.8271508,"add":"133 P. Hào Nam","ward":"Chợ Dừa","dist":"Đống Đa","province":"Hà Nội 11511, Vietnam"},{"id":"0x3135abe8fac2385f:0xeb2097b984d6fc6","tel":"+84 328 151 586","spa":"SPA Chó Dầu gội Massage","name":"SPA Chó Dầu gội Massage 9/81 Ling lang Ba dinh Hanoi City, Vietnam","name2":"SPA Chó Dầu gội Massage 9/81 Ling lang Ba dinh Hanoi City, Vietnam","lat":21.0334398,"lon":105.810131,"add":"9/81 Ling lang Ba dinh Hanoi City","ward":"Vietnam"},{"id":"0x3135abbfd1259fed:0xb1507bcd1cc0981a","tel":"+84 24 3354 3333","spa":"Urban Oasis Spa","name":"Urban Oasis Spa, 39A Ng. Hàng Hành, Hàng Trống, Hoàn Kiếm, Hà Nội, Vietnam","name2":"Urban Oasis Spa, 39A Ng. Hàng Hành, Hàng Trống, Hoàn Kiếm, Hà Nội, Vietnam","lat":21.031121499999998,"lon":105.84995889999999,"add":"39A Ng. Hàng Hành","ward":"Hàng Trống","dist":"Hoàn Kiếm","province":"Hà Nội, Vietnam"},{"id":"0x3135ab0d6e024379:0x3882222efea92604","tel":null,"spa":"Donna Spa -Luxury","name":"Donna Spa -Luxury, 287 P. Đội Cấn, Liễu Giai, Ba Đình, Hà Nội, Vietnam","name2":"Donna Spa -Luxury, 287 P. Đội Cấn, Liễu Giai, Ba Đình, Hà Nội, Vietnam","lat":21.0358336,"lon":105.81850659999999,"add":"287 P. Đội Cấn","ward":"Liễu Giai","dist":"Ba Đình","province":"Hà Nội, Vietnam"},{"id":"0x3135ab720bcc133b:0xa7d86b8def434200","tel":"+84 966 145 154","spa":"Más Bella Spa","name":"Más Bella Spa, 52 P. Ngọc Khánh, Ngọc Khánh, Ba Đình, Hà Nội, Vietnam","name2":"Más Bella Spa, 52 P. Ngọc Khánh, Ngọc Khánh, Ba Đình, Hà Nội, Vietnam","lat":21.029223899999998,"lon":105.81733829999999,"add":"52 P. Ngọc Khánh","ward":"Ngọc Khánh","dist":"Ba Đình","province":"Hà Nội, Vietnam"},{"id":"0x3135ab974541824d:0x6f484db0ed0e8b7e","tel":"+84 24 3555 1875","spa":"La Spa & Hair Sampoo","name":"La Spa & Hair Sampoo, 59 Đ. Lê Duẩn, Văn Miếu, Đống Đa, Hà Nội, Vietnam","name2":"La Spa & Hair Sampoo, 59 Đ. Lê Duẩn, Văn Miếu, Đống Đa, Hà Nội, Vietnam","lat":21.0263568,"lon":105.84160299999999,"add":"59 Đ. Lê Duẩn","ward":"Văn Miếu","dist":"Đống Đa","province":"Hà Nội, Vietnam"},{"id":"0x8665e80df91ddcc5:0xae81e2700f7777a9","tel":"+84 866 430 267","spa":"Myy’s Spa - Dưỡng sinh & Massgae","name":"Myy’s Spa - Dưỡng sinh & Massgae, 267 Đ. Hoàng Hoa Thám, Ngọc Hồ, Ba Đình, Hà Nội 10000, Vietnam","name2":"Myy’s Spa - Dưỡng sinh & Massgae, 267 Đ. Hoàng Hoa Thám, Ngọc Hồ, Ba Đình, Hà Nội 10000, Vietnam","lat":21.040771,"lon":105.8188478,"add":"267 Đ. Hoàng Hoa Thám","ward":"Ngọc Hồ","dist":"Ba Đình","province":"Hà Nội 10000, Vietnam"},{"id":"0x3135ab0da0282559:0x9b4dfd7e313854e","tel":"+84 867 389 352","spa":"Shop bao cao su Hà Nội- Chính hãng","name":"Shop bao cao su Hà Nội- Chính hãng, 17 Ngh. 6/9 P. Vĩnh Phúc, Vĩnh Phú, Ba Đình, Hà Nội, Vietnam","name2":"Shop bao cao su Hà Nội- Chính hãng, 17 Ngh. 6/9 P. Vĩnh Phúc, Vĩnh Phú, Ba Đình, Hà Nội, Vietnam","lat":21.0438063,"lon":105.8097894,"add":"17 Ngh. 6/9 P. Vĩnh Phúc","ward":"Vĩnh Phú","dist":"Ba Đình","province":"Hà Nội, Vietnam"},{"id":"0x3135ab0ca91feefb:0xfb794d7cad376a0f","tel":"+84 24 7308 7297","spa":"Dal Spa","name":"Dal Spa, 15 P. Vạn Phúc, Kim Mã, Ba Đình, Hà Nội 100000, Vietnam","name2":"Dal Spa, 15 P. Vạn Phúc, Kim Mã, Ba Đình, Hà Nội 100000, Vietnam","lat":21.0330959,"lon":105.8196378,"add":"15 P. Vạn Phúc","ward":"Kim Mã","dist":"Ba Đình","province":"Hà Nội 100000, Vietnam"},{"id":"0x3135ab124e1bfeaf:0x4af3729d92238413","tel":"+84 964 820 856","spa":"J-roses Spa","name":"J-roses Spa, số 10, ngõ, 82 Đ. Văn Cao, Liễu Giai, Ba Đình, Hà Nội, Vietnam","name2":"J-roses Spa, số 10, ngõ, 82 Đ. Văn Cao, Liễu Giai, Ba Đình, Hà Nội, Vietnam","lat":21.0376734,"lon":105.81478709999999,"add":"số 10, ngõ, 82 Đ. Văn Cao","ward":"Liễu Giai","dist":"Ba Đình","province":"Hà Nội, Vietnam"},{"id":"0x3135a823c6f31a33:0x98452c2eb12eef46","tel":"+84 986 064 802","spa":"Spa Mova spa","name":"Spa Mova spa, Ngõ 53 P. Linh Lang, Cống Vị, Ba Đình, Hà Nội, Vietnam","name2":"Spa Mova spa, Ngõ 53 P. Linh Lang, Cống Vị, Ba Đình, Hà Nội, Vietnam","lat":21.0343575,"lon":105.8103228,"add":"Ngõ 53 P. Linh Lang","ward":"Cống Vị","dist":"Ba Đình","province":"Hà Nội, Vietnam"},{"id":"0x3135abea8d0e4cd1:0x467da22208c79270","tel":"+84 971 599 475","spa":"HANOI BEAUTY","name":"HANOI BEAUTY, 18 P. Ngọc Khánh, Ngọc Khánh, Ba Đình, Hà Nội, Vietnam","name2":"HANOI BEAUTY, 18 P. Ngọc Khánh, Ngọc Khánh, Ba Đình, Hà Nội, Vietnam","lat":21.0299776,"lon":105.81720209999999,"add":"18 P. Ngọc Khánh","ward":"Ngọc Khánh","dist":"Ba Đình","province":"Hà Nội, Vietnam"},{"id":"0x3135abb9e42b92c7:0x28f4c0e711a3d4df","tel":"+84 969 110 169","spa":"Ruby Beauty Spa","name":"Ruby Beauty Spa, 25 Ng. 97 Đ. Văn Cao, Liễu Giai, Ba Đình, Hà Nội, Vietnam","name2":"Ruby Beauty Spa, 25 Ng. 97 Đ. Văn Cao, Liễu Giai, Ba Đình, Hà Nội, Vietnam","lat":21.0391801,"lon":105.81647729999999,"add":"25 Ng. 97 Đ. Văn Cao","ward":"Liễu Giai","dist":"Ba Đình","province":"Hà Nội, Vietnam"},{"id":"0x3135ab64b5db80df:0xe11fd6cad4940df1","tel":"+84 24 6293 2162","spa":"Mom Spa","name":"Mom Spa, 4 P. Láng Hạ, Chợ Dừa, Ba Đình, Hà Nội, Vietnam","name2":"Mom Spa, 4 P. Láng Hạ, Chợ Dừa, Ba Đình, Hà Nội, Vietnam","lat":21.0177578,"lon":105.8169449,"add":"4 P. Láng Hạ","ward":"Chợ Dừa","dist":"Ba Đình","province":"Hà Nội, Vietnam"},{"id":"0x3135ab206a02d257:0xb7e4a31fe5501640","tel":"+84 942 155 185","spa":"Libra Beauty Spa","name":"Libra Beauty Spa, 228 Đ. Bưởi, Cống Vị, Ba Đình, Hà Nội, Vietnam","name2":"Libra Beauty Spa, 228 Đ. Bưởi, Cống Vị, Ba Đình, Hà Nội, Vietnam","lat":21.036058099999998,"lon":105.8065725,"add":"228 Đ. Bưởi","ward":"Cống Vị","dist":"Ba Đình","province":"Hà Nội, Vietnam"},{"id":"0x3135ab2192394113:0xa050b9c820c6743c","tel":"+84 386 178 123","spa":"3SLIFE","name":"3SLIFE, 36 P. Nguyễn Văn Ngọc, Cống Vị, Ba Đình, Hà Nội, Vietnam","name2":"3SLIFE, 36 P. Nguyễn Văn Ngọc, Cống Vị, Ba Đình, Hà Nội, Vietnam","lat":21.0333163,"lon":105.8112539,"add":"36 P. Nguyễn Văn Ngọc","ward":"Cống Vị","dist":"Ba Đình","province":"Hà Nội, Vietnam"},{"id":"0x3135ab0559a2faaf:0x90de01468b90c0b8","tel":"+84 936 356 771","spa":"Lily Artist spa - Thao Minh Nguyen","name":"Lily Artist spa - Thao Minh Nguyen, 269A P. Đội Cấn, Ngọc Hồ, Ba Đình, Hà Nội, Vietnam","name2":"Lily Artist spa - Thao Minh Nguyen, 269A P. Đội Cấn, Ngọc Hồ, Ba Đình, Hà Nội, Vietnam","lat":21.0353131,"lon":105.8210969,"add":"269A P. Đội Cấn","ward":"Ngọc Hồ","dist":"Ba Đình","province":"Hà Nội, Vietnam"},{"id":"0x3135ab914f5ae441:0xfad2371a108d42e7","tel":"+84 776 256 225","spa":"Nhà Nàng Relax Linh Lang","name":"Nhà Nàng Relax Linh Lang, Ng. 53 Phố Trần Quốc Hoàn/24 P. Linh Lang, Cống Vị, Ba Đình, Hà Nội 11108, Vietnam","name2":"Nhà Nàng Relax Linh Lang, Ng. 53 Phố Trần Quốc Hoàn/24 P. Linh Lang, Cống Vị, Ba Đình, Hà Nội 11108, Vietnam","lat":21.033972,"lon":105.810814,"add":"Ng. 53 Phố Trần Quốc Hoàn/24 P. Linh Lang","ward":"Cống Vị","dist":"Ba Đình","province":"Hà Nội 11108, Vietnam"},{"id":"0x3135ab4a70ac8025:0x7fee85c9d65c805d","tel":"+84 942 266 233","spa":"Ciao Spa","name":"Ciao Spa, 259 P. Kim Mã, Kim Mã, Ba Đình, Hà Nội, Vietnam","name2":"Ciao Spa, 259 P. Kim Mã, Kim Mã, Ba Đình, Hà Nội, Vietnam","lat":21.0310988,"lon":105.8222042,"add":"259 P. Kim Mã","ward":"Kim Mã","dist":"Ba Đình","province":"Hà Nội, Vietnam"},{"id":"0x3135ab3dee0e48a1:0x6c2f3f89c62ef2a6","tel":"+84 862 605 603","spa":"Shop bao cao su chính hãng Hà Nội","name":"Shop bao cao su chính hãng Hà Nội, 11 Ng. 130 P. Đốc Ngữ, Vĩnh Phú, Ba Đình, Hà Nội, Vietnam","name2":"Shop bao cao su chính hãng Hà Nội, 11 Ng. 130 P. Đốc Ngữ, Vĩnh Phú, Ba Đình, Hà Nội, Vietnam","lat":21.038682599999998,"lon":105.81236919999999,"add":"11 Ng. 130 P. Đốc Ngữ","ward":"Vĩnh Phú","dist":"Ba Đình","province":"Hà Nội, Vietnam"},{"id":"0x3135ab8be7d25c1b:0x86188690085b279b","tel":"+84 949 969 323","spa":"Hills Spa & Beauty Nguyễn Văn Huyên","name":"Hills Spa & Beauty Nguyễn Văn Huyên, 37 Đ. Nguyễn Văn Huyên, Quan Hoa, Cầu Giấy, Hà Nội 122001, Vietnam","name2":"Hills Spa & Beauty Nguyễn Văn Huyên, 37 Đ. Nguyễn Văn Huyên, Quan Hoa, Cầu Giấy, Hà Nội 122001, Vietnam","lat":21.035888999999997,"lon":105.7979994,"add":"37 Đ. Nguyễn Văn Huyên","ward":"Quan Hoa","dist":"Cầu Giấy","province":"Hà Nội 122001, Vietnam"},{"id":"0x3135ab93e5349a15:0xc3c37bed6fd5efb","tel":"+84 703 004 277","spa":"Spa","name":"Spa, 12 P. Bát Sứ, Hàng Bồ, Hoàn Kiếm, Hà Nội 11010, Vietnam","name2":"Spa, 12 P. Bát Sứ, Hàng Bồ, Hoàn Kiếm, Hà Nội 11010, Vietnam","lat":21.0351777,"lon":105.8474518,"add":"12 P. Bát Sứ","ward":"Hàng Bồ","dist":"Hoàn Kiếm","province":"Hà Nội 11010, Vietnam"},{"id":"0x313455c91151d8e1:0xa550fee898f6e7e7","tel":"+84 833 476 688","spa":"Ayla Spa Classic Hanoi","name":"Ayla Spa Classic Hanoi, Nhà A7 khu Fivestar Mỹ Đình, phường Mỹ Đình 1, Quận Nam Từ Liêm, Hà Nội, Hà Nội 10000, Vietnam","name2":"Ayla Spa Classic Hanoi, Nhà A7 khu Fivestar Mỹ Đình, phường Mỹ Đình 1, Quận Nam Từ Liêm, Hà Nội, Hà Nội 10000, Vietnam","lat":21.0182192,"lon":105.77571789999999,"add":"Nhà A7 khu Fivestar Mỹ Đình, phường Mỹ Đình 1, Quận Nam Từ Liêm, Hà Nội","ward":"Hà Nội 10000","dist":"Vietnam"},{"id":"0x3135ab3a4a68d981:0x46f8dac40e38f5fd","tel":"+84 865 606 723","spa":"Gội đầu dưỡng sinh - spa Phù Dương Thang","name":"Gội đầu dưỡng sinh - spa Phù Dương Thang, 186 P. Phan Kế Bính, Cống Vị, Ba Đình, Hà Nội 100000, Vietnam","name2":"Gội đầu dưỡng sinh - spa Phù Dương Thang, 186 P. Phan Kế Bính, Cống Vị, Ba Đình, Hà Nội 100000, Vietnam","lat":21.0368156,"lon":105.807588,"add":"186 P. Phan Kế Bính","ward":"Cống Vị","dist":"Ba Đình","province":"Hà Nội 100000, Vietnam"},{"id":"0x313455f22ca73c8d:0x976f5df060133022","tel":"+84 931 786 111","spa":"Mộc Spa & Wellness","name":"Mộc Spa & Wellness, P. Trần Văn Lai, Mỹ Đình, Từ Liêm, Hà Nội, Vietnam","name2":"Mộc Spa & Wellness, P. Trần Văn Lai, Mỹ Đình, Từ Liêm, Hà Nội, Vietnam","lat":21.015117099999998,"lon":105.7746519,"add":"P. Trần Văn Lai","ward":"Mỹ Đình","dist":"Từ Liêm","province":"Hà Nội, Vietnam"},{"id":"0x3135ab74559cb0f5:0xa2dc89b4a6cecaf5","tel":"+84 24 3736 5566","spa":"Spa Zennova","name":"Spa Zennova, 113 Ng. Núi Trúc, Kim Mã, Ba Đình, Hà Nội, Vietnam","name2":"Spa Zennova, 113 Ng. Núi Trúc, Kim Mã, Ba Đình, Hà Nội, Vietnam","lat":21.0301129,"lon":105.8258535,"add":"113 Ng. Núi Trúc","ward":"Kim Mã","dist":"Ba Đình","province":"Hà Nội, Vietnam"},{"id":"0x3135abb03206b801:0x8cbf229a8f5fd468","tel":"+84 979 040 998","spa":"Warda Spa Organic - Massage body and Facial skin care","name":"Warda Spa Organic - Massage body and Facial skin care, 106A2 P. Lạc Chính, Trúc Bạch, Ba Đình, Hà Nội 118800, Vietnam","name2":"Warda Spa Organic - Massage body and Facial skin care, 106A2 P. Lạc Chính, Trúc Bạch, Ba Đình, Hà Nội 118800, Vietnam","lat":21.0456188,"lon":105.84148719999999,"add":"106A2 P. Lạc Chính","ward":"Trúc Bạch","dist":"Ba Đình","province":"Hà Nội 118800, Vietnam"},{"id":"0x3135abf81f8568c9:0xe68d6dcf418e2869","tel":"+84 938 161 016","spa":"3am D'spa Quan Hoa","name":"3am D'spa Quan Hoa, 78 Phố Chùa Hà, Dịch Vọng, Cầu Giấy, Hà Nội, Vietnam","name2":"3am D'spa Quan Hoa, 78 Phố Chùa Hà, Dịch Vọng, Cầu Giấy, Hà Nội, Vietnam","lat":21.0380914,"lon":105.80597139999999,"add":"78 Phố Chùa Hà","ward":"Dịch Vọng","dist":"Cầu Giấy","province":"Hà Nội, Vietnam"},{"id":"0x3134550a0ecc17e5:0x5e6475bc05652bc2","tel":"+84 949 722 621","spa":"Ivy Spa","name":"Ivy Spa, BT1, Biệt Thự 02, Khu đô thị Resco, Bắc Từ Liêm, Hà Nội 10000, Vietnam","name2":"Ivy Spa, BT1, Biệt Thự 02, Khu đô thị Resco, Bắc Từ Liêm, Hà Nội 10000, Vietnam","lat":21.0662002,"lon":105.7811059,"add":"BT1, Biệt Thự 02","ward":"Khu đô thị Resco","dist":"Bắc Từ Liêm","province":"Hà Nội 10000, Vietnam"},{"id":"0x313454be90584183:0x75acde08f88f5d7c","tel":"+84 24 3556 4299","spa":"Spa Thu Hương","name":"Spa Thu Hương, ngõ 68 P. Lưu Hữu Phước, khu đô thị, Nam Từ Liêm, Hà Nội, Vietnam","name2":"Spa Thu Hương, ngõ 68 P. Lưu Hữu Phước, khu đô thị, Nam Từ Liêm, Hà Nội, Vietnam","lat":21.0341399,"lon":105.7622112,"add":"ngõ 68 P. Lưu Hữu Phước","ward":"khu đô thị","dist":"Nam Từ Liêm","province":"Hà Nội, Vietnam"},{"id":"0x3135abb048ee3063:0x71c1fb0e82f52aaa","tel":"+84 24 3513 2222","spa":"La Sante Hotel & Spa","name":"La Sante Hotel & Spa, 42 P. Châu Long, Trúc Bạch, Ba Đình, Hà Nội 100000, Vietnam","name2":"La Sante Hotel & Spa, 42 P. Châu Long, Trúc Bạch, Ba Đình, Hà Nội 100000, Vietnam","lat":21.0453339,"lon":105.8424369,"add":"42 P. Châu Long","ward":"Trúc Bạch","dist":"Ba Đình","province":"Hà Nội 100000, Vietnam"},{"id":"0x313454b11444e983:0xa71dd84b69150f6a","tel":"+84 24 8587 8010","spa":"Sen Spa Mỹ Đình","name":"Sen Spa Mỹ Đình, 32 Đ. Mỹ Đình, Mỹ Đình, Từ Liêm, Hà Nội, Vietnam","name2":"Sen Spa Mỹ Đình, 32 Đ. Mỹ Đình, Mỹ Đình, Từ Liêm, Hà Nội, Vietnam","lat":21.0301494,"lon":105.77415839999999,"add":"32 Đ. Mỹ Đình","ward":"Mỹ Đình","dist":"Từ Liêm","province":"Hà Nội, Vietnam"},{"id":"0x3135ab0889294079:0xd8cb5c09544155fd","tel":"+84 888 868 681","spa":"AnCharm Spa","name":"AnCharm Spa, 98 Đ. Nguyễn Khánh Toàn, Quan Hoa, Cầu Giấy, Hà Nội, Vietnam","name2":"AnCharm Spa, 98 Đ. Nguyễn Khánh Toàn, Quan Hoa, Cầu Giấy, Hà Nội, Vietnam","lat":21.0373488,"lon":105.8017361,"add":"98 Đ. Nguyễn Khánh Toàn","ward":"Quan Hoa","dist":"Cầu Giấy","province":"Hà Nội, Vietnam"},{"id":"0x3135ab80e291d091:0x1b88ea726c621081","tel":"+84 24 3829 2025","spa":"Hanoi Rose Beauty Spa","name":"Hanoi Rose Beauty Spa, 97c P. Nguyễn Trường Tộ, Quán Thánh, Ba Đình, Hà Nội, Vietnam","name2":"Hanoi Rose Beauty Spa, 97c P. Nguyễn Trường Tộ, Quán Thánh, Ba Đình, Hà Nội, Vietnam","lat":21.0431439,"lon":105.84351389999999,"add":"97c P. Nguyễn Trường Tộ","ward":"Quán Thánh","dist":"Ba Đình","province":"Hà Nội, Vietnam"},{"id":"0x313455fad5ca95a7:0x42609a67488bff3b","tel":"+84 839 158 688","spa":"AMELY - Lê Đức Thọ (CS3)","name":null,"name2":null,"lat":20.973675099999998,"lon":105.65267589999999},{"id":"0x313455e04517c9cf:0x3978c40f60c23661","tel":"+84 372 656 757","spa":"GINA Beauty Spa - 187 Mai Dịch","name":"GINA Beauty Spa - 187 Mai Dịch, 187 P. Mai Dịch, Mai Dịch, Cầu Giấy, Hà Nội, Vietnam","name2":"GINA Beauty Spa - 187 Mai Dịch, 187 P. Mai Dịch, Mai Dịch, Cầu Giấy, Hà Nội, Vietnam","lat":21.0410659,"lon":105.77473359999999,"add":"187 P. Mai Dịch","ward":"Mai Dịch","dist":"Cầu Giấy","province":"Hà Nội, Vietnam"},{"id":"0x31345560ad909fed:0xe015415480fbd4ec","tel":"+84 989 997 843","spa":"HB Spa - Hàm Nghi (Dưỡng Sinh & Thủ Đạo Thang)","name":"HB Spa - Hàm Nghi (Dưỡng Sinh & Thủ Đạo Thang), B2-17 Hàm Nghi, Cầu Diễn, Nam Từ Liêm, Cầu Giấy, Hà Nội Hà Nội, Hanoi City, 10000, Vietnam","name2":"HB Spa - Hàm Nghi (Dưỡng Sinh & Thủ Đạo Thang), B2-17 Hàm Nghi, Cầu Diễn, Nam Từ Liêm, Cầu Giấy, Hà Nội Hà Nội, Hanoi City, 10000, Vietnam","lat":21.0363109,"lon":105.76174239999999,"add":"B2-17 Hàm Nghi, Cầu Diễn, Nam Từ Liêm, Cầu Giấy, Hà Nội Hà Nội","ward":"Hanoi City","dist":"10000","province":"Vietnam"},{"id":"0x313455cd0b313335:0x71dc2f148e3311f6","tel":"+84 869 833 868","spa":"AnRose Spa Vinhomes","name":"AnRose Spa Vinhomes, B2-01 Vinhomes Gardenia, P. Hàm Nghi, Cầu Diễn, Từ Liêm, Hà Nội, Vietnam","name2":"AnRose Spa Vinhomes, B2-01 Vinhomes Gardenia, P. Hàm Nghi, Cầu Diễn, Từ Liêm, Hà Nội, Vietnam","lat":21.0362133,"lon":105.7612118,"add":"B2-01 Vinhomes Gardenia, P. Hàm Nghi","ward":"Cầu Diễn","dist":"Từ Liêm","province":"Hà Nội, Vietnam"},{"id":"0x3135abc0684f803b:0x39ed8685d513c810","tel":"+84 916 362 368","spa":"Hanoi Serene Spa","name":"Hanoi Serene Spa, 68 P. Mã Mây, Hàng Buồm, Hoàn Kiếm, Hà Nội 100000, Vietnam","name2":"Hanoi Serene Spa, 68 P. Mã Mây, Hàng Buồm, Hoàn Kiếm, Hà Nội 100000, Vietnam","lat":21.0347922,"lon":105.8533442,"add":"68 P. Mã Mây","ward":"Hàng Buồm","dist":"Hoàn Kiếm","province":"Hà Nội 100000, Vietnam"},{"id":"0x3135ab96f06c1f7d:0x521379f426901e31","tel":"+84 986 275 739","spa":"Indigo Spa","name":"Indigo Spa, 39C P. Thợ Nhuộm, Cửa Nam, Hoàn Kiếm, Hà Nội, Vietnam","name2":"Indigo Spa, 39C P. Thợ Nhuộm, Cửa Nam, Hoàn Kiếm, Hà Nội, Vietnam","lat":21.027712599999997,"lon":105.8444968,"add":"39C P. Thợ Nhuộm","ward":"Cửa Nam","dist":"Hoàn Kiếm","province":"Hà Nội, Vietnam"},{"id":"0x313455b88a75dff3:0x21c11fe551248f3","tel":"+84 945 456 886","spa":"Spa Dưỡng Tâm mv beauty Mỹ Đình","name":"Spa Dưỡng Tâm mv beauty Mỹ Đình, shophouse vinhome gardenia, lô TT 05/08 P. Hàm Nghi, Mỹ Đình, Hà nội, Hà Nội, Vietnam","name2":"Spa Dưỡng Tâm mv beauty Mỹ Đình, shophouse vinhome gardenia, lô TT 05/08 P. Hàm Nghi, Mỹ Đình, Hà nội, Hà Nội, Vietnam","lat":21.0366568,"lon":105.7620012,"add":"shophouse vinhome gardenia, lô TT 05/08 P. Hàm Nghi","ward":"Mỹ Đình","dist":"Hà nội","province":"Hà Nội, Vietnam"},{"id":"0x3135ab53967cb027:0x7a1a1b24ebf90bcd","tel":"+84 965 830 890","spa":"SalonHero.vn - Phần mềm quản lý Spa & Salon Hair Nail online Chuyên nghiệp","name":"SalonHero.vn - Phần mềm quản lý Spa & Salon Hair Nail online Chuyên nghiệp, toà nhà Sông Đà, tháp A/18 Phạm Hùng, Mỹ Đình, Hanoi City, Hà Nội 100000, Vietnam","name2":"SalonHero.vn - Phần mềm quản lý Spa & Salon Hair Nail online Chuyên nghiệp, toà nhà Sông Đà, tháp A/18 Phạm Hùng, Mỹ Đình, Hanoi City, Hà Nội 100000, Vietnam","lat":21.0293571,"lon":105.7785366,"add":"toà nhà Sông Đà, tháp A/18 Phạm Hùng","ward":"Mỹ Đình","dist":"Hanoi City","province":"Hà Nội 100000, Vietnam"},{"id":"0x3134553a29c13333:0xd20b99a3389c98a9","tel":"+84 946 817 777","spa":"Phú Xuân Spa","name":"Phú Xuân Spa, TT02 P. Hàm Nghi, Mỹ Đình, Nam Từ Liêm, Hà Nội 70000, Vietnam","name2":"Phú Xuân Spa, TT02 P. Hàm Nghi, Mỹ Đình, Nam Từ Liêm, Hà Nội 70000, Vietnam","lat":21.0356602,"lon":105.76754969999999,"add":"TT02 P. Hàm Nghi","ward":"Mỹ Đình","dist":"Nam Từ Liêm","province":"Hà Nội 70000, Vietnam"},{"id":"0x3135ab32ca0f5955:0xa36dc036554bb3d3","tel":"+84 869 218 694","spa":"Spa Đông Y PHỐ XƯA","name":"Spa Đông Y PHỐ XƯA, 6 P. Châu Long, Trúc Bạch, Ba Đình, Hà Nội 100000, Vietnam","name2":"Spa Đông Y PHỐ XƯA, 6 P. Châu Long, Trúc Bạch, Ba Đình, Hà Nội 100000, Vietnam","lat":21.0463094,"lon":105.8426645,"add":"6 P. Châu Long","ward":"Trúc Bạch","dist":"Ba Đình","province":"Hà Nội 100000, Vietnam"},{"id":"0x313455f32d897ed1:0xe42a33efd8a382c2","tel":"+84 326 287 286","spa":"Kako Massage (Cơ sở 2)","name":"Kako Massage (Cơ sở 2), 22 Ng. 1 Đ. Đình Thôn, Mỹ Đình, Từ Liêm, Hà Nội 10000, Vietnam","name2":"Kako Massage (Cơ sở 2), 22 Ng. 1 Đ. Đình Thôn, Mỹ Đình, Từ Liêm, Hà Nội 10000, Vietnam","lat":21.0206831,"lon":105.77912049999999,"add":"22 Ng. 1 Đ. Đình Thôn","ward":"Mỹ Đình","dist":"Từ Liêm","province":"Hà Nội 10000, Vietnam"},{"id":"0x313454ba26eda2ff:0x6bb8f4c9de96dfb5","tel":"+84 24 3787 0769","spa":"Ruby Time Spa","name":"2QJ9+X97 Ruby Time Spa, P. Cao Xuân Huy, Mỹ Đình, Từ Liêm, Hà Nội, Vietnam","name2":"2QJ9+X97 Ruby Time Spa, P. Cao Xuân Huy, Mỹ Đình, Từ Liêm, Hà Nội, Vietnam","lat":21.0324216,"lon":105.7684297,"add":"2QJ9+X97, P. Cao Xuân Huy","ward":"Mỹ Đình","dist":"Từ Liêm","province":"Hà Nội, Vietnam"},{"id":"0x3135aca30377a44b:0xc2ce3f3fe016cc82","tel":"+84 24 3853 3999","spa":"Huong Sen Healthcare Center","name":"Huong Sen Healthcare Center, Cổng số 5, Làng sinh viên Hacinco, Thanh Xuân, 10000, Vietnam","name2":"Huong Sen Healthcare Center, Cổng số 5, Làng sinh viên Hacinco, Thanh Xuân, 10000, Vietnam","lat":21.0022385,"lon":105.80262429999999,"add":"Cổng số 5","ward":"Làng sinh viên Hacinco","dist":"Thanh Xuân","province":"10000, Vietnam"},{"id":"0x3135ab4a0db3f3a1:0xfdf59012239f64ed","tel":"+84 1900 3119","spa":"Spa Thành Nguyễn Skin","name":"Spa Thành Nguyễn Skin, 1 P. Trần Quốc Vượng, Dịch Vọng Hậu, Cầu Giấy, Hà Nội 100000, Vietnam","name2":"Spa Thành Nguyễn Skin, 1 P. Trần Quốc Vượng, Dịch Vọng Hậu, Cầu Giấy, Hà Nội 100000, Vietnam","lat":21.0361633,"lon":105.78678819999999,"add":"1 P. Trần Quốc Vượng","ward":"Dịch Vọng Hậu","dist":"Cầu Giấy","province":"Hà Nội 100000, Vietnam"},{"id":"0x313455a4ac7e72d9:0x37255703383a7ad0","tel":"+84 962 185 855","spa":"GoodCare Spa - Massage bầu & chăm sóc sau sinh và tắm cho bé","name":"GoodCare Spa - Massage bầu & chăm sóc sau sinh và tắm cho bé, 202 A1 - An Bình City, 232 Phạm Văn Đồng, Khu đô thị Thành phố Giao lưu, Cầu Giấy, Hà Nội, Vietnam","name2":"GoodCare Spa - Massage bầu & chăm sóc sau sinh và tắm cho bé, 202 A1 - An Bình City, 232 Phạm Văn Đồng, Khu đô thị Thành phố Giao lưu, Cầu Giấy, Hà Nội, Vietnam","lat":21.0497978,"lon":105.7806538,"add":"202 A1 - An Bình City, 232 Phạm Văn Đồng","ward":"Khu đô thị Thành phố Giao lưu","dist":"Cầu Giấy","province":"Hà Nội, Vietnam"},{"id":"0x3135abffb0f5f783:0x8d3ee37c1a613af4","tel":"+84 353 461 742","spa":"Minh Nguyễn Spa chuyên mỹ phẩm hàng xách tay","name":"Minh Nguyễn Spa chuyên mỹ phẩm hàng xách tay, Ngõ 7 P. Kim Mã Thượng, Cống Vị, Ba Đình, Hà Nội 10000, Vietnam","name2":"Minh Nguyễn Spa chuyên mỹ phẩm hàng xách tay, Ngõ 7 P. Kim Mã Thượng, Cống Vị, Ba Đình, Hà Nội 10000, Vietnam","lat":21.0357953,"lon":105.81365679999999,"add":"Ngõ 7 P. Kim Mã Thượng","ward":"Cống Vị","dist":"Ba Đình","province":"Hà Nội 10000, Vietnam"},{"id":"0x3135ab8991c68c71:0x425a46838f0c68f3","tel":"+84 833 335 522","spa":"Dr Tháp Long Căng Chỉ","name":"Dr Tháp Long Căng Chỉ, 4 P. Liễu Giai, Cống Vị, Ba Đình, Hà Nội 100000, Vietnam","name2":"Dr Tháp Long Căng Chỉ, 4 P. Liễu Giai, Cống Vị, Ba Đình, Hà Nội 100000, Vietnam","lat":21.0368918,"lon":105.81442159999999,"add":"4 P. Liễu Giai","ward":"Cống Vị","dist":"Ba Đình","province":"Hà Nội 100000, Vietnam"},{"id":"0x3135ab3096408669:0x573911f8f3d35e6c","tel":null,"spa":"Massage 27 Pham Hong Thai","name":"Massage 27 Pham Hong Thai, 27 P. Phạm Hồng Thái, Trúc Bạch, Ba Đình, Hà Nội 10000, Vietnam","name2":"Massage 27 Pham Hong Thai, 27 P. Phạm Hồng Thái, Trúc Bạch, Ba Đình, Hà Nội 10000, Vietnam","lat":21.0436092,"lon":105.8448896,"add":"27 P. Phạm Hồng Thái","ward":"Trúc Bạch","dist":"Ba Đình","province":"Hà Nội 10000, Vietnam"},{"id":"0x3135abac28b3a165:0xd14e2e5013cdd7a0","tel":"+84 968 161 916","spa":"CHĂM SÓC MẸ BÉ HOÀNG GIA - SPA MẸ BẦU, SAU SINH TẮM BÉ TẠI NHÀ","name":"CHĂM SÓC MẸ BÉ HOÀNG GIA - SPA MẸ BẦU, SAU SINH TẮM BÉ TẠI NHÀ, 141 Đ. Hoàng Hoa Thám, Ngọc Hồ, Ba Đình, Hà Nội 700000, Vietnam","name2":"CHĂM SÓC MẸ BÉ HOÀNG GIA - SPA MẸ BẦU, SAU SINH TẮM BÉ TẠI NHÀ, 141 Đ. Hoàng Hoa Thám, Ngọc Hồ, Ba Đình, Hà Nội 700000, Vietnam","lat":21.040408199999998,"lon":105.82520769999999,"add":"141 Đ. Hoàng Hoa Thám","ward":"Ngọc Hồ","dist":"Ba Đình","province":"Hà Nội 700000, Vietnam"},{"id":"0x4f9f7139e988387b:0xf013020e494685dd","tel":"+84 969 169 269","spa":"Kai Tong Spa","name":null,"name2":null,"lat":21.043722499999998,"lon":105.7830915},{"id":"0x313455a816d8ed67:0xbdff0dd11d5d4f0","tel":"+84 983 857 398","spa":"Phúc Anh Spa","name":"Phúc Anh Spa, Khu đô thị Thành phố Giao lưu, Từ Liêm, Hà Nội, Vietnam","name2":"Phúc Anh Spa, Khu đô thị Thành phố Giao lưu, Từ Liêm, Hà Nội, Vietnam","lat":21.049142699999997,"lon":105.7790581,"add":"Khu đô thị Thành phố Giao lưu","ward":"Từ Liêm","dist":"Hà Nội","province":"Vietnam"},{"id":"0x8225dfb9e176ebd:0x8a7ed0cc1ef5add7","tel":"+84 844 426 444","spa":"Bemo Clinic - Thẩm Mỹ Da Liễu","name":null,"name2":null,"lat":15.793925199999999,"lon":105.91025889999999},{"id":"0x3135ab1f6bc6c9ed:0xea5b90490463444","tel":"+84 707 037 505","spa":"Gội đầu dưỡng sinh Mudra House","name":"Gội đầu dưỡng sinh Mudra House, 28N P. Phạm Hồng Thái, Trúc Bạch, Ba Đình, Hà Nội 000084, Vietnam","name2":"Gội đầu dưỡng sinh Mudra House, 28N P. Phạm Hồng Thái, Trúc Bạch, Ba Đình, Hà Nội 000084, Vietnam","lat":21.043715199999998,"lon":105.8447156,"add":"28N P. Phạm Hồng Thái","ward":"Trúc Bạch","dist":"Ba Đình","province":"Hà Nội 000084, Vietnam"},{"id":"0x3135ab00bdd7c2c7:0xad6d43863bb349b5","tel":"+84 901 523 866","spa":"Alisa Bella Spa - Foot massage, Body massage, Facial care","name":"Alisa Bella Spa - Foot massage, Body massage, Facial care, 02-04 P. Mã Mây, Hàng Buồm, Hoàn Kiếm, Hà Nội 10000, Vietnam","name2":"Alisa Bella Spa - Foot massage, Body massage, Facial care, 02-04 P. Mã Mây, Hàng Buồm, Hoàn Kiếm, Hà Nội 10000, Vietnam","lat":21.035933999999997,"lon":105.8529561,"add":"02-04 P. Mã Mây","ward":"Hàng Buồm","dist":"Hoàn Kiếm","province":"Hà Nội 10000, Vietnam"},{"id":"0x31345434cb322ebb:0x4baa2a30a6ba112","tel":null,"spa":"Ngọc Hà Skin Care & Spa","name":"Ngọc Hà Skin Care & Spa, 267 Đ. Hồ Tùng Mậu, Cầu Diễn, Nam Từ Liêm, Hà Nội 129000, Vietnam","name2":"Ngọc Hà Skin Care & Spa, 267 Đ. Hồ Tùng Mậu, Cầu Diễn, Nam Từ Liêm, Hà Nội 129000, Vietnam","lat":21.0407732,"lon":105.76203029999999,"add":"267 Đ. Hồ Tùng Mậu","ward":"Cầu Diễn","dist":"Nam Từ Liêm","province":"Hà Nội 129000, Vietnam"},{"id":"0x3135ab5c81b78e93:0x327992674bb731c8","tel":"+84 24 3633 1555","spa":"Pure Bliss Spa","name":"Pure Bliss Spa, 5 P. Hàng Bè, Hàng Bạc, Hoàn Kiếm, Hà Nội, Vietnam","name2":"Pure Bliss Spa, 5 P. Hàng Bè, Hàng Bạc, Hoàn Kiếm, Hà Nội, Vietnam","lat":21.0335681,"lon":105.85389669999999,"add":"5 P. Hàng Bè","ward":"Hàng Bạc","dist":"Hoàn Kiếm","province":"Hà Nội, Vietnam"},{"id":"0x3134555f18d63515:0x1a99ea15602fd827","tel":"+84 961 722 288","spa":"Thảo Ngọc Spa - Thẩm Mỹ Công Nghệ Cao","name":"Thảo Ngọc Spa - Thẩm Mỹ Công Nghệ Cao, Toà Golden Field, 24 P. Nguyễn Cơ Thạch, Mỹ Đình, Nam Từ Liêm, Hà Nội 100000, Vietnam","name2":"Thảo Ngọc Spa - Thẩm Mỹ Công Nghệ Cao, Toà Golden Field, 24 P. Nguyễn Cơ Thạch, Mỹ Đình, Nam Từ Liêm, Hà Nội 100000, Vietnam","lat":21.0349689,"lon":105.7656518,"add":"Toà Golden Field, 24 P. Nguyễn Cơ Thạch","ward":"Mỹ Đình","dist":"Nam Từ Liêm","province":"Hà Nội 100000, Vietnam"},{"id":"0x3135ab38b0bfa2cb:0x8cd1a9b1a34b5db9","tel":"+84 966 734 999","spa":"Laluong Beauty | Mỹ Phẩm - SPA - Makeup","name":"Laluong Beauty | Mỹ Phẩm - SPA - Makeup, 58 Ngõ 401 Xuân Đỉnh, Xuân Đỉnh, Bắc Từ Liêm, Hà Nội, Vietnam","name2":"Laluong Beauty | Mỹ Phẩm - SPA - Makeup, 58 Ngõ 401 Xuân Đỉnh, Xuân Đỉnh, Bắc Từ Liêm, Hà Nội, Vietnam","lat":21.072163699999997,"lon":105.78763839999999,"add":"58 Ngõ 401 Xuân Đỉnh","ward":"Xuân Đỉnh","dist":"Bắc Từ Liêm","province":"Hà Nội, Vietnam"},{"id":"0x313455896569d3d1:0x8e366edb01751cad","tel":"+84 366 142 530","spa":"Mai Hạnh beauty spa","name":"Mai Hạnh beauty spa, 55 Đ. Văn Tiến Dũng, Phúc Diễn, Từ Liêm, Hà Nội, Vietnam","name2":"Mai Hạnh beauty spa, 55 Đ. Văn Tiến Dũng, Phúc Diễn, Từ Liêm, Hà Nội, Vietnam","lat":21.0496814,"lon":105.74898119999999,"add":"55 Đ. Văn Tiến Dũng","ward":"Phúc Diễn","dist":"Từ Liêm","province":"Hà Nội, Vietnam"},{"id":"0x3135ab543ece0373:0x5d20b3d4fe90b46d","tel":"+84 972 643 333","spa":"Cannes Beauty & Clinic","name":"Cannes Beauty & Clinic, 278 P. Đội Cấn, Cống Vị, Ba Đình, Hà Nội, Vietnam","name2":"Cannes Beauty & Clinic, 278 P. Đội Cấn, Cống Vị, Ba Đình, Hà Nội, Vietnam","lat":21.037745599999997,"lon":105.81355719999999,"add":"278 P. Đội Cấn","ward":"Cống Vị","dist":"Ba Đình","province":"Hà Nội, Vietnam"},{"id":"0x3135ab401bca5fd7:0x78560ab1e69782b5","tel":"+84 919 599 396","spa":"Salon MEDISA","name":"Salon MEDISA, 96 P. Đào Tấn, Ngọc Khánh, Ba Đình, Hà Nội, Vietnam","name2":"Salon MEDISA, 96 P. Đào Tấn, Ngọc Khánh, Ba Đình, Hà Nội, Vietnam","lat":21.0336991,"lon":105.80631149999999,"add":"96 P. Đào Tấn","ward":"Ngọc Khánh","dist":"Ba Đình","province":"Hà Nội, Vietnam"},{"id":"0x3135ab58b4daaa21:0x5a36aef709238f08","tel":"+84 24 3784 4466","spa":"Massage Tắm Lá Người Dao III 57trung kính","name":"Massage Tắm Lá Người Dao III 57trung kính, 57 P. Trung Kính, Trung Hoà, Cầu Giấy, Hà Nội, Vietnam","name2":"Massage Tắm Lá Người Dao III 57trung kính, 57 P. Trung Kính, Trung Hoà, Cầu Giấy, Hà Nội, Vietnam","lat":21.0133875,"lon":105.7996964,"add":"57 P. Trung Kính","ward":"Trung Hoà","dist":"Cầu Giấy","province":"Hà Nội, Vietnam"},{"id":"0x3135bb0af8ac4fb3:0x79bbc6dbccf61f8a","tel":"+84 346 746 993","spa":"Hanoi Massage Review","name":"Hanoi Massage Review, 266 P. Đội Cấn, Cống Vị, Ba Đình, Hà Nội, Vietnam","name2":"Hanoi Massage Review, 266 P. Đội Cấn, Cống Vị, Ba Đình, Hà Nội, Vietnam","lat":21.0375546,"lon":105.8139973,"add":"266 P. Đội Cấn","ward":"Cống Vị","dist":"Ba Đình","province":"Hà Nội, Vietnam"},{"id":"0x3135ad5b13f4685b:0xd76dfc78acfb1c2c","tel":"+84 847 703 388","spa":"Habeli Spa","name":"Habeli Spa, 169 Đ. Nguyễn Ngọc Vũ, Trung Hoà, Cầu Giấy, Hà Nội 100000, Vietnam","name2":"Habeli Spa, 169 Đ. Nguyễn Ngọc Vũ, Trung Hoà, Cầu Giấy, Hà Nội 100000, Vietnam","lat":21.012212299999998,"lon":105.8075162,"add":"169 Đ. Nguyễn Ngọc Vũ","ward":"Trung Hoà","dist":"Cầu Giấy","province":"Hà Nội 100000, Vietnam"},{"id":"0x3135ab03ec228d9b:0xdd1bac8f5ebc01e","tel":"+84 24 3333 1723","spa":"Evian spa","name":"Vietnam, Hà Nội, Ba Đình, Cống Vị, Lotte Center Hanoi Rd, Evian spa","name2":"Vietnam, Hà Nội, Ba Đình, Cống Vị, Lotte Center Hanoi Rd, Evian spa","lat":21.032190699999997,"lon":105.8128953,"add":"Vietnam, Hà Nội","ward":"Ba Đình","dist":"Cống Vị","province":"Lotte Center Hanoi Rd"},{"id":"0x3135ab4c57727bad:0x43bb2436928dab6","tel":"+84 787 100 001","spa":"Bella Beautyland","name":"Bella Beautyland, ngách 12/21 P. Đào Tấn, Cống Vị, Ba Đình, Hà Nội 10000, Vietnam","name2":"Bella Beautyland, ngách 12/21 P. Đào Tấn, Cống Vị, Ba Đình, Hà Nội 10000, Vietnam","lat":21.03335,"lon":105.8090775,"add":"ngách 12/21 P. Đào Tấn","ward":"Cống Vị","dist":"Ba Đình","province":"Hà Nội 10000, Vietnam"},{"id":"0x3135ab3425340f9b:0x6c85989d7aaabf22","tel":"+84 967 808 616","spa":"Tokyo Massage","name":"2RP4+W9Q Tokyo Massage, Quan Hoa, Cầu Giấy, Hà Nội, Vietnam","name2":"2RP4+W9Q Tokyo Massage, Quan Hoa, Cầu Giấy, Hà Nội, Vietnam","lat":21.0373429,"lon":105.80599819999999,"add":"2RP4+W9Q","ward":"Quan Hoa","dist":"Cầu Giấy","province":"Hà Nội, Vietnam"},{"id":"0x3135ab6c93daf045:0x2b74b07abd4d4c1c","tel":"+84 24 3267 6633","spa":"Menard Shop and Spa - Lotte","name":"Menard Shop and Spa - Lotte, 100000, Lotte Center HàNội, Tầng 1, TTTM, P. Đào Tấn, Cống Vị, Ba Đình, Hà Nội 100000, Vietnam","name2":"Menard Shop and Spa - Lotte, 100000, Lotte Center HàNội, Tầng 1, TTTM, P. Đào Tấn, Cống Vị, Ba Đình, Hà Nội 100000, Vietnam","lat":21.0321496,"lon":105.8123897,"add":"100000, Lotte Center HàNội, Tầng 1, TTTM, P. Đào Tấn","ward":"Cống Vị","dist":"Ba Đình","province":"Hà Nội 100000, Vietnam"},{"id":"0x313455b140d93d93:0xdc92ba54efb67461","tel":null,"spa":"Spa Khả Tú","name":"Spa Khả Tú, 76 Ng. 20 Đ. Mỹ Đình, Mỹ Đình, Từ Liêm, Hà Nội, Vietnam","name2":"Spa Khả Tú, 76 Ng. 20 Đ. Mỹ Đình, Mỹ Đình, Từ Liêm, Hà Nội, Vietnam","lat":21.0323986,"lon":105.7723577,"add":"76 Ng. 20 Đ. Mỹ Đình","ward":"Mỹ Đình","dist":"Từ Liêm","province":"Hà Nội, Vietnam"},{"id":"0x3135aba12bfaa5d9:0x7cf4b83b12509758","tel":"+84 901 330 223","spa":"Sorella Beauty Spa","name":"Sorella Beauty Spa, 15a Đ. Nguyễn Khang, Trung Hoà, Cầu Giấy, Hà Nội 100000, Vietnam","name2":"Sorella Beauty Spa, 15a Đ. Nguyễn Khang, Trung Hoà, Cầu Giấy, Hà Nội 100000, Vietnam","lat":21.015659499999998,"lon":105.8037935,"add":"15a Đ. Nguyễn Khang","ward":"Trung Hoà","dist":"Cầu Giấy","province":"Hà Nội 100000, Vietnam"},{"id":"0x3134559d83cc6e2b:0xe76553fa76bb4e59","tel":"+84 375 566 559","spa":"SAN MIRA Spa CS1","name":"SAN MIRA Spa CS1, Số nhà B4X3, Ngõ 44, ngách 33 P. Nguyễn Cơ Thạch, Nam Từ Liêm, Hà Nội, Vietnam","name2":"SAN MIRA Spa CS1, Số nhà B4X3, Ngõ 44, ngách 33 P. Nguyễn Cơ Thạch, Nam Từ Liêm, Hà Nội, Vietnam","lat":21.0306492,"lon":105.7619125,"add":"Số nhà B4X3, Ngõ 44","ward":"ngách 33 P. Nguyễn Cơ Thạch","dist":"Nam Từ Liêm","province":"Hà Nội, Vietnam"},{"id":"0x313455bfde03299d:0x1090c241a178ddef","tel":"+84 964 390 138","spa":"Luxi Spa- Trị Mụn Nám Số 1 Hà Nội","name":"Luxi Spa- Trị Mụn Nám Số 1 Hà Nội, 232 Phạm Văn Đồng, Khu đô thị Thành phố Giao lưu, Từ Liêm, Hà Nội, Vietnam","name2":"Luxi Spa- Trị Mụn Nám Số 1 Hà Nội, 232 Phạm Văn Đồng, Khu đô thị Thành phố Giao lưu, Từ Liêm, Hà Nội, Vietnam","lat":21.0502608,"lon":105.7773881,"add":"232 Phạm Văn Đồng","ward":"Khu đô thị Thành phố Giao lưu","dist":"Từ Liêm","province":"Hà Nội, Vietnam"},{"id":"0x3135ab0b16b2c2d5:0x54ff63b95b1e43d2","tel":null,"spa":"Spa Bảo Anh","name":"Spa Bảo Anh, 140 P. Đội Cấn, Đội Cấn, Ba Đình, Hà Nội, Vietnam","name2":"Spa Bảo Anh, 140 P. Đội Cấn, Đội Cấn, Ba Đình, Hà Nội, Vietnam","lat":21.0348582,"lon":105.82506289999999,"add":"140 P. Đội Cấn","ward":"Đội Cấn","dist":"Ba Đình","province":"Hà Nội, Vietnam"},{"id":"0x3135ab37256632e9:0xe657d5c7c6680a59","tel":"+84 964 114 128","spa":"FUJI SPA CENTER - NGOẠI GIAO ĐOÀN","name":"FUJI SPA CENTER - NGOẠI GIAO ĐOÀN, BT F11, Đ. Xuân Tảo, Khu Ngoại giao đoàn, Hà Nội 11908, Vietnam","name2":"FUJI SPA CENTER - NGOẠI GIAO ĐOÀN, BT F11, Đ. Xuân Tảo, Khu Ngoại giao đoàn, Hà Nội 11908, Vietnam","lat":21.063420999999998,"lon":105.79794009999999,"add":"BT F11","ward":"Đ. Xuân Tảo","dist":"Khu Ngoại giao đoàn","province":"Hà Nội 11908, Vietnam"},{"id":"0x31345566fc4962e5:0x9dd865b09fa4573d","tel":"+84 566 226 666","spa":"VÂN JANGMI BEAUTY & SPA","name":"VÂN JANGMI BEAUTY & SPA, Ngõ 9 Đ. Lê Đức Thọ, Mỹ Đình, Nam Từ Liêm, Hà Nội 101000, Vietnam","name2":"VÂN JANGMI BEAUTY & SPA, Ngõ 9 Đ. Lê Đức Thọ, Mỹ Đình, Nam Từ Liêm, Hà Nội 101000, Vietnam","lat":21.0349039,"lon":105.77049249999999,"add":"Ngõ 9 Đ. Lê Đức Thọ","ward":"Mỹ Đình","dist":"Nam Từ Liêm","province":"Hà Nội 101000, Vietnam"},{"id":"0x3135ab93053f9a4f:0xd414f6be13430d50","tel":"+84 886 727 860","spa":"Nhà Spa Vũ Phạm Hàm - Gội đầu dưỡng sinh & Chăm sóc da","name":"Nhà Spa Vũ Phạm Hàm - Gội đầu dưỡng sinh & Chăm sóc da, 3 P. Vũ Phạm Hàm, Trung Hoà, Cầu Giấy, Hà Nội, Vietnam","name2":"Nhà Spa Vũ Phạm Hàm - Gội đầu dưỡng sinh & Chăm sóc da, 3 P. Vũ Phạm Hàm, Trung Hoà, Cầu Giấy, Hà Nội, Vietnam","lat":21.0156429,"lon":105.7965548,"add":"3 P. Vũ Phạm Hàm","ward":"Trung Hoà","dist":"Cầu Giấy","province":"Hà Nội, Vietnam"},{"id":"0x31345583b7f8c859:0xd2ee7a07e108f048","tel":"+84 345 365 995","spa":"Lotus Spa","name":"Lotus Spa, 21 Ng. 97 P. Nguyễn Đổng Chi, Cầu Diễn, Hà Nội, Vietnam","name2":"Lotus Spa, 21 Ng. 97 P. Nguyễn Đổng Chi, Cầu Diễn, Hà Nội, Vietnam","lat":21.036373599999997,"lon":105.7645775,"add":"21 Ng. 97 P. Nguyễn Đổng Chi","ward":"Cầu Diễn","dist":"Hà Nội","province":"Vietnam"},{"id":"0x3135abb9f1da6069:0xdc55731a23a38d6c","tel":"+84 24 3927 4991","spa":"NQ Spa","name":"NQ Spa, 28 Hàng Than, Nguyễn Trung Trực, Ba Đình, Hà Nội, Vietnam","name2":"NQ Spa, 28 Hàng Than, Nguyễn Trung Trực, Ba Đình, Hà Nội, Vietnam","lat":21.041496199999997,"lon":105.84718889999999,"add":"28 Hàng Than","ward":"Nguyễn Trung Trực","dist":"Ba Đình","province":"Hà Nội, Vietnam"},{"id":"0x3134558d0a94e3ed:0xff1fad5584cc47a5","tel":"+84 345 195 586","spa":"Lotus Spa Hàm Nghi","name":"Lotus Spa Hàm Nghi, 19 P. Hàm Nghi, VinHomes Gardenia, Nam Từ Liêm, Hà Nội, Vietnam","name2":"Lotus Spa Hàm Nghi, 19 P. Hàm Nghi, VinHomes Gardenia, Nam Từ Liêm, Hà Nội, Vietnam","lat":21.036756999999998,"lon":105.76189869999999,"add":"19 P. Hàm Nghi","ward":"VinHomes Gardenia","dist":"Nam Từ Liêm","province":"Hà Nội, Vietnam"},{"id":"0x3135ad8103f06ec3:0x5c321941eacbc09a","tel":"+84 978 245 108","spa":"MASSAGE KHIẾM THỊ BRENDAN SPA","name":"MASSAGE KHIẾM THỊ BRENDAN SPA, 37A P. Hàng Bún, Nguyễn Trung Trực, Ba Đình, Hà Nội 100000, Vietnam","name2":"MASSAGE KHIẾM THỊ BRENDAN SPA, 37A P. Hàng Bún, Nguyễn Trung Trực, Ba Đình, Hà Nội 100000, Vietnam","lat":21.042087799999997,"lon":105.845254,"add":"37A P. Hàng Bún","ward":"Nguyễn Trung Trực","dist":"Ba Đình","province":"Hà Nội 100000, Vietnam"},{"id":"0x313455c21aec16f1:0x22cdaf086d15d847","tel":null,"spa":"LinhSan Spa","name":"LinhSan Spa, 82 P. Nguyễn Hoàng, Mỹ Đình, Hà Nội, 100000, Vietnam","name2":"LinhSan Spa, 82 P. Nguyễn Hoàng, Mỹ Đình, Hà Nội, 100000, Vietnam","lat":21.0328336,"lon":105.77309509999999,"add":"82 P. Nguyễn Hoàng","ward":"Mỹ Đình","dist":"Hà Nội","province":"100000, Vietnam"},{"id":"0x3135ab7c685b1173:0xbd54b16cf2c7623c","tel":"+84 989 563 229","spa":"VIỆN THẨM MỸ QUỐC TẾ RO’SA","name":"VIỆN THẨM MỸ QUỐC TẾ RO’SA, 7 Ng. 10 Đ. Nguyễn Văn Huyên, Dịch Vọng, Cầu Giấy, Hà Nội, Vietnam","name2":"VIỆN THẨM MỸ QUỐC TẾ RO’SA, 7 Ng. 10 Đ. Nguyễn Văn Huyên, Dịch Vọng, Cầu Giấy, Hà Nội, Vietnam","lat":21.037561699999998,"lon":105.79682369999999,"add":"7 Ng. 10 Đ. Nguyễn Văn Huyên","ward":"Dịch Vọng","dist":"Cầu Giấy","province":"Hà Nội, Vietnam"},{"id":"0x3135ab3d6322cb01:0xf4764d3d989d66fa","tel":"+84 943 044 855","spa":"Hiền Nhung Spa","name":"Hiền Nhung Spa, 42 P. Nguyễn Đình Hoàn, Nghĩa Đô, Cầu Giấy, Hà Nội, Vietnam","name2":"Hiền Nhung Spa, 42 P. Nguyễn Đình Hoàn, Nghĩa Đô, Cầu Giấy, Hà Nội, Vietnam","lat":21.044641499999997,"lon":105.805121,"add":"42 P. Nguyễn Đình Hoàn","ward":"Nghĩa Đô","dist":"Cầu Giấy","province":"Hà Nội, Vietnam"},{"id":"0x3135ab212a24af47:0x3f11d41f0b242055","tel":"+84 345 751 824","spa":"PURE DE SPA","name":"PURE DE SPA, 05 P. Phan Huy Ích, Nguyễn Trung Trực, Ba Đình, Hà Nội, Vietnam","name2":"PURE DE SPA, 05 P. Phan Huy Ích, Nguyễn Trung Trực, Ba Đình, Hà Nội, Vietnam","lat":21.0418472,"lon":105.84609859999999,"add":"05 P. Phan Huy Ích","ward":"Nguyễn Trung Trực","dist":"Ba Đình","province":"Hà Nội, Vietnam"},{"id":"0x3135ab15ff2c1d81:0x8318acf503abc1b7","tel":null,"spa":"Spa Dưỡng Sinh","name":"2RR4+37V Spa Dưỡng Sinh, P. Nguyễn Đình Hoàn, Nghĩa Đô, Cầu Giấy, Hà Nội, Vietnam","name2":"2RR4+37V Spa Dưỡng Sinh, P. Nguyễn Đình Hoàn, Nghĩa Đô, Cầu Giấy, Hà Nội, Vietnam","lat":21.040225799999998,"lon":105.80567939999999,"add":"2RR4+37V, P. Nguyễn Đình Hoàn","ward":"Nghĩa Đô","dist":"Cầu Giấy","province":"Hà Nội, Vietnam"},{"id":"0x3135acbf4110ad6f:0x864db4e6f9d5d811","tel":"+84 909 464 567","spa":"Mimoza Spa","name":"Mimoza Spa, Q, 172 P. Trần Bình, P, Nam Từ Liêm, Hà Nội, Vietnam","name2":"Mimoza Spa, Q, 172 P. Trần Bình, P, Nam Từ Liêm, Hà Nội, Vietnam","lat":21.029924899999997,"lon":105.7748305,"add":"Q, 172 P. Trần Bình","ward":"P","dist":"Nam Từ Liêm","province":"Hà Nội, Vietnam"},{"id":"0x3135ab146b76c5b1:0x3fd0727c4730cfaa","tel":"+84 24 7109 1345","spa":"Oanh Beauty Spa","name":"Oanh Beauty Spa, 51 P. Hàng Bún, Nguyễn Trung Trực, Ba Đình, Hà Nội, Vietnam","name2":"Oanh Beauty Spa, 51 P. Hàng Bún, Nguyễn Trung Trực, Ba Đình, Hà Nội, Vietnam","lat":21.0414934,"lon":105.84493739999999,"add":"51 P. Hàng Bún","ward":"Nguyễn Trung Trực","dist":"Ba Đình","province":"Hà Nội, Vietnam"},{"id":"0x3135abba0ae60bfd:0x3d76db69e70c93e0","tel":"+84 977 380 079","spa":"Anna Spa","name":"Anna Spa, 33 P. Hàng Bún, Trúc Bạch, Ba Đình, Hà Nội, Vietnam","name2":"Anna Spa, 33 P. Hàng Bún, Trúc Bạch, Ba Đình, Hà Nội, Vietnam","lat":21.0426091,"lon":105.8455073,"add":"33 P. Hàng Bún","ward":"Trúc Bạch","dist":"Ba Đình","province":"Hà Nội, Vietnam"},{"id":"0x3135abf6e77804fb:0x10c69fa0185bc363","tel":null,"spa":"Spa","name":"Spa, 97 P. Quan Hoa, Quan Hoa, Cầu Giấy, Hà Nội 100000, Vietnam","name2":"Spa, 97 P. Quan Hoa, Quan Hoa, Cầu Giấy, Hà Nội 100000, Vietnam","lat":21.0333874,"lon":105.8034897,"add":"97 P. Quan Hoa","ward":"Quan Hoa","dist":"Cầu Giấy","province":"Hà Nội 100000, Vietnam"},{"id":"0x3135abba741db86b:0x92daff6e5e3f45ce","tel":"+84 24 6650 9199","spa":"Adamas Spa & Clinic","name":"Adamas Spa & Clinic, 69 P. Nguyễn Trường Tộ, Nguyễn Trung Trực, Ba Đình, Hà Nội 100000, Vietnam","name2":"Adamas Spa & Clinic, 69 P. Nguyễn Trường Tộ, Nguyễn Trung Trực, Ba Đình, Hà Nội 100000, Vietnam","lat":21.0424537,"lon":105.84481059999999,"add":"69 P. Nguyễn Trường Tộ","ward":"Nguyễn Trung Trực","dist":"Ba Đình","province":"Hà Nội 100000, Vietnam"},{"id":"0x3135ab4138ae6177:0x36c88fccbfc3bedf","tel":"+84 339 366 156","spa":"Dưỡng Sinh Đông Y - Tâm Đức Spa","name":"Dưỡng Sinh Đông Y - Tâm Đức Spa, 9 ngõ 192 P. Quán Thánh, Quán Thánh, Ba Đình, Hà Nội 10000, Vietnam","name2":"Dưỡng Sinh Đông Y - Tâm Đức Spa, 9 ngõ 192 P. Quán Thánh, Quán Thánh, Ba Đình, Hà Nội 10000, Vietnam","lat":21.0428622,"lon":105.83796269999999,"add":"9 ngõ 192 P. Quán Thánh","ward":"Quán Thánh","dist":"Ba Đình","province":"Hà Nội 10000, Vietnam"},{"id":"0x3135abb9878c7f6b:0x736dcbfbdf5522f1","tel":"+84 915 111 006","spa":"Xinh Spa","name":"Xinh Spa, 20 P. Quán Thánh, Quán Thánh, Ba Đình, Hà Nội, Vietnam","name2":"Xinh Spa, 20 P. Quán Thánh, Quán Thánh, Ba Đình, Hà Nội, Vietnam","lat":21.0404007,"lon":105.8467247,"add":"20 P. Quán Thánh","ward":"Quán Thánh","dist":"Ba Đình","province":"Hà Nội, Vietnam"},{"id":"0x3135abbfe8a170d9:0x740d0d58e7036cac","tel":"+84 24 3990 4680","spa":"Hoa Anh Thảo Spa","name":"Hoa Anh Thảo Spa, 35 P. Quán Thánh, Quán Thánh, Ba Đình, Hà Nội 10000, Vietnam","name2":"Hoa Anh Thảo Spa, 35 P. Quán Thánh, Quán Thánh, Ba Đình, Hà Nội 10000, Vietnam","lat":21.042066,"lon":105.8436323,"add":"35 P. Quán Thánh","ward":"Quán Thánh","dist":"Ba Đình","province":"Hà Nội 10000, Vietnam"},{"id":"0x3135abc6edc5602f:0x9bc4d82b7b44cc18","tel":"+84 368 079 688","spa":"Hanoi Waxing Room","name":"Hanoi Waxing Room, Alisa building, 04 P. Mã Mây, Hàng Buồm, Hoàn Kiếm, Hà Nội, Vietnam","name2":"Hanoi Waxing Room, Alisa building, 04 P. Mã Mây, Hàng Buồm, Hoàn Kiếm, Hà Nội, Vietnam","lat":21.0359318,"lon":105.8530102,"add":"Alisa building, 04 P. Mã Mây","ward":"Hàng Buồm","dist":"Hoàn Kiếm","province":"Hà Nội, Vietnam"},{"id":"0x3135ab3f44be4ffb:0xfd2f26776a1cbb4c","tel":"+84 942 688 448","spa":"Fishouse Beauty","name":"Fishouse Beauty, 1 Ng. 165 P. Dương Quảng Hàm, Quan Hoa, Cầu Giấy, Hà Nội, Vietnam","name2":"Fishouse Beauty, 1 Ng. 165 P. Dương Quảng Hàm, Quan Hoa, Cầu Giấy, Hà Nội, Vietnam","lat":21.0360624,"lon":105.80060429999999,"add":"1 Ng. 165 P. Dương Quảng Hàm","ward":"Quan Hoa","dist":"Cầu Giấy","province":"Hà Nội, Vietnam"},{"id":"0x3135adf575464b2f:0xa4b46930d15a3ecd","tel":"+84 978 814 288","spa":"GỘI ĐẦU DƯỠNG SINH - NGỌC HÀ","name":"GỘI ĐẦU DƯỠNG SINH - NGỌC HÀ, Tòa 17T2, P. Hoàng Đạo Thúy, Trung Hoà, Cầu Giấy, Hà Nội 000084, Vietnam","name2":"GỘI ĐẦU DƯỠNG SINH - NGỌC HÀ, Tòa 17T2, P. Hoàng Đạo Thúy, Trung Hoà, Cầu Giấy, Hà Nội 000084, Vietnam","lat":21.0093693,"lon":105.80100879999999,"add":"Tòa 17T2, P. Hoàng Đạo Thúy","ward":"Trung Hoà","dist":"Cầu Giấy","province":"Hà Nội 000084, Vietnam"},{"id":"0x3135ab9bc4105403:0x52b3ec52f2915206","tel":"+84 981 395 202","spa":"Ngọc Dương Healthcare & Beauty central","name":"Ngọc Dương Healthcare & Beauty central, 19 Ng. 210 P. Đội Cấn, Đội Cấn, Ba Đình, Hà Nội 100000, Vietnam","name2":"Ngọc Dương Healthcare & Beauty central, 19 Ng. 210 P. Đội Cấn, Đội Cấn, Ba Đình, Hà Nội 100000, Vietnam","lat":21.034895799999997,"lon":105.82087589999999,"add":"19 Ng. 210 P. Đội Cấn","ward":"Đội Cấn","dist":"Ba Đình","province":"Hà Nội 100000, Vietnam"},{"id":"0x3135abfe78da8bd3:0x7c312391ef658f1e","tel":"+84 928 626 688","spa":"Thẩm Mỹ Dưỡng Sinh LeNaa Spa","name":"Thẩm Mỹ Dưỡng Sinh LeNaa Spa, 86 Ng. 355 Đ. Xuân Đỉnh, Xuân Đỉnh, Bắc Từ Liêm, Hà Nội 143315, Vietnam","name2":"Thẩm Mỹ Dưỡng Sinh LeNaa Spa, 86 Ng. 355 Đ. Xuân Đỉnh, Xuân Đỉnh, Bắc Từ Liêm, Hà Nội 143315, Vietnam","lat":21.070199,"lon":105.7880436,"add":"86 Ng. 355 Đ. Xuân Đỉnh","ward":"Xuân Đỉnh","dist":"Bắc Từ Liêm","province":"Hà Nội 143315, Vietnam"},{"id":"0x3135ab498fdae923:0x64948b7d40c9eefa","tel":"+84 966 550 959","spa":"Vuki Beauty","name":"Vuki Beauty, ngõ 84 P. Ngọc Khánh, Giảng Võ, Ba Đình, Hà Nội 100000, Vietnam","name2":"Vuki Beauty, ngõ 84 P. Ngọc Khánh, Giảng Võ, Ba Đình, Hà Nội 100000, Vietnam","lat":21.0257702,"lon":105.815545,"add":"ngõ 84 P. Ngọc Khánh","ward":"Giảng Võ","dist":"Ba Đình","province":"Hà Nội 100000, Vietnam"},{"id":"0x3135ab801ef1e683:0x831661fe659b063c","tel":"+84 904 881 705","spa":"An Care Health Spa","name":"An Care Health Spa, Ngách 64/4 P. Lưu Hữu Phước, Mỹ Đình, Nam Từ Liêm, Hà Nội 100000, Vietnam","name2":"An Care Health Spa, Ngách 64/4 P. Lưu Hữu Phước, Mỹ Đình, Nam Từ Liêm, Hà Nội 100000, Vietnam","lat":21.032975099999998,"lon":105.7643792,"add":"Ngách 64/4 P. Lưu Hữu Phước","ward":"Mỹ Đình","dist":"Nam Từ Liêm","province":"Hà Nội 100000, Vietnam"},{"id":"0x313455f8dd81a1b5:0x1f7eb7c00fc1e594","tel":"+84 961 722 288","spa":"Thảo Ngọc Beauty&Spa","name":"Thảo Ngọc Beauty&Spa, Số 25 Lô TT02, Khu đô thị HD Moncity, P. Hàm Nghi, Mỹ Đình, Từ Liêm, Hà Nội, Vietnam","name2":"Thảo Ngọc Beauty&Spa, Số 25 Lô TT02, Khu đô thị HD Moncity, P. Hàm Nghi, Mỹ Đình, Từ Liêm, Hà Nội, Vietnam","lat":21.0352472,"lon":105.76795899999999,"add":"Số 25 Lô TT02, Khu đô thị HD Moncity, P. Hàm Nghi","ward":"Mỹ Đình","dist":"Từ Liêm","province":"Hà Nội, Vietnam"},{"id":"0x3135ab93a56a8c2d:0x39b31c64f5eff38c","tel":"+84 967 866 590","spa":"Hương beauty","name":"Hương beauty, 55 Ng. 409 P. Kim Mã, Ngọc Khánh, Ba Đình, Hà Nội 100000, Vietnam","name2":"Hương beauty, 55 Ng. 409 P. Kim Mã, Ngọc Khánh, Ba Đình, Hà Nội 100000, Vietnam","lat":21.0303075,"lon":105.81569429999999,"add":"55 Ng. 409 P. Kim Mã","ward":"Ngọc Khánh","dist":"Ba Đình","province":"Hà Nội 100000, Vietnam"},{"id":"0x3135ab77ff51a805:0xa7ae638ada75a8ff","tel":"+84 378 383 826","spa":"THON Hair Care & Beauty Hệ Thống Điều Trị Rụng Tóc Hói Đầu","name":"THON Hair Care & Beauty Hệ Thống Điều Trị Rụng Tóc Hói Đầu, 93 P. Đào Tấn, Ngọc Khánh, Ba Đình, Hà Nội 100000, Vietnam","name2":"THON Hair Care & Beauty Hệ Thống Điều Trị Rụng Tóc Hói Đầu, 93 P. Đào Tấn, Ngọc Khánh, Ba Đình, Hà Nội 100000, Vietnam","lat":21.0333772,"lon":105.80620379999999,"add":"93 P. Đào Tấn","ward":"Ngọc Khánh","dist":"Ba Đình","province":"Hà Nội 100000, Vietnam"},{"id":"0x3135abb6f361f727:0x278896a10fb1630a","tel":null,"spa":"dungu","name":"dungu, 1 P. Phạm Huy Thông, Ngọc Khánh, Ba Đình, Hà Nội 10000, Vietnam","name2":"dungu, 1 P. Phạm Huy Thông, Ngọc Khánh, Ba Đình, Hà Nội 10000, Vietnam","lat":21.0262811,"lon":105.8110047,"add":"1 P. Phạm Huy Thông","ward":"Ngọc Khánh","dist":"Ba Đình","province":"Hà Nội 10000, Vietnam"},{"id":"0x3135abc041e71cb3:0xbfae570457c23ec0","tel":"+84 974 379 886","spa":"Spa Đông Y","name":"Spa Đông Y, 50 P.Yên Lãng, Láng Hạ, Đống Đa, Hà Nội 100000, Vietnam","name2":"Spa Đông Y, 50 P.Yên Lãng, Láng Hạ, Đống Đa, Hà Nội 100000, Vietnam","lat":21.0124936,"lon":105.8172774,"add":"50 P.Yên Lãng","ward":"Láng Hạ","dist":"Đống Đa","province":"Hà Nội 100000, Vietnam"},{"id":"0x3135aaf744e29639:0x9d477627bdd9b9bb","tel":null,"spa":"Japanese Onsen Spa","name":"3R9F+GJ4 Japanese Onsen Spa, Đ. Tô Ngọc Vân, Quảng An, Tây Hồ, Hà Nội, Vietnam","name2":"3R9F+GJ4 Japanese Onsen Spa, Đ. Tô Ngọc Vân, Quảng An, Tây Hồ, Hà Nội, Vietnam","lat":21.0687727,"lon":105.82408,"add":"3R9F+GJ4, Đ. Tô Ngọc Vân","ward":"Quảng An","dist":"Tây Hồ","province":"Hà Nội, Vietnam"},{"id":"0x3135ab6d91a24867:0x259fc032756a0fca","tel":"+84 886 251 616","spa":"Mimi Beauty and Academy, massage","name":"Mimi Beauty and Academy, massage, Ngõ 371 P. Kim Mã, Ngọc Khánh, Ba Đình, Hà Nội, Vietnam","name2":"Mimi Beauty and Academy, massage, Ngõ 371 P. Kim Mã, Ngọc Khánh, Ba Đình, Hà Nội, Vietnam","lat":21.030310999999998,"lon":105.8162942,"add":"Ngõ 371 P. Kim Mã","ward":"Ngọc Khánh","dist":"Ba Đình","province":"Hà Nội, Vietnam"},{"id":"0x3135ab39a6bfabe3:0xad6365223a36bc","tel":"+84 966 550 959","spa":"She Beauty","name":"She Beauty, 45 Ng. 94 P. Ngọc Khánh, Phố, Ba Đình, Hà Nội, Vietnam","name2":"She Beauty, 45 Ng. 94 P. Ngọc Khánh, Phố, Ba Đình, Hà Nội, Vietnam","lat":21.0262589,"lon":105.81663999999999,"add":"45 Ng. 94 P. Ngọc Khánh","ward":"Phố","dist":"Ba Đình","province":"Hà Nội, Vietnam"},{"id":"0x3135ab8d78c6636b:0x3ac1918748d0a45f","tel":"+84 902 308 888","spa":"Luxury Spa - LAVENDER by CHANG Hà Nội","name":"Luxury Spa - LAVENDER by CHANG Hà Nội, 19 Điện Biên Phủ, Điện Biên, Ba Đình, Hà Nội 100000, Vietnam","name2":"Luxury Spa - LAVENDER by CHANG Hà Nội, 19 Điện Biên Phủ, Điện Biên, Ba Đình, Hà Nội 100000, Vietnam","lat":21.030122799999997,"lon":105.8413246,"add":"19 Điện Biên Phủ","ward":"Điện Biên","dist":"Ba Đình","province":"Hà Nội 100000, Vietnam"},{"id":"0x3135abea6856a865:0x3b566f9429becd1","tel":"+84 24 3938 8408","spa":"Sabi Spa 6 Thọ Xương","name":"Sabi Spa 6 Thọ Xương, 6 Ng. Thọ Xương, Hàng Trống, Hoàn Kiếm, Hà Nội, Vietnam","name2":"Sabi Spa 6 Thọ Xương, 6 Ng. Thọ Xương, Hàng Trống, Hoàn Kiếm, Hà Nội, Vietnam","lat":21.0290324,"lon":105.84884439999999,"add":"6 Ng. Thọ Xương","ward":"Hàng Trống","dist":"Hoàn Kiếm","province":"Hà Nội, Vietnam"},{"id":"0x31345503ef9428ff:0xd13031d75742bb8d","tel":"+84 988 073 507","spa":"NAPSkin Spa & Cosmetic","name":"NAPSkin Spa & Cosmetic, A3SO11 Vinhomes Gardenia, P. Hàm Nghi, Cầu Diễn, Nam Từ Liêm, Hà Nội, Vietnam","name2":"NAPSkin Spa & Cosmetic, A3SO11 Vinhomes Gardenia, P. Hàm Nghi, Cầu Diễn, Nam Từ Liêm, Hà Nội, Vietnam","lat":21.034969999999998,"lon":105.7600516,"add":"A3SO11 Vinhomes Gardenia, P. Hàm Nghi","ward":"Cầu Diễn","dist":"Nam Từ Liêm","province":"Hà Nội, Vietnam"},{"id":"0x3135abbf6155bcc7:0xf3417b1062508173","tel":"+84 24 3935 2485","spa":"AIRA Boutique Hanoi Hotel & Spa","name":"AIRA Boutique Hanoi Hotel & Spa, 38A P. Trần Phú, Điện Biên, Ba Đình, Hà Nội 100000, Vietnam","name2":"AIRA Boutique Hanoi Hotel & Spa, 38A P. Trần Phú, Điện Biên, Ba Đình, Hà Nội 100000, Vietnam","lat":21.0307215,"lon":105.8418808,"add":"38A P. Trần Phú","ward":"Điện Biên","dist":"Ba Đình","province":"Hà Nội 100000, Vietnam"},{"id":"0x313455c7778706b9:0x874126edd6f4693c","tel":"+84 976 900 712","spa":"Hamiruby Spa","name":"Hamiruby Spa, M-09 Đường Hoa Mai, Khu Biệt thự Vinadic, Đ. Phú Diễn, Phú Diễn, Từ Liêm, Hà Nội, Vietnam","name2":"Hamiruby Spa, M-09 Đường Hoa Mai, Khu Biệt thự Vinadic, Đ. Phú Diễn, Phú Diễn, Từ Liêm, Hà Nội, Vietnam","lat":21.0581989,"lon":105.76376259999999,"add":"M-09 Đường Hoa Mai, Khu Biệt thự Vinadic, Đ. Phú Diễn","ward":"Phú Diễn","dist":"Từ Liêm","province":"Hà Nội, Vietnam"},{"id":"0x3135abcca592ce69:0x176d60b6381d2c59","tel":"+84 379 414 444","spa":"Amidovi Beauty","name":"Amidovi Beauty, ngách 31 Ng. 135 P. Đội Cấn, Ngọc Hồ, Ba Đình, Hà Nội 10000, Vietnam","name2":"Amidovi Beauty, ngách 31 Ng. 135 P. Đội Cấn, Ngọc Hồ, Ba Đình, Hà Nội 10000, Vietnam","lat":21.035437899999998,"lon":105.82787569999999,"add":"ngách 31 Ng. 135 P. Đội Cấn","ward":"Ngọc Hồ","dist":"Ba Đình","province":"Hà Nội 10000, Vietnam"},{"id":"0x3135ab5040196ca1:0x58e743217a181a79","tel":"+84 24 3733 9933","spa":"Ginza rara spa","name":"Ginza rara spa, 301 P. Đội Cấn, Liễu Giai, Ba Đình, Hà Nội, Vietnam","name2":"Ginza rara spa, 301 P. Đội Cấn, Liễu Giai, Ba Đình, Hà Nội, Vietnam","lat":21.033607,"lon":105.81581399999999,"add":"301 P. Đội Cấn","ward":"Liễu Giai","dist":"Ba Đình","province":"Hà Nội, Vietnam"},{"id":"0x3135ab0cdb297c6d:0x53110af318f5aebd","tel":"+84 987 476 186","spa":"ID spa","name":"ID spa, 9 Ng. 210 P. Đội Cấn, Đội Cấn, Ba Đình, Hà Nội, Vietnam","name2":"ID spa, 9 Ng. 210 P. Đội Cấn, Đội Cấn, Ba Đình, Hà Nội, Vietnam","lat":21.035149699999998,"lon":105.8214936,"add":"9 Ng. 210 P. Đội Cấn","ward":"Đội Cấn","dist":"Ba Đình","province":"Hà Nội, Vietnam"},{"id":"0x3135ab3f53caf525:0xca72bdd957f27ac7","tel":"+84 977 928 998","spa":"Spa Huyền Linh","name":"Spa Huyền Linh, 195B P. Đội Cấn, Đội Cấn, Ba Đình, Hà Nội, Vietnam","name2":"Spa Huyền Linh, 195B P. Đội Cấn, Đội Cấn, Ba Đình, Hà Nội, Vietnam","lat":21.035135,"lon":105.82328659999999,"add":"195B P. Đội Cấn","ward":"Đội Cấn","dist":"Ba Đình","province":"Hà Nội, Vietnam"},{"id":"0x3135abbe88c54195:0xed79cdd8a82cd8d0","tel":"+84 353 534 398","spa":"Bích Hậu Beauty spa","name":"Bích Hậu Beauty spa, ngõ 86 P. Đốc Ngữ, Vĩnh Phú, Ba Đình, Hà Nội 100000, Vietnam","name2":"Bích Hậu Beauty spa, ngõ 86 P. Đốc Ngữ, Vĩnh Phú, Ba Đình, Hà Nội 100000, Vietnam","lat":21.041445,"lon":105.8137534,"add":"ngõ 86 P. Đốc Ngữ","ward":"Vĩnh Phú","dist":"Ba Đình","province":"Hà Nội 100000, Vietnam"},{"id":"0x3135ab6aa38ebf77:0xc58bdda974822a51","tel":"+84 24 6662 9595","spa":"KEY CLUB & SPA","name":"KEY CLUB & SPA, 9 P. Đào Tấn, Ngọc Khánh, Ba Đình, Hà Nội, Vietnam","name2":"KEY CLUB & SPA, 9 P. Đào Tấn, Ngọc Khánh, Ba Đình, Hà Nội, Vietnam","lat":21.033597099999998,"lon":105.8059057,"add":"9 P. Đào Tấn","ward":"Ngọc Khánh","dist":"Ba Đình","province":"Hà Nội, Vietnam"},{"id":"0x3135ab720bd233ab:0xafdd526bf36c3bb0","tel":"+84 966 256 666","spa":"Spa Linh Linh","name":"Spa Linh Linh, 62 P. Ngọc Khánh, Ngọc Khánh, Ba Đình, Hà Nội, Vietnam","name2":"Spa Linh Linh, 62 P. Ngọc Khánh, Ngọc Khánh, Ba Đình, Hà Nội, Vietnam","lat":21.028912,"lon":105.81741729999999,"add":"62 P. Ngọc Khánh","ward":"Ngọc Khánh","dist":"Ba Đình","province":"Hà Nội, Vietnam"},{"id":"0x3135ab6d879c08f1:0xc38e11c68688c59f","tel":"+84 988 585 360","spa":"Mộc Huyền Spa","name":"Mộc Huyền Spa, 3 P. Ngọc Khánh, Giảng Võ, Ba Đình, Hà Nội, Vietnam","name2":"Mộc Huyền Spa, 3 P. Ngọc Khánh, Giảng Võ, Ba Đình, Hà Nội, Vietnam","lat":21.0303963,"lon":105.8174098,"add":"3 P. Ngọc Khánh","ward":"Giảng Võ","dist":"Ba Đình","province":"Hà Nội, Vietnam"},{"id":"0x3135ab1670e1e757:0xc9cb25e073d8b40f","tel":"+84 24 6282 9898","spa":"Green Spa","name":"Green Spa, 14 Đ. Bưởi, Vĩnh Phú, Ba Đình, Hà Nội, Vietnam","name2":"Green Spa, 14 Đ. Bưởi, Vĩnh Phú, Ba Đình, Hà Nội, Vietnam","lat":21.0410111,"lon":105.8078165,"add":"14 Đ. Bưởi","ward":"Vĩnh Phú","dist":"Ba Đình","province":"Hà Nội, Vietnam"},{"id":"0x3135ab0bdc5753e5:0x10b04e17155798db","tel":"+84 332 822 768","spa":"Phượng","name":null,"name2":null,"lat":21.035879899999998,"lon":105.82963199999999},{"id":"0x3135ab1285929cc7:0xdb220f55d25a36a5","tel":null,"spa":"Hoa Hong Spa","name":"Hoa Hong Spa, Kim Mã, Ba Đình, Hà Nội, Vietnam","name2":"Hoa Hong Spa, Kim Mã, Ba Đình, Hà Nội, Vietnam","lat":21.0318328,"lon":105.8247736,"add":"Kim Mã","ward":"Ba Đình","dist":"Hà Nội","province":"Vietnam"},{"id":"0x313455aaf3e9d6a7:0x6cb1c9d7b6a57327","tel":"+84 335 339 966","spa":"MAY SPA - HOÀI ĐỨC","name":"MAY SPA - HOÀI ĐỨC, Khu 7, Hoài Đức, Hà Nội 13200, Vietnam","name2":"MAY SPA - HOÀI ĐỨC, Khu 7, Hoài Đức, Hà Nội 13200, Vietnam","lat":21.0735246,"lon":105.7015751,"add":"Khu 7","ward":"Hoài Đức","dist":"Hà Nội 13200","province":"Vietnam"},{"id":"0x3135ab80f6c7b1d5:0xb9ee2e355128c2d4","tel":"+84 928 216 699","spa":"Athena Spa","name":"Athena Spa, 74 P. Phan Kế Bính, Cống Vị, Ba Đình, Hà Nội, Vietnam","name2":"Athena Spa, 74 P. Phan Kế Bính, Cống Vị, Ba Đình, Hà Nội, Vietnam","lat":21.0353203,"lon":105.8096291,"add":"74 P. Phan Kế Bính","ward":"Cống Vị","dist":"Ba Đình","province":"Hà Nội, Vietnam"},{"id":"0x3135abf36e68bbeb:0x6e2fd193781051f9","tel":"+84 866 891 340","spa":"May Spa Hanoi","name":"May Spa Hanoi, 6 P. Từ Hoa, Quảng An, Tây Hồ, Hà Nội, Vietnam","name2":"May Spa Hanoi, 6 P. Từ Hoa, Quảng An, Tây Hồ, Hà Nội, Vietnam","lat":21.0592441,"lon":105.8335723,"add":"6 P. Từ Hoa","ward":"Quảng An","dist":"Tây Hồ","province":"Hà Nội, Vietnam"},{"id":"0x313454ec1abb5c4b:0xc63483e290209de8","tel":"+84 982 954 226","spa":"Beauty Salon & Spa Khánh Hoà","name":"Beauty Salon & Spa Khánh Hoà, 81Đường Cầu Diễn, Phúc Diễn, Từ Liêm, Hà Nội, Vietnam","name2":"Beauty Salon & Spa Khánh Hoà, 81Đường Cầu Diễn, Phúc Diễn, Từ Liêm, Hà Nội, Vietnam","lat":21.044936999999997,"lon":105.75197689999999,"add":"81Đường Cầu Diễn","ward":"Phúc Diễn","dist":"Từ Liêm","province":"Hà Nội, Vietnam"},{"id":"0x3135ab7f9404a8e1:0x83648a2902261e1","tel":"+84 961 797 398","spa":"Khánh Vân Spa","name":"3QPJ+CRH Khánh Vân Spa, Đông Ngạc, Từ Liêm, Hà Nội, Vietnam","name2":"3QPJ+CRH Khánh Vân Spa, Đông Ngạc, Từ Liêm, Hà Nội, Vietnam","lat":21.086089899999997,"lon":105.7821175,"add":"3QPJ+CRH","ward":"Đông Ngạc","dist":"Từ Liêm","province":"Hà Nội, Vietnam"},{"id":"0x3135abe74b41cb07:0xc50d416cd1c09fe4","tel":"+84 985 615 005","spa":"Cimet Beauty & Academy","name":"Cimet Beauty & Academy, 12b P. Phạm Huy Thông, Ngọc Khánh, Ba Đình, Hà Nội, Vietnam","name2":"Cimet Beauty & Academy, 12b P. Phạm Huy Thông, Ngọc Khánh, Ba Đình, Hà Nội, Vietnam","lat":21.0284396,"lon":105.8107184,"add":"12b P. Phạm Huy Thông","ward":"Ngọc Khánh","dist":"Ba Đình","province":"Hà Nội, Vietnam"},{"id":"0x3135abfd0d27e9d1:0x410a42bc3caca777","tel":"+84 989 151 539","spa":"HOUSE BEAUTY SPA & NAIL","name":"HOUSE BEAUTY SPA & NAIL, Ngõ 112, Số 10 P. Ngọc Khánh, Giảng Võ, Ba Đình, Hà Nội, Vietnam","name2":"HOUSE BEAUTY SPA & NAIL, Ngõ 112, Số 10 P. Ngọc Khánh, Giảng Võ, Ba Đình, Hà Nội, Vietnam","lat":21.025961,"lon":105.8178159,"add":"Ngõ 112, Số 10 P. Ngọc Khánh","ward":"Giảng Võ","dist":"Ba Đình","province":"Hà Nội, Vietnam"},{"id":"0x3135abad7d306915:0xb8bd70d11b1f3857","tel":null,"spa":"Maxi Spa","name":"Maxi Spa, 57 Đ. Nguyễn Khánh Toàn, Quan Hoa, Cầu Giấy, Hà Nội, Vietnam","name2":"Maxi Spa, 57 Đ. Nguyễn Khánh Toàn, Quan Hoa, Cầu Giấy, Hà Nội, Vietnam","lat":21.038160899999998,"lon":105.7996551,"add":"57 Đ. Nguyễn Khánh Toàn","ward":"Quan Hoa","dist":"Cầu Giấy","province":"Hà Nội, Vietnam"},{"id":"0x3135ab72a2dda415:0xdc28208c4dcbe17b","tel":"+84 971 752 789","spa":"Queeny Spa - Laser trị sạch nám/tàn nhang/đồi mồi tốt nhất Cầu Giấy - Hà Nội","name":"Queeny Spa - Laser trị sạch nám/tàn nhang/đồi mồi tốt nhất Cầu Giấy - Hà Nội, Số 3 Đ. Nguyễn Khánh Toàn, Quan Hoa, Cầu Giấy, Hà Nội, Vietnam","name2":"Queeny Spa - Laser trị sạch nám/tàn nhang/đồi mồi tốt nhất Cầu Giấy - Hà Nội, Số 3 Đ. Nguyễn Khánh Toàn, Quan Hoa, Cầu Giấy, Hà Nội, Vietnam","lat":21.0349725,"lon":105.804194,"add":"Số 3 Đ. Nguyễn Khánh Toàn","ward":"Quan Hoa","dist":"Cầu Giấy","province":"Hà Nội, Vietnam"},{"id":"0x313509381f9d6849:0xe531943f33fac46d","tel":"+84 901 412 918","spa":"Sorella Beauty Spa","name":"Sorella Beauty Spa, 105 P. Núi Trúc, Kim Mã, Ba Đình, Hà Nội 100000, Vietnam","name2":"Sorella Beauty Spa, 105 P. Núi Trúc, Kim Mã, Ba Đình, Hà Nội 100000, Vietnam","lat":21.0294909,"lon":105.8235831,"add":"105 P. Núi Trúc","ward":"Kim Mã","dist":"Ba Đình","province":"Hà Nội 100000, Vietnam"},{"id":"0x3135ab6c527e0f93:0xb8372cbcfd6e203e","tel":"+84 386 463 463","spa":"Thẩm mỹ Quốc tế Bally - 463 Kim Mã, Ba Đình","name":"Thẩm mỹ Quốc tế Bally - 463 Kim Mã, Ba Đình, 463 P. Kim Mã, Ngọc Khánh, Ba Đình, Hà Nội, Vietnam","name2":"Thẩm mỹ Quốc tế Bally - 463 Kim Mã, Ba Đình, 463 P. Kim Mã, Ngọc Khánh, Ba Đình, Hà Nội, Vietnam","lat":21.0302851,"lon":105.814157,"add":"463 P. Kim Mã","ward":"Ngọc Khánh","dist":"Ba Đình","province":"Hà Nội, Vietnam"},{"id":"0x3135ab7c79ffe309:0xc345765a1d899e9f","tel":"+84 934 604 980","spa":"Akira Clinic Spa","name":"Akira Clinic Spa, 8 P. Cát Linh, Cát Linh, Đống Đa, Hà Nội 115000, Vietnam","name2":"Akira Clinic Spa, 8 P. Cát Linh, Cát Linh, Đống Đa, Hà Nội 115000, Vietnam","lat":21.0282192,"lon":105.83403009999999,"add":"8 P. Cát Linh","ward":"Cát Linh","dist":"Đống Đa","province":"Hà Nội 115000, Vietnam"},{"id":"0x3135ab23ef5efd93:0xbdc94bc441e03045","tel":null,"spa":"Beauty Kim Mã","name":"Beauty Kim Mã, Kim Mã, Ba Đình, Hà Nội, Vietnam","name2":"Beauty Kim Mã, Kim Mã, Ba Đình, Hà Nội, Vietnam","lat":21.0297129,"lon":105.8103416,"add":"Kim Mã","ward":"Ba Đình","dist":"Hà Nội","province":"Vietnam"},{"id":"0x3135ab39f774b9a5:0xd6fb388afceeb4ce","tel":null,"spa":"Sunstone spa massage","name":"Sunstone spa massage, 82 P. Kim Mã Thượng, Cống Vị, Ba Đình, Hà Nội, Vietnam","name2":"Sunstone spa massage, 82 P. Kim Mã Thượng, Cống Vị, Ba Đình, Hà Nội, Vietnam","lat":21.036129499999998,"lon":105.8111991,"add":"82 P. Kim Mã Thượng","ward":"Cống Vị","dist":"Ba Đình","province":"Hà Nội, Vietnam"},